{
"type": "FeatureCollection",
"crs": { "type": "name", "properties": { "name": "urn:ogc:def:crs:OGC:1.3:CRS84" } },
"features": [
{ "type": "Feature", "properties": { "COMFAC_ID": 36948, "PID": 6763201, "COM_TYPE1": "Council", "COM_TYPE2": "Central Coast", "NAME": "South Riana Waste Transfer Station", "UFI": "{c1cd5231-3316-41c4-b154-78e0794aabc8}", "CREATED_ON": "2016-11-23 10:54:04", "LIST_GUID": "{7492b0b0-9452-41de-82a8-1f47137ce255}", "NOM_REG_NO": null }, "geometry": { "type": "Point", "coordinates": [ 145.977318339787161, -41.27960084967647 ] } },
{ "type": "Feature", "properties": { "COMFAC_ID": 17046, "PID": 6770559, "COM_TYPE1": "Club", "COM_TYPE2": "Scout", "NAME": "Blythe Park Scout Camp", "UFI": "{d8001593-a36d-4471-a7f9-280c5f5b745e}", "CREATED_ON": "2016-11-23 10:54:04", "LIST_GUID": "{f508587e-1735-426e-aa69-931f23da00af}", "NOM_REG_NO": null }, "geometry": { "type": "Point", "coordinates": [ 145.976194395733216, -41.08324898409964 ] } },
{ "type": "Feature", "properties": { "COMFAC_ID": 6815, "PID": 6770743, "COM_TYPE1": "State police and emergency", "COM_TYPE2": "Fire station", "NAME": "Heybridge Fire Station", "UFI": "{c109fffd-ac87-4546-95b5-b036f42f871e}", "CREATED_ON": "2016-11-23 10:54:04", "LIST_GUID": "{4446609e-8211-4357-b1a3-e8195c36a0eb}", "NOM_REG_NO": null }, "geometry": { "type": "Point", "coordinates": [ 145.984501169362375, -41.079659978091257 ] } },
{ "type": "Feature", "properties": { "COMFAC_ID": 63510, "PID": 2048710, "COM_TYPE1": "Tourist feature", "COM_TYPE2": "Natural", "NAME": "Leven Canyon", "UFI": "{418bc890-1f8c-47d4-8e94-db173b960fb3}", "CREATED_ON": "2016-11-23 10:54:04", "LIST_GUID": "{1c7d92dc-f5d3-436a-954f-aec9248abde9}", "NOM_REG_NO": "2724N" }, "geometry": { "type": "Point", "coordinates": [ 146.026802809620193, -41.397018597528486 ] } },
{ "type": "Feature", "properties": { "COMFAC_ID": 36590, "PID": 6770997, "COM_TYPE1": "Hall\/ Community centre", "COM_TYPE2": "Community, town or city hall", "NAME": "Sulphur Creek War Memorial Hall", "UFI": "{3e259b5b-293e-48a2-9a02-571aad111188}", "CREATED_ON": "2016-11-23 10:54:04", "LIST_GUID": "{2463d8b4-d405-4099-bea2-d0aa0c3cf160}", "NOM_REG_NO": null }, "geometry": { "type": "Point", "coordinates": [ 146.023747587437583, -41.093286772470812 ] } },
{ "type": "Feature", "properties": { "COMFAC_ID": 36947, "PID": 6992258, "COM_TYPE1": "Ground", "COM_TYPE2": "Park or reserve", "NAME": "Bannons Park", "UFI": "{fdbd681c-2fe0-4b84-959c-2df04e9e040d}", "CREATED_ON": "2016-11-23 10:54:04", "LIST_GUID": "{a3ed0ff9-0436-4268-8168-f4153a908ad2}", "NOM_REG_NO": "22180C" }, "geometry": { "type": "Point", "coordinates": [ 146.085676987617916, -41.250638097533951 ] } },
{ "type": "Feature", "properties": { "COMFAC_ID": 63206, "PID": 6977859, "COM_TYPE1": "Council", "COM_TYPE2": "Central Coast", "NAME": "Ulverstone Waste Disposal Site", "UFI": "{9147d6f1-d95a-4d2a-971d-4ca8dd9d13ec}", "CREATED_ON": "2016-11-23 10:54:04", "LIST_GUID": "{4c67c7ae-15dd-4493-adff-f68fa411194c}", "NOM_REG_NO": null }, "geometry": { "type": "Point", "coordinates": [ 146.098394513077835, -41.150942963206226 ] } },
{ "type": "Feature", "properties": { "COMFAC_ID": 6855, "PID": 7154029, "COM_TYPE1": "Education and training", "COM_TYPE2": "Primary and infant", "NAME": "Penguin Primary School", "UFI": "{4822296b-e271-47eb-ad38-f88ac1899d7d}", "CREATED_ON": "2016-11-23 10:54:04", "LIST_GUID": "{40aae737-8fe6-48a6-ac32-aa4348d62d8f}", "NOM_REG_NO": null }, "geometry": { "type": "Point", "coordinates": [ 146.068708938516636, -41.125267710526408 ] } },
{ "type": "Feature", "properties": { "COMFAC_ID": 57564, "PID": 0, "COM_TYPE1": "Ground", "COM_TYPE2": "Picnic Area", "NAME": "Picnic Area", "UFI": "{a7d68a50-0646-496a-bd01-bd278cb26389}", "CREATED_ON": "2016-11-23 10:54:04", "LIST_GUID": "{32776128-48fb-46c9-a7d2-8ade1d9ba8a7}", "NOM_REG_NO": null }, "geometry": { "type": "Point", "coordinates": [ 146.06936066361385, -41.111529458862066 ] } },
{ "type": "Feature", "properties": { "COMFAC_ID": 6853, "PID": 6759413, "COM_TYPE1": "Commonwealth government", "COM_TYPE2": "Post offices and agencies", "NAME": "Penguin Post Office", "UFI": "{0eb71ed7-47b1-43f6-8af8-8a7a965f8bfd}", "CREATED_ON": "2016-11-23 10:54:04", "LIST_GUID": "{b8b7ea0e-47d6-4792-8a82-b702a458cc04}", "NOM_REG_NO": null }, "geometry": { "type": "Point", "coordinates": [ 146.072708292659684, -41.113819192431642 ] } },
{ "type": "Feature", "properties": { "COMFAC_ID": 6849, "PID": 1759115, "COM_TYPE1": "Ground", "COM_TYPE2": "Park or reserve", "NAME": "Max Perry Reserve", "UFI": "{e2615dee-630a-4472-a583-c0189aa3e720}", "CREATED_ON": "2016-11-23 10:54:04", "LIST_GUID": "{20831719-b383-40d8-ba99-5b624cf522cb}", "NOM_REG_NO": "23147S" }, "geometry": { "type": "Point", "coordinates": [ 146.077982044202713, -41.115859806361783 ] } },
{ "type": "Feature", "properties": { "COMFAC_ID": 37151, "PID": 2540983, "COM_TYPE1": "Council", "COM_TYPE2": "Central Coast", "NAME": "Castra Sprent Waste Transfer Station", "UFI": "{01637b45-24e5-432d-b0e1-9174a6e73579}", "CREATED_ON": "2016-11-23 10:54:04", "LIST_GUID": "{2b751645-cf03-4ef2-b24e-554857ea96c7}", "NOM_REG_NO": null }, "geometry": { "type": "Point", "coordinates": [ 146.135851592782899, -41.290652587263409 ] } },
{ "type": "Feature", "properties": { "COMFAC_ID": 37150, "PID": 7426856, "COM_TYPE1": "Hall\/ Community centre", "COM_TYPE2": "Community centre", "NAME": "Sprent Community Centre", "UFI": "{43d2fcf8-20e3-46a1-a150-e41dcc5dbbc8}", "CREATED_ON": "2016-11-23 10:54:04", "LIST_GUID": "{f8acbf83-a519-480d-8085-962e8ce07b1c}", "NOM_REG_NO": null }, "geometry": { "type": "Point", "coordinates": [ 146.156320023177955, -41.267232983694925 ] } },
{ "type": "Feature", "properties": { "COMFAC_ID": 63432, "PID": 7388781, "COM_TYPE1": "Accommodation", "COM_TYPE2": "Guest House\/ Bed and Breakfast", "NAME": "Bed and Breakfast @21", "UFI": "{df70a350-46df-4404-9e0d-da381d17f681}", "CREATED_ON": "2016-11-23 10:54:04", "LIST_GUID": "{45a494ef-3161-4912-9f8c-e9d6f68f13bf}", "NOM_REG_NO": null }, "geometry": { "type": "Point", "coordinates": [ 146.154500924529032, -41.200108916178074 ] } },
{ "type": "Feature", "properties": { "COMFAC_ID": 7060, "PID": 6988021, "COM_TYPE1": "Hall\/ Community centre", "COM_TYPE2": "Community, town or city hall", "NAME": "Gawler Hall", "UFI": "{18433877-4330-4322-bea3-c1ecf3750066}", "CREATED_ON": "2016-11-23 10:54:04", "LIST_GUID": "{a8a600a3-fd88-4638-9f8b-d0eec44a500e}", "NOM_REG_NO": null }, "geometry": { "type": "Point", "coordinates": [ 146.15999178926819, -41.185486282074351 ] } },
{ "type": "Feature", "properties": { "COMFAC_ID": 55735, "PID": 6977349, "COM_TYPE1": "Accommodation", "COM_TYPE2": "Guest House\/ Bed and Breakfast", "NAME": "Blue Wren Tea Gardens", "UFI": "{e3fd61a2-39d3-42b9-a32b-a7450909db1e}", "CREATED_ON": "2016-11-23 10:54:04", "LIST_GUID": "{4c6afa8d-06c7-4991-be4f-99d73add5857}", "NOM_REG_NO": null }, "geometry": { "type": "Point", "coordinates": [ 146.135552301202523, -41.137913322009759 ] } },
{ "type": "Feature", "properties": { "COMFAC_ID": 36788, "PID": 6984370, "COM_TYPE1": "State Government", "COM_TYPE2": "Other", "NAME": "Cradle Mountaint Water - Ulverstone Plant", "UFI": "{57f95f10-e3f1-4d47-84ec-baf4d70fdc7f}", "CREATED_ON": "2016-11-23 10:54:04", "LIST_GUID": "{93158e7a-c5cf-44ed-b2b3-b859d09d938e}", "NOM_REG_NO": null }, "geometry": { "type": "Point", "coordinates": [ 146.171987831727733, -41.174269687996414 ] } },
{ "type": "Feature", "properties": { "COMFAC_ID": 57127, "PID": 6972986, "COM_TYPE1": "State Government", "COM_TYPE2": "Justice", "NAME": "Community Corrections Ulverstone", "UFI": "{2661483c-edd7-47d0-9eea-d12d941662de}", "CREATED_ON": "2016-11-23 10:54:04", "LIST_GUID": "{21f53c42-da40-41d6-bd44-b0e314594b90}", "NOM_REG_NO": null }, "geometry": { "type": "Point", "coordinates": [ 146.162714547460212, -41.161315995299823 ] } },
{ "type": "Feature", "properties": { "COMFAC_ID": 54879, "PID": 6971270, "COM_TYPE1": "Church", "COM_TYPE2": "Churches of Christ", "NAME": "Ulverstone Church of Christ", "UFI": "{2c1d107a-74d4-4d0d-ab4e-8446897e1c56}", "CREATED_ON": "2016-11-23 10:54:04", "LIST_GUID": "{101f956e-49f5-4779-bd7f-dec8923f9aad}", "NOM_REG_NO": null }, "geometry": { "type": "Point", "coordinates": [ 146.163073279689371, -41.153089875514738 ] } },
{ "type": "Feature", "properties": { "COMFAC_ID": 6888, "PID": 6966228, "COM_TYPE1": "Church", "COM_TYPE2": "Other Church", "NAME": "Presbyterian Curch of  Eastern Australia", "UFI": "{110b779b-4d7c-4cb5-87d0-4988c27319cc}", "CREATED_ON": "2016-11-23 10:54:04", "LIST_GUID": "{9feb251f-9c05-4aab-b9e4-10415c4a4ca5}", "NOM_REG_NO": null }, "geometry": { "type": "Point", "coordinates": [ 146.164595150460684, -41.160281082164119 ] } },
{ "type": "Feature", "properties": { "COMFAC_ID": 62045, "PID": 2998791, "COM_TYPE1": "State police and emergency", "COM_TYPE2": "Community Fire Refuge", "NAME": "Ulverstone Sport and Leisure Centre", "UFI": "{c7b7c011-1cb5-447e-934b-697581f78c5b}", "CREATED_ON": "2016-11-23 10:54:04", "LIST_GUID": "{c084ce30-d8b7-4308-a3b3-5888ebd109a9}", "NOM_REG_NO": null }, "geometry": { "type": "Point", "coordinates": [ 146.167191910166764, -41.15357160755547 ] } },
{ "type": "Feature", "properties": { "COMFAC_ID": 61609, "PID": 1759414, "COM_TYPE1": "Tourist feature", "COM_TYPE2": "Other", "NAME": "Riverlinks Tasmania - Discover The Leven River Tours", "UFI": "{ec452ffd-d989-4669-89e6-1f867f8f0606}", "CREATED_ON": "2016-11-23 10:54:04", "LIST_GUID": "{e420c7e1-c2b6-47b6-8511-87faa1fd89b9}", "NOM_REG_NO": null }, "geometry": { "type": "Point", "coordinates": [ 146.168130071831229, -41.15403585148853 ] } },
{ "type": "Feature", "properties": { "COMFAC_ID": 25588, "PID": 7779328, "COM_TYPE1": "Community care", "COM_TYPE2": "Nursing and age home", "NAME": "Levenbank Aged Care", "UFI": "{208bc322-e634-4215-bb31-5e388906789e}", "CREATED_ON": "2016-11-23 10:54:04", "LIST_GUID": "{908c0797-a051-43be-8d42-800c6642203c}", "NOM_REG_NO": null }, "geometry": { "type": "Point", "coordinates": [ 146.168512545022111, -41.159360495482758 ] } },
{ "type": "Feature", "properties": { "COMFAC_ID": 20768, "PID": 1763157, "COM_TYPE1": "Hall\/ Community centre", "COM_TYPE2": "Other", "NAME": "Ulverstone Municipal Band", "UFI": "{e5fc6462-15ba-4dfc-bdb9-6a354deae720}", "CREATED_ON": "2016-11-23 10:54:04", "LIST_GUID": "{070ab0e9-bea3-418e-babb-b1dce9963480}", "NOM_REG_NO": null }, "geometry": { "type": "Point", "coordinates": [ 146.170106780091231, -41.155449545878376 ] } },
{ "type": "Feature", "properties": { "COMFAC_ID": 25565, "PID": 1409377, "COM_TYPE1": "Financial institution", "COM_TYPE2": "Westpac", "NAME": "Westpac Bank Ulverstone", "UFI": "{f9b2624f-5d68-46a9-be33-0f7d052bc7a2}", "CREATED_ON": "2016-11-23 10:54:04", "LIST_GUID": "{294a835b-b2cc-4c36-92ab-c715cad0d2b3}", "NOM_REG_NO": null }, "geometry": { "type": "Point", "coordinates": [ 146.170204175618068, -41.157364193783124 ] } },
{ "type": "Feature", "properties": { "COMFAC_ID": 57130, "PID": 7828804, "COM_TYPE1": "Transport", "COM_TYPE2": "Car park", "NAME": "North Reibey St Car Park Ulverstone", "UFI": "{7b64dffd-d82b-481c-b417-167c9d260d0f}", "CREATED_ON": "2016-11-23 10:54:04", "LIST_GUID": "{60171d24-3f6f-4bb4-877b-8fa8981c957a}", "NOM_REG_NO": null }, "geometry": { "type": "Point", "coordinates": [ 146.170984761638465, -41.156283006720159 ] } },
{ "type": "Feature", "properties": { "COMFAC_ID": 25525, "PID": 6971844, "COM_TYPE1": "Financial institution", "COM_TYPE2": "Commonwealth", "NAME": "Commonwealth Bank Ulverstone", "UFI": "{cbd58f4f-cd69-412a-9087-6d59cfe8e8a9}", "CREATED_ON": "2016-11-23 10:54:04", "LIST_GUID": "{efdd55e9-d483-4aca-a2bf-4bcdefafa9c7}", "NOM_REG_NO": null }, "geometry": { "type": "Point", "coordinates": [ 146.171147118013693, -41.157448288571736 ] } },
{ "type": "Feature", "properties": { "COMFAC_ID": 61277, "PID": 6965129, "COM_TYPE1": "Community care", "COM_TYPE2": "Charity or welfare", "NAME": "ADRA Op Shop Ulverstone", "UFI": "{0ce27193-6047-4fe5-99b2-a76e485c5592}", "CREATED_ON": "2016-11-23 10:54:04", "LIST_GUID": "{75c9cfbd-afd1-4530-80e7-23bff29a48f6}", "NOM_REG_NO": null }, "geometry": { "type": "Point", "coordinates": [ 146.172100159545323, -41.156847454160975 ] } },
{ "type": "Feature", "properties": { "COMFAC_ID": 61273, "PID": 1960556, "COM_TYPE1": "Community care", "COM_TYPE2": "Charity or welfare", "NAME": "Lion's Community Shop", "UFI": "{769ac59e-b84b-4102-9765-3624ad31d66c}", "CREATED_ON": "2016-11-23 10:54:04", "LIST_GUID": "{1b05ec5d-8e12-416c-86d9-b86cefe5d6b1}", "NOM_REG_NO": null }, "geometry": { "type": "Point", "coordinates": [ 146.173679197964304, -41.15670310108802 ] } },
{ "type": "Feature", "properties": { "COMFAC_ID": 61275, "PID": 6953136, "COM_TYPE1": "Accommodation", "COM_TYPE2": "Guest House\/ Bed and Breakfast", "NAME": "Ocean View Guest House", "UFI": "{889182f4-9c84-4ca6-89cb-5993242cc8cd}", "CREATED_ON": "2016-11-23 10:54:04", "LIST_GUID": "{5550ede5-c9ee-4690-a559-f0e4a59e56ff}", "NOM_REG_NO": null }, "geometry": { "type": "Point", "coordinates": [ 146.17453662219188, -41.153772683915953 ] } },
{ "type": "Feature", "properties": { "COMFAC_ID": 37390, "PID": 6954198, "COM_TYPE1": "Ground", "COM_TYPE2": "Sportsground", "NAME": "Ulverstone Recreation Ground", "UFI": "{9208f79a-7e73-4e3c-891d-bb156e81f287}", "CREATED_ON": "2016-11-23 10:54:04", "LIST_GUID": "{99609414-7975-4d98-87bf-3fc792cb24f5}", "NOM_REG_NO": null }, "geometry": { "type": "Point", "coordinates": [ 146.175297603174442, -41.152879212408024 ] } },
{ "type": "Feature", "properties": { "COMFAC_ID": 6979, "PID": 7520949, "COM_TYPE1": "Cultural", "COM_TYPE2": "Museum", "NAME": "Ulverstone History Museum", "UFI": "{cf0a715e-5b12-4aaa-a8bc-cab3d1088f6c}", "CREATED_ON": "2016-11-23 10:54:04", "LIST_GUID": "{3aceb6f4-c13f-4113-aefc-258f8365fb23}", "NOM_REG_NO": null }, "geometry": { "type": "Point", "coordinates": [ 146.176304208060998, -41.15709554033802 ] } },
{ "type": "Feature", "properties": { "COMFAC_ID": 60174, "PID": 0, "COM_TYPE1": "Tourist feature", "COM_TYPE2": "Amusement or entertainment", "NAME": "Pedal Buggies Tasmania", "UFI": "{64fef5b4-ab28-40cc-98f2-f5dc8c536edc}", "CREATED_ON": "2016-11-23 10:54:04", "LIST_GUID": "{4d61ac8a-d512-40e8-be22-1869c9dfa873}", "NOM_REG_NO": null }, "geometry": { "type": "Point", "coordinates": [ 146.179636657721659, -41.152659589542878 ] } },
{ "type": "Feature", "properties": { "COMFAC_ID": 37391, "PID": 7508026, "COM_TYPE1": "Accommodation", "COM_TYPE2": "Caravan Park", "NAME": "Ulverstone Caravan Park", "UFI": "{aaec4a6c-4473-49a5-bd11-4cc8cc8b52e0}", "CREATED_ON": "2016-11-23 10:54:04", "LIST_GUID": "{193322d3-21f6-4d45-bb28-88b5ecd7a8af}", "NOM_REG_NO": null }, "geometry": { "type": "Point", "coordinates": [ 146.182163389845215, -41.154069238074996 ] } },
{ "type": "Feature", "properties": { "COMFAC_ID": 6976, "PID": 6937304, "COM_TYPE1": "Club", "COM_TYPE2": "Scout", "NAME": "Ulverstone Scout Hall", "UFI": "{ad702867-bb71-44d6-bb35-28a6fd482587}", "CREATED_ON": "2016-11-23 10:54:04", "LIST_GUID": "{dc7cee39-25e3-4564-9497-5383525388b4}", "NOM_REG_NO": null }, "geometry": { "type": "Point", "coordinates": [ 146.182690317616817, -41.154520498310234 ] } },
{ "type": "Feature", "properties": { "COMFAC_ID": 45609, "PID": 1917793, "COM_TYPE1": "State Government", "COM_TYPE2": "Aurora Energy", "NAME": "Aurora Energy Ulverstone", "UFI": "{b43f55b4-26c2-466f-b6ed-edf7397a119c}", "CREATED_ON": "2016-11-23 10:54:04", "LIST_GUID": "{08fc9c86-2939-4439-90ed-a0fa250f1519}", "NOM_REG_NO": null }, "geometry": { "type": "Point", "coordinates": [ 146.184270655815112, -41.158147730278003 ] } },
{ "type": "Feature", "properties": { "COMFAC_ID": 60425, "PID": 7165377, "COM_TYPE1": "Accommodation", "COM_TYPE2": "Camp and Camping Ground", "NAME": "Buttons Creek Camping Ground", "UFI": "{3c7a50f0-396e-46cb-a431-f024f900a0a8}", "CREATED_ON": "2016-11-23 10:54:04", "LIST_GUID": "{e63b78d0-9057-421e-b0e4-0790cb33a510}", "NOM_REG_NO": null }, "geometry": { "type": "Point", "coordinates": [ 146.187151639461831, -41.153514703294341 ] } },
{ "type": "Feature", "properties": { "COMFAC_ID": 6871, "PID": 7746606, "COM_TYPE1": "State police and emergency", "COM_TYPE2": "Fire station", "NAME": "Forth Valley Fire Station", "UFI": "{501f4e64-28f1-428e-a5dd-f9489935d685}", "CREATED_ON": "2017-01-31 11:29:31", "LIST_GUID": "{c0f7ebb9-3d31-46bf-9f6d-bbb115879c90}", "NOM_REG_NO": null }, "geometry": { "type": "Point", "coordinates": [ 146.244236474937054, -41.180060708272855 ] } },
{ "type": "Feature", "properties": { "COMFAC_ID": 54237, "PID": 6378733, "COM_TYPE1": "Tourist feature", "COM_TYPE2": "Cultural", "NAME": "Forth Market", "UFI": "{739219c4-bc1c-4e74-bdf6-33a0fe7015db}", "CREATED_ON": "2016-11-23 10:54:04", "LIST_GUID": "{7d0e3495-46ae-4297-a2e2-c4a5d9417c96}", "NOM_REG_NO": null }, "geometry": { "type": "Point", "coordinates": [ 146.248675646889808, -41.189088446031548 ] } },
{ "type": "Feature", "properties": { "COMFAC_ID": 13464, "PID": 6378071, "COM_TYPE1": "Accommodation", "COM_TYPE2": "Hotel", "NAME": "Bridge Hotel (Forth)", "UFI": "{1c350f8a-56e4-46c0-a23b-eb54675bf9e6}", "CREATED_ON": "2016-11-23 10:54:04", "LIST_GUID": "{5555b0ae-e5a8-4732-8c46-39c662dd702f}", "NOM_REG_NO": null }, "geometry": { "type": "Point", "coordinates": [ 146.25292654686595, -41.189893385974074 ] } },
{ "type": "Feature", "properties": { "COMFAC_ID": 6991, "PID": 6378573, "COM_TYPE1": "Hall\/ Community centre", "COM_TYPE2": "Church hall", "NAME": "Catholic Church Hall", "UFI": "{bc181632-7e40-402b-848e-02a500242591}", "CREATED_ON": "2016-11-23 10:54:04", "LIST_GUID": "{6e07a319-0066-4ca0-ba92-645f5b0c46ce}", "NOM_REG_NO": null }, "geometry": { "type": "Point", "coordinates": [ 146.258745731928741, -41.189459273878711 ] } },
{ "type": "Feature", "properties": { "COMFAC_ID": 46809, "PID": 6978608, "COM_TYPE1": "Community care", "COM_TYPE2": "Creche", "NAME": "Turners Beach Play Centre", "UFI": "{5e7526b9-03f9-43fa-93a4-960d43a81594}", "CREATED_ON": "2016-11-23 10:54:04", "LIST_GUID": "{2588324b-73c1-4c62-ae99-cbd30d57a8da}", "NOM_REG_NO": null }, "geometry": { "type": "Point", "coordinates": [ 146.243835299459249, -41.158780655087597 ] } },
{ "type": "Feature", "properties": { "COMFAC_ID": 57493, "PID": 2082353, "COM_TYPE1": "Ground", "COM_TYPE2": "Picnic Area", "NAME": "Picnic Area", "UFI": "{81f20d58-9ee6-4278-9258-8048b88032e5}", "CREATED_ON": "2016-11-23 10:54:04", "LIST_GUID": "{66f593df-10b3-49fe-bf79-35257a159aa6}", "NOM_REG_NO": null }, "geometry": { "type": "Point", "coordinates": [ 146.246504965049354, -41.15739764930818 ] } },
{ "type": "Feature", "properties": { "COMFAC_ID": 7018, "PID": 6777080, "COM_TYPE1": "Hall\/ Community centre", "COM_TYPE2": "Other", "NAME": "South Riana Memorial Hall", "UFI": "{41e5365a-6f22-4dc8-89f0-e083710f1745}", "CREATED_ON": "2016-11-23 10:54:04", "LIST_GUID": "{5e5d0831-1692-49ec-a518-c12080afa303}", "NOM_REG_NO": null }, "geometry": { "type": "Point", "coordinates": [ 145.977119401664936, -41.234498582945044 ] } },
{ "type": "Feature", "properties": { "COMFAC_ID": 60686, "PID": 6773098, "COM_TYPE1": "Accommodation", "COM_TYPE2": "Guest House\/ Bed and Breakfast", "NAME": "Bluberry Bed & Breakfast", "UFI": "{628487a7-35e7-413a-95a1-da2f9e614f4c}", "CREATED_ON": "2016-11-23 10:54:04", "LIST_GUID": "{c1b829e8-c3bf-4908-9739-ded777d8874a}", "NOM_REG_NO": null }, "geometry": { "type": "Point", "coordinates": [ 145.982550338301849, -41.093235357358814 ] } },
{ "type": "Feature", "properties": { "COMFAC_ID": 36785, "PID": 2762682, "COM_TYPE1": "Sports complex", "COM_TYPE2": "Other", "NAME": "Penguin Motocross Track", "UFI": "{b4c475dd-c764-4819-967f-07f93ba92606}", "CREATED_ON": "2016-11-23 10:54:04", "LIST_GUID": "{68424cfd-e42c-4312-bb06-2f411c205ca2}", "NOM_REG_NO": null }, "geometry": { "type": "Point", "coordinates": [ 146.061900247648339, -41.165265261930585 ] } },
{ "type": "Feature", "properties": { "COMFAC_ID": 37145, "PID": 6977859, "COM_TYPE1": "Council", "COM_TYPE2": "Central Coast", "NAME": "Ulverstone Waste Transfer Station", "UFI": "{50e7c37c-322e-4a84-8f7c-821bc53d90ec}", "CREATED_ON": "2016-11-23 10:54:04", "LIST_GUID": "{32202a4e-04a5-40d7-8ed5-a916dca4107e}", "NOM_REG_NO": null }, "geometry": { "type": "Point", "coordinates": [ 146.099366260031701, -41.151597734498431 ] } },
{ "type": "Feature", "properties": { "COMFAC_ID": 6817, "PID": 6759827, "COM_TYPE1": "Accommodation", "COM_TYPE2": "Caravan Park", "NAME": "Penguin Beachside Holiday Resort", "UFI": "{21282180-c902-4199-9f6f-f3dc36a6a07b}", "CREATED_ON": "2016-11-23 10:54:04", "LIST_GUID": "{b0b99a20-57e4-4e4a-a81e-b2ba5fce1b1d}", "NOM_REG_NO": null }, "geometry": { "type": "Point", "coordinates": [ 146.066154310833781, -41.10631243799412 ] } },
{ "type": "Feature", "properties": { "COMFAC_ID": 60099, "PID": 7154029, "COM_TYPE1": "Community care", "COM_TYPE2": "Creche", "NAME": "Penguin Fun Club - OSHC", "UFI": "{9a6b3af9-fec1-4ca5-8f9c-75ae5bf73148}", "CREATED_ON": "2016-11-23 10:54:04", "LIST_GUID": "{824ce2ec-548c-4789-ba82-2fb04efa6c2a}", "NOM_REG_NO": null }, "geometry": { "type": "Point", "coordinates": [ 146.068714413028886, -41.125252081073356 ] } },
{ "type": "Feature", "properties": { "COMFAC_ID": 25285, "PID": 1685742, "COM_TYPE1": "Transport", "COM_TYPE2": "Rail", "NAME": "Penguin Railway Station", "UFI": "{9501416a-a55f-46d4-a43d-8af50c336446}", "CREATED_ON": "2016-11-23 10:54:04", "LIST_GUID": "{e91a0bbc-5aae-49aa-8799-0cf476800aeb}", "NOM_REG_NO": null }, "geometry": { "type": "Point", "coordinates": [ 146.069809025531924, -41.11103756427871 ] } },
{ "type": "Feature", "properties": { "COMFAC_ID": 61269, "PID": 1685742, "COM_TYPE1": "Tourist feature", "COM_TYPE2": "Historical", "NAME": "Penguin Historic Gaol", "UFI": "{e72985d7-8e29-4762-9f47-c8aedb265dc5}", "CREATED_ON": "2016-11-23 10:54:04", "LIST_GUID": "{f7f13ab0-6855-4296-9f3f-cd4b03b39133}", "NOM_REG_NO": null }, "geometry": { "type": "Point", "coordinates": [ 146.069998841194604, -41.111238207401925 ] } },
{ "type": "Feature", "properties": { "COMFAC_ID": 37247, "PID": 7638218, "COM_TYPE1": "Community care", "COM_TYPE2": "Creche", "NAME": "Penguin Play Centre", "UFI": "{28ec9094-d86f-4ad9-8e3d-21f139c79cc7}", "CREATED_ON": "2016-11-23 10:54:04", "LIST_GUID": "{f0001e90-2318-449c-9981-03a63e49d8d2}", "NOM_REG_NO": null }, "geometry": { "type": "Point", "coordinates": [ 146.070184157169109, -41.111384739459446 ] } },
{ "type": "Feature", "properties": { "COMFAC_ID": 61270, "PID": 6757450, "COM_TYPE1": "Community care", "COM_TYPE2": "Charity or welfare", "NAME": "Penguin Lions Club", "UFI": "{a680dda7-73f8-448f-93b7-10cc56161792}", "CREATED_ON": "2016-11-23 10:54:04", "LIST_GUID": "{69b07b53-885e-4f08-87bf-a40161dc861c}", "NOM_REG_NO": null }, "geometry": { "type": "Point", "coordinates": [ 146.070435082096566, -41.115942274631998 ] } },
{ "type": "Feature", "properties": { "COMFAC_ID": 6826, "PID": 7728424, "COM_TYPE1": "Church", "COM_TYPE2": "Uniting Church", "NAME": "Penguin Uniting Church", "UFI": "{c78c8a89-de9a-40e4-9cda-b3cbd6cd3bce}", "CREATED_ON": "2016-11-23 10:54:04", "LIST_GUID": "{039d9d70-cc74-48cd-9842-23c7e286eb59}", "NOM_REG_NO": null }, "geometry": { "type": "Point", "coordinates": [ 146.070659766905152, -41.111971847734814 ] } },
{ "type": "Feature", "properties": { "COMFAC_ID": 55796, "PID": 6759480, "COM_TYPE1": "Accommodation", "COM_TYPE2": "Guest House\/ Bed and Breakfast", "NAME": "The Madsen", "UFI": "{8ba94a64-fed1-46a7-93aa-9fe805d5d301}", "CREATED_ON": "2016-11-23 10:54:04", "LIST_GUID": "{f29324ea-2c3e-4b74-8efb-d6c95992e7f3}", "NOM_REG_NO": null }, "geometry": { "type": "Point", "coordinates": [ 146.071580258100681, -41.112883185341886 ] } },
{ "type": "Feature", "properties": { "COMFAC_ID": 62246, "PID": 0, "COM_TYPE1": "Accommodation", "COM_TYPE2": "Holiday Unit\/ Flat", "NAME": "Penguin Waterfront Escape", "UFI": "{0c517028-2eb5-47b6-808e-c308ef2a879a}", "CREATED_ON": "2016-11-23 10:54:04", "LIST_GUID": "{0cbbb42a-7507-4714-909a-5782e3954a1b}", "NOM_REG_NO": null }, "geometry": { "type": "Point", "coordinates": [ 146.071869639084099, -41.113189930039034 ] } },
{ "type": "Feature", "properties": { "COMFAC_ID": 6857, "PID": 7679183, "COM_TYPE1": "Sports complex", "COM_TYPE2": "Golf", "NAME": "Penguin Golf Course", "UFI": "{b3c6e4c4-3379-4b55-b86a-fade40bef1e8}", "CREATED_ON": "2016-11-23 10:54:04", "LIST_GUID": "{f1cd97f7-89d9-4edc-8771-715fe1786bda}", "NOM_REG_NO": null }, "geometry": { "type": "Point", "coordinates": [ 146.072448426486005, -41.130358164159809 ] } },
{ "type": "Feature", "properties": { "COMFAC_ID": 63307, "PID": 6759413, "COM_TYPE1": "Tourist feature", "COM_TYPE2": "Information", "NAME": "Penquin Visitor Information  Centre", "UFI": "{71accdf3-3e06-4693-9eab-ba3c72ac86be}", "CREATED_ON": "2016-11-23 10:54:04", "LIST_GUID": "{8e6077ab-2c3d-4aca-9949-3c4e2666e2f6}", "NOM_REG_NO": null }, "geometry": { "type": "Point", "coordinates": [ 146.072783990413683, -41.113901764581009 ] } },
{ "type": "Feature", "properties": { "COMFAC_ID": 6850, "PID": 1759115, "COM_TYPE1": "Ground", "COM_TYPE2": "Park or reserve", "NAME": "Penguin Lions Park", "UFI": "{31ba2d41-7c4d-447d-b0d0-53fe45a4e596}", "CREATED_ON": "2016-11-23 10:54:04", "LIST_GUID": "{f63b3038-99aa-432f-9855-ed3cd154f155}", "NOM_REG_NO": null }, "geometry": { "type": "Point", "coordinates": [ 146.075807773578248, -41.114538617055352 ] } },
{ "type": "Feature", "properties": { "COMFAC_ID": 7055, "PID": 2702428, "COM_TYPE1": "Church", "COM_TYPE2": "Uniting Church", "NAME": "Sprent Uniting Church", "UFI": "{a0541ce7-80e2-45bd-a387-ad28025e7646}", "CREATED_ON": "2016-11-23 10:54:04", "LIST_GUID": "{8aa4e13d-b50f-4130-961e-eab3c1fe4e83}", "NOM_REG_NO": null }, "geometry": { "type": "Point", "coordinates": [ 146.158786289128187, -41.264181479202591 ] } },
{ "type": "Feature", "properties": { "COMFAC_ID": 7086, "PID": 6977955, "COM_TYPE1": "Sports complex", "COM_TYPE2": "Other", "NAME": "Ulverstone Rodeo Ground", "UFI": "{7dfe43eb-f02c-4188-8098-ea6623ef56d1}", "CREATED_ON": "2016-11-23 10:54:04", "LIST_GUID": "{8584fff1-a524-4f43-a3de-2dce36b13d3a}", "NOM_REG_NO": null }, "geometry": { "type": "Point", "coordinates": [ 146.134013512191473, -41.155533946679107 ] } },
{ "type": "Feature", "properties": { "COMFAC_ID": 54340, "PID": 2200778, "COM_TYPE1": "Accommodation", "COM_TYPE2": "Guest House\/ Bed and Breakfast", "NAME": "Moonlight Bay Guest House", "UFI": "{dcb0622e-58cc-4af5-aa5a-ba21d9cd4c70}", "CREATED_ON": "2016-11-23 10:54:04", "LIST_GUID": "{abbd1f0a-9bd4-4d56-8a94-3bce5f67821f}", "NOM_REG_NO": null }, "geometry": { "type": "Point", "coordinates": [ 146.14340019405401, -41.140609060487506 ] } },
{ "type": "Feature", "properties": { "COMFAC_ID": 6890, "PID": 7143282, "COM_TYPE1": "Club", "COM_TYPE2": "Cricket", "NAME": "Ulverstone Cricket Club", "UFI": "{98f7e4bf-39b1-46c0-9595-e815f2e37147}", "CREATED_ON": "2016-11-23 10:54:04", "LIST_GUID": "{c627a840-6e26-4211-9878-4aa69b08d95d}", "NOM_REG_NO": null }, "geometry": { "type": "Point", "coordinates": [ 146.152154675033614, -41.156316818815078 ] } },
{ "type": "Feature", "properties": { "COMFAC_ID": 7051, "PID": 1981066, "COM_TYPE1": "Ground", "COM_TYPE2": "Park or reserve", "NAME": "Nankervis Reserve", "UFI": "{f9873d10-e6a9-4f0a-a0ed-a4558506b4b9}", "CREATED_ON": "2016-11-23 10:54:04", "LIST_GUID": "{5e30a061-3e6b-4ea6-8369-df6977bc9426}", "NOM_REG_NO": "23685F" }, "geometry": { "type": "Point", "coordinates": [ 146.120088037121207, -41.122123955028414 ] } },
{ "type": "Feature", "properties": { "COMFAC_ID": 36805, "PID": 6984717, "COM_TYPE1": "Commonwealth government", "COM_TYPE2": "Post offices and agencies", "NAME": "Gawler Post Office", "UFI": "{12c92778-7237-47f3-af16-a048496cb8a1}", "CREATED_ON": "2016-11-23 10:54:04", "LIST_GUID": "{03d01b99-0e55-4c53-8cc8-5038bd3c9cc9}", "NOM_REG_NO": null }, "geometry": { "type": "Point", "coordinates": [ 146.160293892511447, -41.183207678255883 ] } },
{ "type": "Feature", "properties": { "COMFAC_ID": 50769, "PID": 6977103, "COM_TYPE1": "State Government", "COM_TYPE2": "Transend Networks", "NAME": "Ulverstone Transend Sub Station", "UFI": "{bd6f90f1-7dd0-46db-9cc9-f69ed35e65b3}", "CREATED_ON": "2016-11-23 10:54:04", "LIST_GUID": "{3c3e0ea1-9730-462e-8f4e-6a0e81857d6c}", "NOM_REG_NO": null }, "geometry": { "type": "Point", "coordinates": [ 146.16285485630803, -41.171500261009648 ] } },
{ "type": "Feature", "properties": { "COMFAC_ID": 6933, "PID": 1760263, "COM_TYPE1": "Ground", "COM_TYPE2": "Park or reserve", "NAME": "Tobruk Park", "UFI": "{ae03e8d3-c410-489d-a9ea-78cf44ff9727}", "CREATED_ON": "2016-11-23 10:54:04", "LIST_GUID": "{bc5edf94-f1ef-449c-b896-cb3b333b4fb1}", "NOM_REG_NO": "20303C" }, "geometry": { "type": "Point", "coordinates": [ 146.164500389637965, -41.156385539972788 ] } },
{ "type": "Feature", "properties": { "COMFAC_ID": 57489, "PID": 7878078, "COM_TYPE1": "Ground", "COM_TYPE2": "Picnic Area", "NAME": "Picnic Area", "UFI": "{8aa4d9a7-a26d-4de5-8740-2c395bcb8800}", "CREATED_ON": "2016-11-23 10:54:04", "LIST_GUID": "{6f9f33a9-9399-4255-ae27-dcc04201abff}", "NOM_REG_NO": null }, "geometry": { "type": "Point", "coordinates": [ 146.164682777698005, -41.146253277560469 ] } },
{ "type": "Feature", "properties": { "COMFAC_ID": 6909, "PID": 6967028, "COM_TYPE1": "State police and emergency", "COM_TYPE2": "Fire station", "NAME": "Ulverstone Fire Station", "UFI": "{afb2b71b-429e-4619-87b5-460c3b4082cc}", "CREATED_ON": "2016-11-23 10:54:04", "LIST_GUID": "{3e10b31f-681d-47b6-a2fb-427bc2cef502}", "NOM_REG_NO": null }, "geometry": { "type": "Point", "coordinates": [ 146.164635697863929, -41.16412761315339 ] } },
{ "type": "Feature", "properties": { "COMFAC_ID": 6941, "PID": 6959861, "COM_TYPE1": "Ground", "COM_TYPE2": "Showground", "NAME": "Ulverstone Showground", "UFI": "{ad3c611b-cf06-4c91-869e-8b4edcf3dd46}", "CREATED_ON": "2016-11-23 10:54:04", "LIST_GUID": "{935969ea-152a-4088-9c48-c5c23d962707}", "NOM_REG_NO": null }, "geometry": { "type": "Point", "coordinates": [ 146.165420301030622, -41.152629893307761 ] } },
{ "type": "Feature", "properties": { "COMFAC_ID": 37534, "PID": 1410212, "COM_TYPE1": "Community care", "COM_TYPE2": "Charity or welfare", "NAME": "Central Coast Marine Rescue Training", "UFI": "{48973221-6bcf-4613-a9e1-053499a7b81e}", "CREATED_ON": "2016-11-23 10:54:04", "LIST_GUID": "{7246733f-f6ca-4cd8-b0be-c743ab47750f}", "NOM_REG_NO": null }, "geometry": { "type": "Point", "coordinates": [ 146.169163547653852, -41.156251580333141 ] } },
{ "type": "Feature", "properties": { "COMFAC_ID": 61272, "PID": 7225130, "COM_TYPE1": "Community care", "COM_TYPE2": "Charity or welfare", "NAME": "Salvation Army Community Care Service", "UFI": "{c40562be-ada9-4262-bab0-a34073a4b08b}", "CREATED_ON": "2016-11-23 10:54:04", "LIST_GUID": "{c77307e4-003b-4e24-8440-037cb9aaf3f9}", "NOM_REG_NO": null }, "geometry": { "type": "Point", "coordinates": [ 146.169205451576573, -41.159242754358907 ] } },
{ "type": "Feature", "properties": { "COMFAC_ID": 25685, "PID": 6960221, "COM_TYPE1": "State police and emergency", "COM_TYPE2": "State Emergency Service unit", "NAME": "SES Central Coast", "UFI": "{1501d2f3-66c1-4783-9efe-ac0f0a1789c8}", "CREATED_ON": "2016-11-23 10:54:04", "LIST_GUID": "{02278705-340a-413d-8ea2-1f0adb72687e}", "NOM_REG_NO": null }, "geometry": { "type": "Point", "coordinates": [ 146.169423694980082, -41.159244058094536 ] } },
{ "type": "Feature", "properties": { "COMFAC_ID": 61271, "PID": 7318281, "COM_TYPE1": "Community care", "COM_TYPE2": "Charity or welfare", "NAME": "Australian Red Cross Ulverstone", "UFI": "{bf1b2817-9247-464a-860f-adb46a0483e6}", "CREATED_ON": "2016-11-23 10:54:04", "LIST_GUID": "{d432026c-39cf-417f-8c93-be50321697bb}", "NOM_REG_NO": null }, "geometry": { "type": "Point", "coordinates": [ 146.171740724827089, -41.159058723696603 ] } },
{ "type": "Feature", "properties": { "COMFAC_ID": 52916, "PID": 1407443, "COM_TYPE1": "Community care", "COM_TYPE2": "Charity or welfare", "NAME": "St Vincent de Paul  Ulverstone", "UFI": "{de6b044d-d733-4a40-874d-84cc0bb7ad01}", "CREATED_ON": "2016-11-23 10:54:04", "LIST_GUID": "{fcfae9df-84e8-41d4-b576-16ab91454662}", "NOM_REG_NO": null }, "geometry": { "type": "Point", "coordinates": [ 146.172124825322868, -41.15666603288075 ] } },
{ "type": "Feature", "properties": { "COMFAC_ID": 57134, "PID": 7850315, "COM_TYPE1": "Transport", "COM_TYPE2": "Car park", "NAME": "Bannons Car Park Ulverstone", "UFI": "{c30f65c8-1639-4be1-a5e0-de1bc6eb3e2e}", "CREATED_ON": "2016-11-23 10:54:04", "LIST_GUID": "{1e27d569-1859-4e0a-9ac5-ebf95d38da39}", "NOM_REG_NO": null }, "geometry": { "type": "Point", "coordinates": [ 146.172279263393108, -41.158498369549143 ] } },
{ "type": "Feature", "properties": { "COMFAC_ID": 6975, "PID": 6948206, "COM_TYPE1": "Club", "COM_TYPE2": "Girl Guide", "NAME": "Ulverstone Girl Guide Hall", "UFI": "{3989ccbb-ea69-4ee4-bec0-b19f61d46687}", "CREATED_ON": "2016-11-23 10:54:04", "LIST_GUID": "{782d1be2-9ff7-40d3-a31b-5850c5a26230}", "NOM_REG_NO": null }, "geometry": { "type": "Point", "coordinates": [ 146.175056314005985, -41.155892769977712 ] } },
{ "type": "Feature", "properties": { "COMFAC_ID": 57485, "PID": 6954163, "COM_TYPE1": "Ground", "COM_TYPE2": "Picnic Area", "NAME": "Picnic Area", "UFI": "{ee8df9f5-85fb-4f1c-8a4b-9ea9dc3bf9e3}", "CREATED_ON": "2016-11-23 10:54:04", "LIST_GUID": "{ed3c168f-1d41-4ac4-90f4-87b7f8a8a378}", "NOM_REG_NO": null }, "geometry": { "type": "Point", "coordinates": [ 146.176643518384509, -41.151511275932137 ] } },
{ "type": "Feature", "properties": { "COMFAC_ID": 6970, "PID": 1410159, "COM_TYPE1": "Club", "COM_TYPE2": "Other sporting", "NAME": "Ulverstone Judo Club", "UFI": "{9b6467d4-06d8-4906-bc74-0f6c42d6060d}", "CREATED_ON": "2016-11-23 10:54:04", "LIST_GUID": "{d3e6080c-e57c-4a56-9b2b-bcc11d7c1fad}", "NOM_REG_NO": null }, "geometry": { "type": "Point", "coordinates": [ 146.177131950391981, -41.153813602559985 ] } },
{ "type": "Feature", "properties": { "COMFAC_ID": 6964, "PID": 6943202, "COM_TYPE1": "Church", "COM_TYPE2": "Christian Reformed Church", "NAME": "Christian Reformed Church of Ulverstone", "UFI": "{d8525447-1ff2-4d24-92fc-ea0aeb7fa688}", "CREATED_ON": "2016-11-23 10:54:04", "LIST_GUID": "{a8365f95-e7fd-446f-a7ff-8fb99898356e}", "NOM_REG_NO": null }, "geometry": { "type": "Point", "coordinates": [ 146.179636129310779, -41.161344016728457 ] } },
{ "type": "Feature", "properties": { "COMFAC_ID": 6961, "PID": 7518777, "COM_TYPE1": "Church", "COM_TYPE2": "Jehovahs Witnesses", "NAME": "Ulverstone Kingdom Hall", "UFI": "{be863490-2716-4597-910e-3f9e163f3699}", "CREATED_ON": "2016-11-23 10:54:04", "LIST_GUID": "{135917a1-5f77-488f-b3fd-c78fd6f47ecd}", "NOM_REG_NO": null }, "geometry": { "type": "Point", "coordinates": [ 146.19246479409469, -41.162660806057126 ] } },
{ "type": "Feature", "properties": { "COMFAC_ID": 11065, "PID": 7229609, "COM_TYPE1": "Accommodation", "COM_TYPE2": "Guest House\/ Bed and Breakfast", "NAME": "Westella Colonial Bed and Breakfast", "UFI": "{a5f544e8-bbcf-4fed-b3e1-f3faf4519476}", "CREATED_ON": "2016-11-23 10:54:04", "LIST_GUID": "{eafe732c-00b8-470c-9405-1bc57af25037}", "NOM_REG_NO": null }, "geometry": { "type": "Point", "coordinates": [ 146.205302681958216, -41.15905589894917 ] } },
{ "type": "Feature", "properties": { "COMFAC_ID": 6993, "PID": 6983976, "COM_TYPE1": "Ground", "COM_TYPE2": "Burial ground", "NAME": "Forth Cemetery", "UFI": "{3372d162-b799-4fd5-94ae-0b93ac410c47}", "CREATED_ON": "2016-11-23 10:54:04", "LIST_GUID": "{7af33995-37f9-49b3-b7c4-457ca5de3c75}", "NOM_REG_NO": null }, "geometry": { "type": "Point", "coordinates": [ 146.246583427850396, -41.18210545473972 ] } },
{ "type": "Feature", "properties": { "COMFAC_ID": 6803, "PID": 7737910, "COM_TYPE1": "Ground", "COM_TYPE2": "Burial ground", "NAME": "Pioneer Cemetery", "UFI": "{3ba81371-6325-4aa2-b09a-702c106cb4bc}", "CREATED_ON": "2016-11-23 10:54:04", "LIST_GUID": "{07609909-0696-4260-b05f-ccc654b64e3e}", "NOM_REG_NO": null }, "geometry": { "type": "Point", "coordinates": [ 146.253331535823662, -41.182024768885064 ] } },
{ "type": "Feature", "properties": { "COMFAC_ID": 17064, "PID": 1411602, "COM_TYPE1": "Accommodation", "COM_TYPE2": "Hostel", "NAME": "Camp Clayton", "UFI": "{c1bd85c9-7da7-449d-af84-21df251757c7}", "CREATED_ON": "2016-11-23 10:54:04", "LIST_GUID": "{a9efbc72-6c39-469c-82a7-b5423a802441}", "NOM_REG_NO": null }, "geometry": { "type": "Point", "coordinates": [ 146.222644128300715, -41.160138137561866 ] } },
{ "type": "Feature", "properties": { "COMFAC_ID": 6875, "PID": 7318468, "COM_TYPE1": "Commonwealth government", "COM_TYPE2": "Post offices and agencies", "NAME": "Turners Beach Post Office", "UFI": "{9e4b81e3-484e-4576-8a7f-ac4a4ddb43ca}", "CREATED_ON": "2016-11-23 10:54:04", "LIST_GUID": "{124d2ff4-a6cc-43ee-933a-dce872ad7735}", "NOM_REG_NO": null }, "geometry": { "type": "Point", "coordinates": [ 146.230822202430602, -41.168764120127207 ] } },
{ "type": "Feature", "properties": { "COMFAC_ID": 54256, "PID": 6981719, "COM_TYPE1": "Transport", "COM_TYPE2": "Service Station", "NAME": "Mobil Turners Beach", "UFI": "{53600c9a-f95b-4175-939a-d6dc58e0b56e}", "CREATED_ON": "2016-11-23 10:54:04", "LIST_GUID": "{952bb164-1602-45ee-9c91-bd2398492b98}", "NOM_REG_NO": null }, "geometry": { "type": "Point", "coordinates": [ 146.234620327124361, -41.159888887625037 ] } },
{ "type": "Feature", "properties": { "COMFAC_ID": 37533, "PID": 1767537, "COM_TYPE1": "Ground", "COM_TYPE2": "Park or reserve", "NAME": "Gables Park", "UFI": "{df8b70cc-4916-408c-8dce-a009217ffbac}", "CREATED_ON": "2016-11-23 10:54:04", "LIST_GUID": "{c7fc23de-539f-4f61-8598-1f166a215b0f}", "NOM_REG_NO": "23140C" }, "geometry": { "type": "Point", "coordinates": [ 146.250078160656699, -41.16198403833441 ] } },
{ "type": "Feature", "properties": { "COMFAC_ID": 54258, "PID": 0, "COM_TYPE1": "Tourist feature", "COM_TYPE2": "Natural", "NAME": "Braddons Lookout", "UFI": "{7f11f941-db5c-4c0b-bee2-7cd084f8193c}", "CREATED_ON": "2016-11-23 10:54:04", "LIST_GUID": "{e38b5fb2-3cda-4a0b-b74a-0a7be88c5949}", "NOM_REG_NO": "3560Y" }, "geometry": { "type": "Point", "coordinates": [ 146.259011899214812, -41.173224583953207 ] } },
{ "type": "Feature", "properties": { "COMFAC_ID": 7063, "PID": 1413763, "COM_TYPE1": "State police and emergency", "COM_TYPE2": "Fire station", "NAME": "Loongana Fire Station", "UFI": "{7d2af4dd-513f-447b-8449-231dd573b2bf}", "CREATED_ON": "2016-11-23 10:54:04", "LIST_GUID": "{6a0ffebf-bc37-43cb-a1f2-948479bdfe4d}", "NOM_REG_NO": null }, "geometry": { "type": "Point", "coordinates": [ 145.964414347449974, -41.410969789093834 ] } },
{ "type": "Feature", "properties": { "COMFAC_ID": 13504, "PID": 6775165, "COM_TYPE1": "Accommodation", "COM_TYPE2": "Holiday Cabin", "NAME": "Mountain Valley Log Cabins", "UFI": "{b12f2020-1b96-4823-b6d3-2741f4faf031}", "CREATED_ON": "2016-11-23 10:54:04", "LIST_GUID": "{33654da9-e68a-4d3a-b985-822f0252cbeb}", "NOM_REG_NO": null }, "geometry": { "type": "Point", "coordinates": [ 145.977379377120428, -41.413204096744913 ] } },
{ "type": "Feature", "properties": { "COMFAC_ID": 37085, "PID": 6776870, "COM_TYPE1": "Commonwealth government", "COM_TYPE2": "Post offices and agencies", "NAME": "South Riana Post Office", "UFI": "{959ff60c-2840-4fe3-9adf-d7800f661b52}", "CREATED_ON": "2016-11-23 10:54:04", "LIST_GUID": "{99b83cf2-d0ee-4f4d-a1e3-f9b7e927ecf1}", "NOM_REG_NO": null }, "geometry": { "type": "Point", "coordinates": [ 145.977604546237046, -41.234696674169449 ] } },
{ "type": "Feature", "properties": { "COMFAC_ID": 7048, "PID": 7133551, "COM_TYPE1": "Ground", "COM_TYPE2": "Picnic Area", "NAME": "Ferndene Picnic Ground", "UFI": "{7633257f-0937-4ac9-b13c-3eead4c01d89}", "CREATED_ON": "2016-11-23 10:54:04", "LIST_GUID": "{0b1ab936-4770-40cf-969b-1dca31e6c3ed}", "NOM_REG_NO": "21327P" }, "geometry": { "type": "Point", "coordinates": [ 146.033586758185749, -41.144110159120991 ] } },
{ "type": "Feature", "properties": { "COMFAC_ID": 63505, "PID": 0, "COM_TYPE1": "Commonwealth government", "COM_TYPE2": "Post offices and agencies", "NAME": "Sulphur Creek Post Office", "UFI": "{aa620ea7-8137-4aa0-9999-ebd5c73d7400}", "CREATED_ON": "2016-11-23 10:54:04", "LIST_GUID": "{a5502b52-9586-4b00-b878-111fe7a884ba}", "NOM_REG_NO": null }, "geometry": { "type": "Point", "coordinates": [ 146.019489351960033, -41.092017500771888 ] } },
{ "type": "Feature", "properties": { "COMFAC_ID": 54840, "PID": 6993226, "COM_TYPE1": "Club", "COM_TYPE2": "Football", "NAME": "Motton-Preston Football Club", "UFI": "{6b1fed01-24a8-4ddc-85b2-2cab5f987143}", "CREATED_ON": "2016-11-23 10:54:04", "LIST_GUID": "{d18b0c80-0634-4324-958d-5fbc6b96eea0}", "NOM_REG_NO": null }, "geometry": { "type": "Point", "coordinates": [ 146.062503236934958, -41.296089941418082 ] } },
{ "type": "Feature", "properties": { "COMFAC_ID": 37185, "PID": 6993242, "COM_TYPE1": "Hall\/ Community centre", "COM_TYPE2": "Community centre", "NAME": "Preston Community Centre", "UFI": "{37df5111-dbeb-4f67-9641-b2be9a86836c}", "CREATED_ON": "2016-11-23 10:54:04", "LIST_GUID": "{ff7f372f-855f-4a1b-b319-c04804b4b658}", "NOM_REG_NO": null }, "geometry": { "type": "Point", "coordinates": [ 146.062512218938053, -41.296058226692729 ] } },
{ "type": "Feature", "properties": { "COMFAC_ID": 62729, "PID": 7388642, "COM_TYPE1": "Tourist feature", "COM_TYPE2": "Industrial", "NAME": "Motton Terraces", "UFI": "{fc9ab3de-737a-4bf4-a16b-d0dc740851bb}", "CREATED_ON": "2016-11-23 10:54:04", "LIST_GUID": "{2019318d-5a23-4ee7-b1f5-e3391845abb7}", "NOM_REG_NO": null }, "geometry": { "type": "Point", "coordinates": [ 146.071922835391206, -41.204429457388187 ] } },
{ "type": "Feature", "properties": { "COMFAC_ID": 36765, "PID": 6774947, "COM_TYPE1": "State Government", "COM_TYPE2": "Other", "NAME": "TasWater - Wastewater Treatment Plant", "UFI": "{c6a75016-fd27-474b-a7a1-54e0daa559c7}", "CREATED_ON": "2016-11-23 10:54:04", "LIST_GUID": "{8a64860e-6756-4306-aaca-5e19c8699394}", "NOM_REG_NO": null }, "geometry": { "type": "Point", "coordinates": [ 146.063452310472542, -41.103096443916861 ] } },
{ "type": "Feature", "properties": { "COMFAC_ID": 6841, "PID": 1854358, "COM_TYPE1": "Club", "COM_TYPE2": "Girl Guide", "NAME": "Penguin Girl Guide Hall", "UFI": "{a29a358f-b76f-48b6-bcc8-f65717806230}", "CREATED_ON": "2016-11-23 10:54:04", "LIST_GUID": "{1a68cba3-83ae-43b0-a25c-93d259fb971d}", "NOM_REG_NO": null }, "geometry": { "type": "Point", "coordinates": [ 146.067253816687696, -41.11866216636497 ] } },
{ "type": "Feature", "properties": { "COMFAC_ID": 6854, "PID": 7679167, "COM_TYPE1": "Education and training", "COM_TYPE2": "High School", "NAME": "Penguin High School", "UFI": "{5bbc50e0-fa4b-4fbf-8c6b-7b39139f8d6b}", "CREATED_ON": "2016-11-23 10:54:04", "LIST_GUID": "{f19f453d-7fdb-4593-9519-753e9e9e7e91}", "NOM_REG_NO": null }, "geometry": { "type": "Point", "coordinates": [ 146.067705088225381, -41.127209165699099 ] } },
{ "type": "Feature", "properties": { "COMFAC_ID": 6858, "PID": 7679204, "COM_TYPE1": "Sports complex", "COM_TYPE2": "Other", "NAME": "Penguin Bicentennial Athletics Complex", "UFI": "{0c15736c-cb33-4996-9496-c146e560124a}", "CREATED_ON": "2016-11-23 10:54:04", "LIST_GUID": "{24d95552-21d5-4a24-8479-238d2bf56bca}", "NOM_REG_NO": null }, "geometry": { "type": "Point", "coordinates": [ 146.068636856076267, -41.128765408867388 ] } },
{ "type": "Feature", "properties": { "COMFAC_ID": 57563, "PID": 1759115, "COM_TYPE1": "Ground", "COM_TYPE2": "Picnic Area", "NAME": "Picnic Area", "UFI": "{67ebfe1f-df20-44cd-8457-30dbeb95d067}", "CREATED_ON": "2016-11-23 10:54:04", "LIST_GUID": "{835e7912-244b-4686-ae0e-5b5701b4fd88}", "NOM_REG_NO": null }, "geometry": { "type": "Point", "coordinates": [ 146.071474927372662, -41.112222615851564 ] } },
{ "type": "Feature", "properties": { "COMFAC_ID": 6852, "PID": 6755332, "COM_TYPE1": "State police and emergency", "COM_TYPE2": "Police station", "NAME": "Penguin Police Station", "UFI": "{fb52e7f0-f014-4062-ab99-4d42e4334155}", "CREATED_ON": "2016-11-23 10:54:04", "LIST_GUID": "{a99e578c-2125-4e38-96b6-b25d3250b1a9}", "NOM_REG_NO": null }, "geometry": { "type": "Point", "coordinates": [ 146.072406500919328, -41.114185456132752 ] } },
{ "type": "Feature", "properties": { "COMFAC_ID": 61267, "PID": 1412859, "COM_TYPE1": "Club", "COM_TYPE2": "Other sporting", "NAME": "Penguin Sports & Services Club", "UFI": "{d5f779ef-da97-4b8e-8392-e82912698a13}", "CREATED_ON": "2016-11-23 10:54:04", "LIST_GUID": "{eea84387-c112-42a9-ac64-c371486b7564}", "NOM_REG_NO": null }, "geometry": { "type": "Point", "coordinates": [ 146.072369288958555, -41.129024001211249 ] } },
{ "type": "Feature", "properties": { "COMFAC_ID": 6839, "PID": 6759296, "COM_TYPE1": "State police and emergency", "COM_TYPE2": "Fire station", "NAME": "Penguin Fire Station", "UFI": "{208286ed-a146-43c3-9707-5ef9bf2425fc}", "CREATED_ON": "2016-11-23 10:54:04", "LIST_GUID": "{4352994a-2b27-4d45-b0d6-ca946f3aeb3a}", "NOM_REG_NO": null }, "geometry": { "type": "Point", "coordinates": [ 146.075434376592824, -41.115458245865774 ] } },
{ "type": "Feature", "properties": { "COMFAC_ID": 6846, "PID": 6761433, "COM_TYPE1": "Ground", "COM_TYPE2": "Park or reserve", "NAME": "Dykes Reserve", "UFI": "{a24e089a-6295-4041-a5d4-b95d0b38efad}", "CREATED_ON": "2016-11-23 10:54:04", "LIST_GUID": "{85326294-ad70-4d4a-b51b-1abbc6b125a6}", "NOM_REG_NO": "22947B" }, "geometry": { "type": "Point", "coordinates": [ 146.07915607099784, -41.125463743928528 ] } },
{ "type": "Feature", "properties": { "COMFAC_ID": 46089, "PID": 7534320, "COM_TYPE1": "State police and emergency", "COM_TYPE2": "Fire station", "NAME": "Castra Fire Station", "UFI": "{268de9c8-332c-4bfa-8f51-63f4292a512f}", "CREATED_ON": "2016-11-23 10:54:04", "LIST_GUID": "{dd5b2b90-cd6a-45f0-af10-aff919854bb2}", "NOM_REG_NO": null }, "geometry": { "type": "Point", "coordinates": [ 146.127726022240438, -41.331895898347739 ] } },
{ "type": "Feature", "properties": { "COMFAC_ID": 7035, "PID": 6977998, "COM_TYPE1": "Club", "COM_TYPE2": "Golf", "NAME": "Ulverstone Golf Club", "UFI": "{f6b47b97-41c4-4c0d-b608-508181744086}", "CREATED_ON": "2016-11-23 10:54:04", "LIST_GUID": "{349ba26b-fe07-47f8-9e66-cb2a55ab32cf}", "NOM_REG_NO": null }, "geometry": { "type": "Point", "coordinates": [ 146.112073711540432, -41.155384533011322 ] } },
{ "type": "Feature", "properties": { "COMFAC_ID": 6944, "PID": 6958826, "COM_TYPE1": "Ground", "COM_TYPE2": "Sportsground", "NAME": "West Ulverstone Recreation Ground", "UFI": "{bc4e4627-29f8-4ccc-8324-9f3cba5a43e3}", "CREATED_ON": "2016-11-23 10:54:04", "LIST_GUID": "{6c4aae65-353a-4881-8cd2-80b3d1fa4077}", "NOM_REG_NO": null }, "geometry": { "type": "Point", "coordinates": [ 146.156041686041618, -41.143202944090731 ] } },
{ "type": "Feature", "properties": { "COMFAC_ID": 60747, "PID": 1406520, "COM_TYPE1": "Accommodation", "COM_TYPE2": "Guest House\/ Bed and Breakfast", "NAME": "Greenbank Guest House Motel", "UFI": "{cd9a801e-4f52-4fe5-b1c4-d6c31d1f5eff}", "CREATED_ON": "2016-11-23 10:54:04", "LIST_GUID": "{3b7765ec-0936-4770-bed3-90fab8782889}", "NOM_REG_NO": null }, "geometry": { "type": "Point", "coordinates": [ 146.159208749024486, -41.166736008765547 ] } },
{ "type": "Feature", "properties": { "COMFAC_ID": 36845, "PID": 6991597, "COM_TYPE1": "Ground", "COM_TYPE2": "Burial ground", "NAME": "Sprent Uniting Church Cemetery", "UFI": "{ef7959e9-6caf-4664-82c7-0e5a3d2c7029}", "CREATED_ON": "2016-11-23 10:54:04", "LIST_GUID": "{0a1bc84a-60fb-4a54-9d9e-8ee151cb9797}", "NOM_REG_NO": null }, "geometry": { "type": "Point", "coordinates": [ 146.172371992615922, -41.24904252806251 ] } },
{ "type": "Feature", "properties": { "COMFAC_ID": 37149, "PID": 6984717, "COM_TYPE1": "Transport", "COM_TYPE2": "Service Station", "NAME": "Shell Gawler Store", "UFI": "{cdd9a6bb-9c35-457e-bb9b-9bddb960a1ff}", "CREATED_ON": "2016-11-23 10:54:04", "LIST_GUID": "{cca56588-170c-4680-9451-c05c3d8553a8}", "NOM_REG_NO": null }, "geometry": { "type": "Point", "coordinates": [ 146.16020086460378, -41.183195731155578 ] } },
{ "type": "Feature", "properties": { "COMFAC_ID": 7003, "PID": 1405114, "COM_TYPE1": "Transport", "COM_TYPE2": "Service Station", "NAME": "Independent West Ulverstone", "UFI": "{18918c3a-a31e-41de-9fc2-aae07afdc311}", "CREATED_ON": "2016-11-23 10:54:04", "LIST_GUID": "{81651a76-fabe-450f-9ec4-bb4171b4c016}", "NOM_REG_NO": null }, "geometry": { "type": "Point", "coordinates": [ 146.163832857723492, -41.151554956291264 ] } },
{ "type": "Feature", "properties": { "COMFAC_ID": 6910, "PID": 6955502, "COM_TYPE1": "Hall\/ Community centre", "COM_TYPE2": "Church hall", "NAME": "Sacred Heart Church Hall", "UFI": "{82bce0a4-fdf1-4bdb-baa6-a0287520742c}", "CREATED_ON": "2016-11-23 10:54:04", "LIST_GUID": "{2a52239e-7592-4c69-b916-2ec5c2efc1a1}", "NOM_REG_NO": null }, "geometry": { "type": "Point", "coordinates": [ 146.168765539149092, -41.160392325275907 ] } },
{ "type": "Feature", "properties": { "COMFAC_ID": 6893, "PID": 1410183, "COM_TYPE1": "Club", "COM_TYPE2": "RAOB", "NAME": "Ulverstone RAOB", "UFI": "{aa59e450-7616-490c-b26c-1d60b1ac05f4}", "CREATED_ON": "2016-11-23 10:54:04", "LIST_GUID": "{4a76bca8-1318-4fa7-bb6d-7b9fb4062c48}", "NOM_REG_NO": null }, "geometry": { "type": "Point", "coordinates": [ 146.16926806230137, -41.156468522937644 ] } },
{ "type": "Feature", "properties": { "COMFAC_ID": 37389, "PID": 6954163, "COM_TYPE1": "Ground", "COM_TYPE2": "Park or reserve", "NAME": "Shropshire Park", "UFI": "{b50173e1-1b17-4596-ae01-d7d295e0d1bd}", "CREATED_ON": "2016-11-23 10:54:04", "LIST_GUID": "{1a6ab0fc-2707-46d2-b1c7-6de9f7947166}", "NOM_REG_NO": "23760S" }, "geometry": { "type": "Point", "coordinates": [ 146.169720617637324, -41.152724530913261 ] } },
{ "type": "Feature", "properties": { "COMFAC_ID": 37388, "PID": 6954163, "COM_TYPE1": "Ground", "COM_TYPE2": "Park or reserve", "NAME": "Bicentennial Park", "UFI": "{da93067d-929e-440d-9825-e641e3d4e106}", "CREATED_ON": "2016-11-23 10:54:04", "LIST_GUID": "{80a38bc1-de79-4fc1-9fdb-ef656aa0507f}", "NOM_REG_NO": "23467G" }, "geometry": { "type": "Point", "coordinates": [ 146.170679229933, -41.151337720828629 ] } },
{ "type": "Feature", "properties": { "COMFAC_ID": 6938, "PID": 6944838, "COM_TYPE1": "Education and training", "COM_TYPE2": "High School", "NAME": "Ulverstone High School", "UFI": "{2a5e77e7-62c9-4e6d-8237-26575ca05ee2}", "CREATED_ON": "2016-11-23 10:54:04", "LIST_GUID": "{78ca5847-2287-4464-a2c8-124f11ca37f8}", "NOM_REG_NO": null }, "geometry": { "type": "Point", "coordinates": [ 146.170998592733326, -41.161957779785951 ] } },
{ "type": "Feature", "properties": { "COMFAC_ID": 61276, "PID": 6964863, "COM_TYPE1": "Community care", "COM_TYPE2": "Charity or welfare", "NAME": "Central Coast Veteran's Support Centre", "UFI": "{7a51c161-2830-4567-9629-015ec58bf354}", "CREATED_ON": "2016-11-23 10:54:04", "LIST_GUID": "{5b270f12-c02f-4f12-b439-aa716743d655}", "NOM_REG_NO": null }, "geometry": { "type": "Point", "coordinates": [ 146.171853422297687, -41.155711175704027 ] } },
{ "type": "Feature", "properties": { "COMFAC_ID": 6905, "PID": 6949700, "COM_TYPE1": "Financial institution", "COM_TYPE2": "ANZ", "NAME": "ANZ Bank Ulverstone", "UFI": "{0a9f936d-6345-4196-bf42-3f4c027168b9}", "CREATED_ON": "2016-11-23 10:54:04", "LIST_GUID": "{ae647b16-3521-41b5-b75a-e53db89efc76}", "NOM_REG_NO": null }, "geometry": { "type": "Point", "coordinates": [ 146.172017640004896, -41.157593405810843 ] } },
{ "type": "Feature", "properties": { "COMFAC_ID": 36646, "PID": 2535682, "COM_TYPE1": "Tourist feature", "COM_TYPE2": "Cultural", "NAME": "Leven Antiques Centre", "UFI": "{73870043-8dc8-458b-aa36-b00d16ecfffa}", "CREATED_ON": "2016-11-23 10:54:04", "LIST_GUID": "{1780b2dc-74be-491a-bc2b-e07f2ffc442e}", "NOM_REG_NO": null }, "geometry": { "type": "Point", "coordinates": [ 146.172264951183308, -41.156481279742799 ] } },
{ "type": "Feature", "properties": { "COMFAC_ID": 6913, "PID": 7276499, "COM_TYPE1": "Cultural", "COM_TYPE2": "Library", "NAME": "Ulverstone Library", "UFI": "{49d95d3c-d813-4f0f-90f8-2f801017c890}", "CREATED_ON": "2016-11-23 10:54:04", "LIST_GUID": "{4d0cf05f-4002-40ad-9929-4720da65784a}", "NOM_REG_NO": null }, "geometry": { "type": "Point", "coordinates": [ 146.172426031647007, -41.155611214350536 ] } },
{ "type": "Feature", "properties": { "COMFAC_ID": 6957, "PID": 6953312, "COM_TYPE1": "Accommodation", "COM_TYPE2": "Hotel", "NAME": "Lighthouse Hotel", "UFI": "{761692bc-ace0-41d4-a242-7c7149d7a58e}", "CREATED_ON": "2016-11-23 10:54:04", "LIST_GUID": "{08c147d3-7ab0-4bf9-943c-ea9d4a3bb2a2}", "NOM_REG_NO": null }, "geometry": { "type": "Point", "coordinates": [ 146.173422501639578, -41.157839285913425 ] } },
{ "type": "Feature", "properties": { "COMFAC_ID": 6966, "PID": 6949807, "COM_TYPE1": "Church", "COM_TYPE2": "Uniting Church", "NAME": "Ulverstone Uniting Church", "UFI": "{eb7d7662-91af-40c6-ba03-d6618ccc95dc}", "CREATED_ON": "2016-11-23 10:54:04", "LIST_GUID": "{32f61db3-624b-4453-837f-a2e732c11635}", "NOM_REG_NO": null }, "geometry": { "type": "Point", "coordinates": [ 146.174289503134844, -41.158003619542264 ] } },
{ "type": "Feature", "properties": { "COMFAC_ID": 6963, "PID": 6946972, "COM_TYPE1": "Church", "COM_TYPE2": "Presbyterian Church", "NAME": "St Andrews Presbyterian Church", "UFI": "{b3f40b0b-2fbd-4741-a713-26ad834d7749}", "CREATED_ON": "2016-11-23 10:54:04", "LIST_GUID": "{0bcbe853-fc68-4d70-96d3-63e1b111ab7c}", "NOM_REG_NO": null }, "geometry": { "type": "Point", "coordinates": [ 146.177107999704504, -41.156552084998808 ] } },
{ "type": "Feature", "properties": { "COMFAC_ID": 6974, "PID": 6943202, "COM_TYPE1": "Hall\/ Community centre", "COM_TYPE2": "Church hall", "NAME": "Reformed Church Hall", "UFI": "{f8f0cd2c-2dfa-4631-8783-051f99054b1d}", "CREATED_ON": "2016-11-23 10:54:04", "LIST_GUID": "{38e0136d-c0a0-4aa1-bb9c-f50c7d55ebbc}", "NOM_REG_NO": null }, "geometry": { "type": "Point", "coordinates": [ 146.179702135522149, -41.161785871996855 ] } },
{ "type": "Feature", "properties": { "COMFAC_ID": 6985, "PID": 6944264, "COM_TYPE1": "Education and training", "COM_TYPE2": "Private", "NAME": "Leighland Christian School - Ulverstone", "UFI": "{be35b6f3-2b35-4bd2-b97a-91913736d06a}", "CREATED_ON": "2016-11-23 10:54:04", "LIST_GUID": "{4631cf32-0c39-4827-b25f-5e47f43d751a}", "NOM_REG_NO": null }, "geometry": { "type": "Point", "coordinates": [ 146.195110199111724, -41.153355194966025 ] } },
{ "type": "Feature", "properties": { "COMFAC_ID": 6806, "PID": 6378688, "COM_TYPE1": "Club", "COM_TYPE2": "Football", "NAME": "Forth Football Club", "UFI": "{779fdafa-63e2-4a44-ac6f-24d79ad8d7e4}", "CREATED_ON": "2016-11-23 10:54:04", "LIST_GUID": "{dc36d10e-c5e3-4b41-b415-9fd606c31b6f}", "NOM_REG_NO": null }, "geometry": { "type": "Point", "coordinates": [ 146.248835545848863, -41.188172031666632 ] } },
{ "type": "Feature", "properties": { "COMFAC_ID": 61283, "PID": 6378688, "COM_TYPE1": "Club", "COM_TYPE2": "Tennis", "NAME": "Forth Tennis Club", "UFI": "{0ff51e2b-8001-41cf-add9-779c9aa04bf4}", "CREATED_ON": "2016-11-23 10:54:04", "LIST_GUID": "{6531f386-7be3-4fd4-b127-4aae89a1b518}", "NOM_REG_NO": null }, "geometry": { "type": "Point", "coordinates": [ 146.249105232669564, -41.188650332074786 ] } },
{ "type": "Feature", "properties": { "COMFAC_ID": 7059, "PID": 6378709, "COM_TYPE1": "Transport", "COM_TYPE2": "Service Station", "NAME": "Forth Service Station", "UFI": "{efd215c9-0ae8-40ae-b970-76688209ca79}", "CREATED_ON": "2016-11-23 10:54:04", "LIST_GUID": "{c91201c2-cb72-47c5-91fe-7481d5522819}", "NOM_REG_NO": null }, "geometry": { "type": "Point", "coordinates": [ 146.250063306969224, -41.189583220138076 ] } },
{ "type": "Feature", "properties": { "COMFAC_ID": 7043, "PID": 6982367, "COM_TYPE1": "Club", "COM_TYPE2": "Other social", "NAME": "Veteran Car Club of Australia", "UFI": "{333b2803-a6dd-4bc8-af56-62fe111ab3be}", "CREATED_ON": "2016-11-23 10:54:04", "LIST_GUID": "{b59ee26f-4490-4e7c-b70a-74dcebccc64e}", "NOM_REG_NO": null }, "geometry": { "type": "Point", "coordinates": [ 146.217757213625845, -41.155132712701246 ] } },
{ "type": "Feature", "properties": { "COMFAC_ID": 7081, "PID": 7318468, "COM_TYPE1": "Transport", "COM_TYPE2": "Service Station", "NAME": "Service Station Turners Beach", "UFI": "{404dd530-20d5-47ed-937c-ac92ee757ce8}", "CREATED_ON": "2016-11-23 10:54:04", "LIST_GUID": "{4a083c6f-190c-4485-848d-3c6dddff5102}", "NOM_REG_NO": null }, "geometry": { "type": "Point", "coordinates": [ 146.2308272024394, -41.168759595538809 ] } },
{ "type": "Feature", "properties": { "COMFAC_ID": 63259, "PID": 7521140, "COM_TYPE1": "Tourist feature", "COM_TYPE2": "Industrial", "NAME": "Turners Beach Berry Patch", "UFI": "{97110b08-03e8-45c7-a042-bae1486b083d}", "CREATED_ON": "2016-11-23 10:54:04", "LIST_GUID": "{f1ced808-a3d0-43fd-a734-c39825d037f2}", "NOM_REG_NO": null }, "geometry": { "type": "Point", "coordinates": [ 146.238359318216567, -41.162174857087592 ] } },
{ "type": "Feature", "properties": { "COMFAC_ID": 6999, "PID": 6981014, "COM_TYPE1": "State Government", "COM_TYPE2": "Other", "NAME": "TasWater - Wastewater Treatment Plant", "UFI": "{3bea44da-a5f7-43f3-a366-8b85caf5e505}", "CREATED_ON": "2016-11-23 10:54:04", "LIST_GUID": "{ec76a441-cd83-457b-9b50-d02eb6510962}", "NOM_REG_NO": null }, "geometry": { "type": "Point", "coordinates": [ 146.243558856124253, -41.166650805981753 ] } },
{ "type": "Feature", "properties": { "COMFAC_ID": 6870, "PID": 1911279, "COM_TYPE1": "Club", "COM_TYPE2": "Tennis", "NAME": "Turners Beach Tennis Club", "UFI": "{0aa6b75e-8ec7-492b-be7b-51a29ee4323a}", "CREATED_ON": "2016-11-23 10:54:04", "LIST_GUID": "{1f8a1b03-0053-4dd3-b5d6-f173c078f759}", "NOM_REG_NO": null }, "geometry": { "type": "Point", "coordinates": [ 146.244066469619867, -41.159422479825061 ] } },
{ "type": "Feature", "properties": { "COMFAC_ID": 6873, "PID": 6978771, "COM_TYPE1": "Ground", "COM_TYPE2": "Park or reserve", "NAME": "Custom Reserve", "UFI": "{44a7dd36-b825-4d01-b892-06bbf5000c54}", "CREATED_ON": "2016-11-23 10:54:04", "LIST_GUID": "{0045c60f-c028-4098-ad14-067281828b95}", "NOM_REG_NO": null }, "geometry": { "type": "Point", "coordinates": [ 146.249385888993345, -41.160302207427961 ] } },
{ "type": "Feature", "properties": { "COMFAC_ID": 63428, "PID": 6380665, "COM_TYPE1": "Accommodation", "COM_TYPE2": "Holiday Unit\/ Flat", "NAME": "Ballachulish Farm Stay", "UFI": "{fe7c2b9f-dc05-406b-a4ba-36bec790bbf4}", "CREATED_ON": "2016-11-23 10:54:04", "LIST_GUID": "{b8f7d4ee-e29d-4155-a7a3-c3efb7644b85}", "NOM_REG_NO": null }, "geometry": { "type": "Point", "coordinates": [ 146.271127855718788, -41.19202513484499 ] } },
{ "type": "Feature", "properties": { "COMFAC_ID": 7075, "PID": 6776854, "COM_TYPE1": "Church", "COM_TYPE2": "Uniting Church", "NAME": "South Riana Uniting Church", "UFI": "{f1284f4e-259c-41cd-8ace-d01ea964d1a6}", "CREATED_ON": "2016-11-23 10:54:04", "LIST_GUID": "{eb34376e-a1f2-4800-9701-f7af478f1d72}", "NOM_REG_NO": null }, "geometry": { "type": "Point", "coordinates": [ 145.979016886260126, -41.23525404532937 ] } },
{ "type": "Feature", "properties": { "COMFAC_ID": 37086, "PID": 6776192, "COM_TYPE1": "Commonwealth government", "COM_TYPE2": "Post offices and agencies", "NAME": "Riana Post Office", "UFI": "{a673659b-d76b-49ff-b36d-830a24663e53}", "CREATED_ON": "2016-11-23 10:54:04", "LIST_GUID": "{2669fb1d-2a70-41ba-bd32-9440894fe603}", "NOM_REG_NO": null }, "geometry": { "type": "Point", "coordinates": [ 145.998679785420791, -41.202763720714039 ] } },
{ "type": "Feature", "properties": { "COMFAC_ID": 7073, "PID": 2895629, "COM_TYPE1": "Education and training", "COM_TYPE2": "Primary and infant", "NAME": "Riana Primary School", "UFI": "{beedeb1f-fa97-4f8b-b016-e8a06d3f6aa4}", "CREATED_ON": "2016-11-23 10:54:04", "LIST_GUID": "{c6d55aef-0e86-4af2-a1e2-ccb7618d555a}", "NOM_REG_NO": null }, "geometry": { "type": "Point", "coordinates": [ 145.99943439698211, -41.202365661394317 ] } },
{ "type": "Feature", "properties": { "COMFAC_ID": 57434, "PID": 2080307, "COM_TYPE1": "Ground", "COM_TYPE2": "Picnic Area", "NAME": "Picnic Area", "UFI": "{0a67ee31-c6ff-4de1-a948-913e82ea9cd8}", "CREATED_ON": "2016-11-23 10:54:04", "LIST_GUID": "{116de110-4765-4f0b-8194-67f3d76eedd3}", "NOM_REG_NO": null }, "geometry": { "type": "Point", "coordinates": [ 145.98597071330903, -41.074449217282208 ] } },
{ "type": "Feature", "properties": { "COMFAC_ID": 7014, "PID": 1753792, "COM_TYPE1": "State police and emergency", "COM_TYPE2": "Fire station", "NAME": "Gunns Plains Fire Station", "UFI": "{8359119e-6ad1-455d-b2eb-aa5ca4240645}", "CREATED_ON": "2016-11-23 10:54:04", "LIST_GUID": "{bdc820f2-7918-469d-b9ba-8e1e5ba107fa}", "NOM_REG_NO": null }, "geometry": { "type": "Point", "coordinates": [ 146.038235433290907, -41.277701497048398 ] } },
{ "type": "Feature", "properties": { "COMFAC_ID": 11044, "PID": 7829380, "COM_TYPE1": "Accommodation", "COM_TYPE2": "Guest House\/ Bed and Breakfast", "NAME": "Kaydale Lodge Gardens", "UFI": "{068611cd-25eb-4747-901c-16165613cc9a}", "CREATED_ON": "2016-11-23 10:54:04", "LIST_GUID": "{ab41efa7-38b5-4094-b105-e7c3a867ff2b}", "NOM_REG_NO": null }, "geometry": { "type": "Point", "coordinates": [ 146.058544305311784, -41.388630228113634 ] } },
{ "type": "Feature", "properties": { "COMFAC_ID": 7017, "PID": 6993226, "COM_TYPE1": "Ground", "COM_TYPE2": "Park or reserve", "NAME": "Preston Recreation Ground", "UFI": "{525c1956-c60d-4f33-b8fa-df46a1b96527}", "CREATED_ON": "2016-11-23 10:54:04", "LIST_GUID": "{01ce1461-209e-47d1-a126-37d86fe2079c}", "NOM_REG_NO": null }, "geometry": { "type": "Point", "coordinates": [ 146.063319975530788, -41.29626203335522 ] } },
{ "type": "Feature", "properties": { "COMFAC_ID": 57138, "PID": 2541206, "COM_TYPE1": "Club", "COM_TYPE2": "Other social", "NAME": "Historical Machinery Club of Tasmania", "UFI": "{7464ea01-08ce-4f89-b55e-b5c13599ed6c}", "CREATED_ON": "2016-11-23 10:54:04", "LIST_GUID": "{b78d3233-a33e-49cc-8ef8-dc6adfdf6b41}", "NOM_REG_NO": null }, "geometry": { "type": "Point", "coordinates": [ 146.066970316976068, -41.120103231530635 ] } },
{ "type": "Feature", "properties": { "COMFAC_ID": 37266, "PID": 1854331, "COM_TYPE1": "Community care", "COM_TYPE2": "Nursing and age home", "NAME": "Coroneagh Park Hostel", "UFI": "{146105be-5464-4f11-bac3-391b7d982c53}", "CREATED_ON": "2016-11-23 10:54:04", "LIST_GUID": "{52d86cfa-8692-49bf-9d92-742aef70e8c9}", "NOM_REG_NO": null }, "geometry": { "type": "Point", "coordinates": [ 146.067565418411277, -41.117983314086878 ] } },
{ "type": "Feature", "properties": { "COMFAC_ID": 6821, "PID": 6759608, "COM_TYPE1": "Church", "COM_TYPE2": "Anglican Church", "NAME": "St Stephens Anglican Church", "UFI": "{b5d68cec-b965-4160-b996-735b55740a1c}", "CREATED_ON": "2016-11-23 10:54:04", "LIST_GUID": "{d579f4e9-c67a-493a-9e37-b356b2ab8aff}", "NOM_REG_NO": null }, "geometry": { "type": "Point", "coordinates": [ 146.068330274816219, -41.109882998618431 ] } },
{ "type": "Feature", "properties": { "COMFAC_ID": 61266, "PID": 6757119, "COM_TYPE1": "Transport", "COM_TYPE2": "Service Station", "NAME": "Liberty Penguin", "UFI": "{f54d6f90-3d36-46a5-8de6-96c66dceaea8}", "CREATED_ON": "2016-11-23 10:54:04", "LIST_GUID": "{863cd109-b73f-485f-9692-adcc695c981c}", "NOM_REG_NO": null }, "geometry": { "type": "Point", "coordinates": [ 146.068394326792088, -41.11908321779773 ] } },
{ "type": "Feature", "properties": { "COMFAC_ID": 6847, "PID": 7240015, "COM_TYPE1": "Ground", "COM_TYPE2": "Park or reserve", "NAME": "Hiscutt Park", "UFI": "{3d7ba014-93bb-495a-be8b-be3d30797ccc}", "CREATED_ON": "2016-11-23 10:54:04", "LIST_GUID": "{7869e9c5-d667-4bdd-9298-f3bd4fa81109}", "NOM_REG_NO": "22954Y" }, "geometry": { "type": "Point", "coordinates": [ 146.069067530951088, -41.11121561531278 ] } },
{ "type": "Feature", "properties": { "COMFAC_ID": 6843, "PID": 6759835, "COM_TYPE1": "Club", "COM_TYPE2": "Scout", "NAME": "Penguin Scout Hall", "UFI": "{7e5ac11c-73b4-462c-a52e-e56db80e4d31}", "CREATED_ON": "2016-11-23 10:54:04", "LIST_GUID": "{1f4b1fb7-4155-43c7-aac1-e1fab0605e8e}", "NOM_REG_NO": null }, "geometry": { "type": "Point", "coordinates": [ 146.069666817993323, -41.108397721703035 ] } },
{ "type": "Feature", "properties": { "COMFAC_ID": 36628, "PID": 6757442, "COM_TYPE1": "Club", "COM_TYPE2": "Football", "NAME": "Penguin Football Club", "UFI": "{82bfd793-dbc6-4fa7-90b9-7644e8eb3736}", "CREATED_ON": "2016-11-23 10:54:04", "LIST_GUID": "{5e97d7de-9de4-4ee5-8b40-3fcb441badad}", "NOM_REG_NO": null }, "geometry": { "type": "Point", "coordinates": [ 146.070746965470221, -41.114222481084958 ] } },
{ "type": "Feature", "properties": { "COMFAC_ID": 6825, "PID": 6755391, "COM_TYPE1": "Church", "COM_TYPE2": "Other Church", "NAME": "The Rock Community Church", "UFI": "{6371e5c4-ed02-405d-bbde-de7016e365e2}", "CREATED_ON": "2016-11-23 10:54:04", "LIST_GUID": "{802186a2-af8b-4561-ae15-aa68fe218ec8}", "NOM_REG_NO": null }, "geometry": { "type": "Point", "coordinates": [ 146.071112627746089, -41.113630908760072 ] } },
{ "type": "Feature", "properties": { "COMFAC_ID": 36629, "PID": 6757442, "COM_TYPE1": "Club", "COM_TYPE2": "Cricket", "NAME": "Penguin Cricket Club", "UFI": "{ddf876d0-1d3e-4691-bfcb-0088ad61bf73}", "CREATED_ON": "2016-11-23 10:54:04", "LIST_GUID": "{4e1c6bf8-b3d2-428f-8645-9b647dd2c6ec}", "NOM_REG_NO": null }, "geometry": { "type": "Point", "coordinates": [ 146.071802470140483, -41.115442795513417 ] } },
{ "type": "Feature", "properties": { "COMFAC_ID": 6830, "PID": 1412840, "COM_TYPE1": "Club", "COM_TYPE2": "Golf", "NAME": "Penguin Golf Club", "UFI": "{91a466d1-7652-42ce-a3bb-9511e27d80b3}", "CREATED_ON": "2016-11-23 10:54:04", "LIST_GUID": "{c084f7b7-58a6-4c3b-b855-d0deb882f32a}", "NOM_REG_NO": null }, "geometry": { "type": "Point", "coordinates": [ 146.072401343644771, -41.128931271036372 ] } },
{ "type": "Feature", "properties": { "COMFAC_ID": 6851, "PID": 1759115, "COM_TYPE1": "Ground", "COM_TYPE2": "Park or reserve", "NAME": "Penguin Memorial Community Park", "UFI": "{f6453818-5a6a-4730-8093-f74ee4345d3d}", "CREATED_ON": "2016-11-23 10:54:04", "LIST_GUID": "{45c53105-18a9-433e-835f-77ea9d638787}", "NOM_REG_NO": null }, "geometry": { "type": "Point", "coordinates": [ 146.073599036982046, -41.113812171312553 ] } },
{ "type": "Feature", "properties": { "COMFAC_ID": 36626, "PID": 6754700, "COM_TYPE1": "Tourist feature", "COM_TYPE2": "Cultural", "NAME": "Penguin  Market", "UFI": "{e0e23c2d-7d86-4be0-8333-8c3fb4b2719d}", "CREATED_ON": "2016-11-23 10:54:04", "LIST_GUID": "{9f5b46e3-d951-4f40-80f0-05d3cd2828d8}", "NOM_REG_NO": null }, "geometry": { "type": "Point", "coordinates": [ 146.074137907018297, -41.115882518693887 ] } },
{ "type": "Feature", "properties": { "COMFAC_ID": 54379, "PID": 7454822, "COM_TYPE1": "Accommodation", "COM_TYPE2": "Motel", "NAME": "Penguin Seaside Motel", "UFI": "{de0f509d-10cf-4636-b5f4-f30c85fbca84}", "CREATED_ON": "2016-12-01 11:19:26", "LIST_GUID": "{90ca3218-f7fc-45b9-99f7-6b77c8ac3e97}", "NOM_REG_NO": null }, "geometry": { "type": "Point", "coordinates": [ 146.074345228621837, -41.11455497042617 ] } },
{ "type": "Feature", "properties": { "COMFAC_ID": 54134, "PID": 7254361, "COM_TYPE1": "Transport", "COM_TYPE2": "Service Station", "NAME": "Caltex Penguin", "UFI": "{2df2c98a-4b51-457f-b403-146fcf214767}", "CREATED_ON": "2016-11-23 10:54:04", "LIST_GUID": "{5143a9ad-446f-4732-af3c-b92fbeecf159}", "NOM_REG_NO": null }, "geometry": { "type": "Point", "coordinates": [ 146.074830142957779, -41.115190274283741 ] } },
{ "type": "Feature", "properties": { "COMFAC_ID": 63410, "PID": 6759210, "COM_TYPE1": "Accommodation", "COM_TYPE2": "Holiday Unit\/ Flat", "NAME": "Sunrise at Penguin", "UFI": "{14119804-12a1-4cf8-b0f6-ba359dc1062e}", "CREATED_ON": "2016-11-23 10:54:04", "LIST_GUID": "{4dbea5ab-cd29-4583-a881-cf2e9889be78}", "NOM_REG_NO": null }, "geometry": { "type": "Point", "coordinates": [ 146.077388847498952, -41.116133004866292 ] } },
{ "type": "Feature", "properties": { "COMFAC_ID": 37165, "PID": 6978181, "COM_TYPE1": "Hall\/ Community centre", "COM_TYPE2": "Community, town or city hall", "NAME": "North Motton Hall", "UFI": "{5b237a45-e01f-4888-880d-7ec488d107ed}", "CREATED_ON": "2016-11-23 10:54:04", "LIST_GUID": "{a7a3dc10-7568-4dd3-84b4-330c88c31c9b}", "NOM_REG_NO": null }, "geometry": { "type": "Point", "coordinates": [ 146.109597298811138, -41.207030644886707 ] } },
{ "type": "Feature", "properties": { "COMFAC_ID": 7036, "PID": 6977998, "COM_TYPE1": "Sports complex", "COM_TYPE2": "Golf", "NAME": "Allison Golf Course", "UFI": "{9a8156f3-04f9-4fbf-8233-f9357beb64db}", "CREATED_ON": "2016-11-23 10:54:04", "LIST_GUID": "{c1591c78-f390-4005-8ab1-c1e3d18c741f}", "NOM_REG_NO": "20189K" }, "geometry": { "type": "Point", "coordinates": [ 146.115107502782053, -41.15925658173478 ] } },
{ "type": "Feature", "properties": { "COMFAC_ID": 25587, "PID": 1404007, "COM_TYPE1": "Community care", "COM_TYPE2": "Nursing and age home", "NAME": "Eliza Purton Home for the Aged", "UFI": "{df908231-96e7-41a9-98d3-f73c56009ad8}", "CREATED_ON": "2016-11-23 10:54:04", "LIST_GUID": "{2a24c053-59b0-426c-8af3-374115cd86a0}", "NOM_REG_NO": null }, "geometry": { "type": "Point", "coordinates": [ 146.147862735395933, -41.148409453093073 ] } },
{ "type": "Feature", "properties": { "COMFAC_ID": 6889, "PID": 6973460, "COM_TYPE1": "Church", "COM_TYPE2": "Seventh Day Adventist Church", "NAME": "Ulverstone Seventh Day Adventist Church", "UFI": "{4dc6d907-9887-4efe-bd23-330870cd3dec}", "CREATED_ON": "2016-11-23 10:54:04", "LIST_GUID": "{5d46e6c9-588c-4c57-af4b-7c794b9d013a}", "NOM_REG_NO": null }, "geometry": { "type": "Point", "coordinates": [ 146.148967670878221, -41.150873320269568 ] } },
{ "type": "Feature", "properties": { "COMFAC_ID": 37345, "PID": 7468458, "COM_TYPE1": "Ground", "COM_TYPE2": "Park or reserve", "NAME": "Reid Street Reserve", "UFI": "{567eea86-edbb-4e31-814f-19b849753ac2}", "CREATED_ON": "2016-11-23 10:54:04", "LIST_GUID": "{42564bfc-01c1-4a4b-9b40-a445c77f0331}", "NOM_REG_NO": null }, "geometry": { "type": "Point", "coordinates": [ 146.1489852858912, -41.153121777629863 ] } },
{ "type": "Feature", "properties": { "COMFAC_ID": 25589, "PID": 1405501, "COM_TYPE1": "Community care", "COM_TYPE2": "Nursing and age home", "NAME": "Mt St Vincent Nursing Home", "UFI": "{090513ac-7dbd-4c1c-8e1a-7908a4096514}", "CREATED_ON": "2016-11-23 10:54:04", "LIST_GUID": "{d32d85ba-9931-432a-83e4-8b41cae05966}", "NOM_REG_NO": null }, "geometry": { "type": "Point", "coordinates": [ 146.152907920201613, -41.15282107668606 ] } },
{ "type": "Feature", "properties": { "COMFAC_ID": 6930, "PID": 7143282, "COM_TYPE1": "Ground", "COM_TYPE2": "Park or reserve", "NAME": "River Park", "UFI": "{65a364c7-1962-424d-b594-f91cf21092f5}", "CREATED_ON": "2016-11-23 10:54:04", "LIST_GUID": "{8eb161ae-3681-4679-a4e3-029aae83bbf7}", "NOM_REG_NO": "23756D" }, "geometry": { "type": "Point", "coordinates": [ 146.153657309177532, -41.157518834893949 ] } },
{ "type": "Feature", "properties": { "COMFAC_ID": 7023, "PID": 6983351, "COM_TYPE1": "Hall\/ Community centre", "COM_TYPE2": "Other", "NAME": "Abbotsham Hall", "UFI": "{ea6055b3-6ecc-4558-91b2-0ef7a11dda19}", "CREATED_ON": "2016-11-23 10:54:04", "LIST_GUID": "{0d4af405-a38c-4494-89f1-2c9966958123}", "NOM_REG_NO": null }, "geometry": { "type": "Point", "coordinates": [ 146.174002192479094, -41.213772962774819 ] } },
{ "type": "Feature", "properties": { "COMFAC_ID": 57126, "PID": 6972986, "COM_TYPE1": "State Government", "COM_TYPE2": "DPIPWE", "NAME": "Inland Fisheries Service Ulverstone", "UFI": "{d46efb46-6831-4e1e-8698-92fe4539a163}", "CREATED_ON": "2016-11-23 10:54:04", "LIST_GUID": "{e7102f3e-b8c3-4d9f-aaf1-a66b88cfd273}", "NOM_REG_NO": null }, "geometry": { "type": "Point", "coordinates": [ 146.162633980443928, -41.161306032421834 ] } },
{ "type": "Feature", "properties": { "COMFAC_ID": 6935, "PID": 1403880, "COM_TYPE1": "Ground", "COM_TYPE2": "Park or reserve", "NAME": "West Beach Reserve", "UFI": "{c6c0435d-cbfb-4ecb-adeb-b596e58ce517}", "CREATED_ON": "2016-11-23 10:54:04", "LIST_GUID": "{5c75c88b-47a0-41a2-ad1c-21be895d60e8}", "NOM_REG_NO": null }, "geometry": { "type": "Point", "coordinates": [ 146.162945072314074, -41.145205009050834 ] } },
{ "type": "Feature", "properties": { "COMFAC_ID": 6939, "PID": 6966420, "COM_TYPE1": "Education and training", "COM_TYPE2": "Primary and infant", "NAME": "Ulverstone Primary School", "UFI": "{1c17fc40-8a02-4ae2-bbaf-3f1ad098576d}", "CREATED_ON": "2016-11-23 10:54:04", "LIST_GUID": "{452524e9-7040-4c6f-9253-f26d73db413f}", "NOM_REG_NO": null }, "geometry": { "type": "Point", "coordinates": [ 146.163568808775437, -41.161318553899015 ] } },
{ "type": "Feature", "properties": { "COMFAC_ID": 6943, "PID": 6959861, "COM_TYPE1": "Sports complex", "COM_TYPE2": "Racecourses", "NAME": "Ulverstone Showground", "UFI": "{2524998d-bbd8-40b4-b33d-eb72c09588bc}", "CREATED_ON": "2016-11-23 10:54:04", "LIST_GUID": "{c5f9be9f-5f22-460a-bef7-158261d5e167}", "NOM_REG_NO": null }, "geometry": { "type": "Point", "coordinates": [ 146.165700903185979, -41.152608379523578 ] } },
{ "type": "Feature", "properties": { "COMFAC_ID": 57490, "PID": 1685726, "COM_TYPE1": "Ground", "COM_TYPE2": "Picnic Area", "NAME": "Picnic Area", "UFI": "{c685a3e3-10d0-4a96-9d66-b7cd5a7c6e59}", "CREATED_ON": "2016-11-23 10:54:04", "LIST_GUID": "{7bdb41d3-789a-4fc3-add9-c116f62d471b}", "NOM_REG_NO": null }, "geometry": { "type": "Point", "coordinates": [ 146.167553093740622, -41.154781281761267 ] } },
{ "type": "Feature", "properties": { "COMFAC_ID": 37645, "PID": 6960141, "COM_TYPE1": "State Government", "COM_TYPE2": "Health and Human Services", "NAME": "Alcohol & Drug Service Centre", "UFI": "{fece5f0e-524e-405b-898f-f4f586d06ff9}", "CREATED_ON": "2016-11-23 10:54:04", "LIST_GUID": "{58fcf030-da88-4faf-9d34-990b38c57a29}", "NOM_REG_NO": null }, "geometry": { "type": "Point", "coordinates": [ 146.169714396368875, -41.158876831680587 ] } },
{ "type": "Feature", "properties": { "COMFAC_ID": 57486, "PID": 6954163, "COM_TYPE1": "Ground", "COM_TYPE2": "Picnic Area", "NAME": "Picnic Area", "UFI": "{4c84b842-0799-4cdf-919c-bf1c206a694e}", "CREATED_ON": "2016-11-23 10:54:04", "LIST_GUID": "{d3858415-fc29-483b-803e-199e4fb320b6}", "NOM_REG_NO": null }, "geometry": { "type": "Point", "coordinates": [ 146.17001738531286, -41.152330260314443 ] } },
{ "type": "Feature", "properties": { "COMFAC_ID": 6896, "PID": 7746462, "COM_TYPE1": "Club", "COM_TYPE2": "Senior and elderly citizens", "NAME": "Ulverstone Senior Citizens Club", "UFI": "{5e25a76d-37b6-430b-94ff-f414105f3776}", "CREATED_ON": "2016-11-23 10:54:04", "LIST_GUID": "{47eed6e0-120f-4b5d-8834-9b680935bf18}", "NOM_REG_NO": null }, "geometry": { "type": "Point", "coordinates": [ 146.171924586516326, -41.155089946308728 ] } },
{ "type": "Feature", "properties": { "COMFAC_ID": 6901, "PID": 6965073, "COM_TYPE1": "Council", "COM_TYPE2": "Central Coast", "NAME": "Central Coast Administration Centre Ulverstone", "UFI": "{a05314bd-9271-461e-8332-3cba29fcb002}", "CREATED_ON": "2016-11-23 10:54:04", "LIST_GUID": "{8046b925-c11c-4e8e-aef3-07b92f62231d}", "NOM_REG_NO": null }, "geometry": { "type": "Point", "coordinates": [ 146.172567033103206, -41.156019995467695 ] } },
{ "type": "Feature", "properties": { "COMFAC_ID": 25586, "PID": 6953400, "COM_TYPE1": "Medical service", "COM_TYPE2": "Family & child health centre", "NAME": "Ulverstone Child Health Centre", "UFI": "{18f71550-a6ae-4dce-86f4-b677595584d7}", "CREATED_ON": "2016-11-23 10:54:04", "LIST_GUID": "{5a064dfd-fb87-4edb-879e-34decfc27a02}", "NOM_REG_NO": null }, "geometry": { "type": "Point", "coordinates": [ 146.172819202209638, -41.158355825593809 ] } },
{ "type": "Feature", "properties": { "COMFAC_ID": 37706, "PID": 7276480, "COM_TYPE1": "Hall\/ Community centre", "COM_TYPE2": "Community, town or city hall", "NAME": "Ulverstone Civic Centre", "UFI": "{13fed593-d530-495b-8c4d-133358cb66c2}", "CREATED_ON": "2016-11-23 10:54:04", "LIST_GUID": "{4abdfe7d-e331-4130-b905-7f4aefe55bb9}", "NOM_REG_NO": null }, "geometry": { "type": "Point", "coordinates": [ 146.172936665155191, -41.155711239208202 ] } },
{ "type": "Feature", "properties": { "COMFAC_ID": 57128, "PID": 7515664, "COM_TYPE1": "Transport", "COM_TYPE2": "Car park", "NAME": "Patrick Street Car Park Ulverstone", "UFI": "{b6c8c97d-f183-43f3-a317-ea4ef9cd2670}", "CREATED_ON": "2016-11-23 10:54:04", "LIST_GUID": "{783ac3dc-334a-455a-b5f1-94dfd9f91c13}", "NOM_REG_NO": null }, "geometry": { "type": "Point", "coordinates": [ 146.172974922524077, -41.155081665769877 ] } },
{ "type": "Feature", "properties": { "COMFAC_ID": 57484, "PID": 2082345, "COM_TYPE1": "Ground", "COM_TYPE2": "Picnic Area", "NAME": "Picnic Area", "UFI": "{d9dfa826-c60d-4251-83f1-ae033c5f9fad}", "CREATED_ON": "2016-11-23 10:54:04", "LIST_GUID": "{700952c9-ef2d-495b-ac06-dc1651953d86}", "NOM_REG_NO": null }, "geometry": { "type": "Point", "coordinates": [ 146.183863908558436, -41.15323647818412 ] } },
{ "type": "Feature", "properties": { "COMFAC_ID": 60117, "PID": 6952838, "COM_TYPE1": "Community care", "COM_TYPE2": "Creche", "NAME": "Sacred Heart Ulverstone - OSHC", "UFI": "{e630cbaf-0396-4923-acd4-89a811982901}", "CREATED_ON": "2016-11-23 10:54:04", "LIST_GUID": "{07a1d001-65ca-4021-96c0-b3df7ab02d52}", "NOM_REG_NO": null }, "geometry": { "type": "Point", "coordinates": [ 146.186753685844707, -41.155515785798272 ] } },
{ "type": "Feature", "properties": { "COMFAC_ID": 46551, "PID": 6952838, "COM_TYPE1": "Education and training", "COM_TYPE2": "Private", "NAME": "Sacred Heart Catholic School (Ulverstone)", "UFI": "{63338d0f-67ff-42e7-a804-4ea16b2bc16d}", "CREATED_ON": "2016-11-23 10:54:04", "LIST_GUID": "{1951fd4a-899a-4dd2-88c3-0b5a2ac76656}", "NOM_REG_NO": null }, "geometry": { "type": "Point", "coordinates": [ 146.186908132028066, -41.155477439691175 ] } },
{ "type": "Feature", "properties": { "COMFAC_ID": 60119, "PID": 1902129, "COM_TYPE1": "Community care", "COM_TYPE2": "Creche", "NAME": "East Ulverstone Primary - OSHC", "UFI": "{062e70f7-ecf0-414d-9ac4-ca305f2418ad}", "CREATED_ON": "2016-11-23 10:54:04", "LIST_GUID": "{0f3cbf87-ffed-4ef7-81f8-880cc792b63f}", "NOM_REG_NO": null }, "geometry": { "type": "Point", "coordinates": [ 146.190920955781365, -41.154827160646462 ] } },
{ "type": "Feature", "properties": { "COMFAC_ID": 13524, "PID": 1911260, "COM_TYPE1": "Accommodation", "COM_TYPE2": "Caravan Park", "NAME": "OC Ling Memorial Caravan Park", "UFI": "{5f8f9e9c-8fdf-4d0d-9b1e-85127466f0e0}", "CREATED_ON": "2016-11-23 10:54:04", "LIST_GUID": "{bd01fd76-4eee-4295-a761-20fc77bae94a}", "NOM_REG_NO": null }, "geometry": { "type": "Point", "coordinates": [ 146.243512922948838, -41.158066987486606 ] } },
{ "type": "Feature", "properties": { "COMFAC_ID": 6872, "PID": 1911279, "COM_TYPE1": "Hall\/ Community centre", "COM_TYPE2": "Community centre", "NAME": "Glen Turner Community Hall & Recreation Centre", "UFI": "{107a8251-a0d5-4dbb-aeca-c804298a01e9}", "CREATED_ON": "2016-11-23 10:54:04", "LIST_GUID": "{b2632804-eab6-4137-86e7-4f7c6ae1a39b}", "NOM_REG_NO": null }, "geometry": { "type": "Point", "coordinates": [ 146.24382876707304, -41.158756876429628 ] } },
{ "type": "Feature", "properties": { "COMFAC_ID": 7080, "PID": 1836651, "COM_TYPE1": "Ground", "COM_TYPE2": "Sportsground", "NAME": "Turners Beach Oval", "UFI": "{20bd02cc-dded-4936-9526-28ea77dff2fc}", "CREATED_ON": "2016-11-23 10:54:04", "LIST_GUID": "{592e043c-6039-49d9-98eb-88000c892ef1}", "NOM_REG_NO": null }, "geometry": { "type": "Point", "coordinates": [ 146.245512810426249, -41.159012637000586 ] } },
{ "type": "Feature", "properties": { "COMFAC_ID": 37188, "PID": 2883871, "COM_TYPE1": "Club", "COM_TYPE2": "Cricket", "NAME": "Riana Cricket Club", "UFI": "{36c5a2cb-39c4-49e6-b4a7-5152d918e4da}", "CREATED_ON": "2016-11-23 10:54:04", "LIST_GUID": "{bc6b9acf-f191-4d80-b65a-1fad8507eddc}", "NOM_REG_NO": null }, "geometry": { "type": "Point", "coordinates": [ 145.99900594816782, -41.201474621634823 ] } },
{ "type": "Feature", "properties": { "COMFAC_ID": 60176, "PID": 1999776, "COM_TYPE1": "Accommodation", "COM_TYPE2": "Holiday Unit\/ Flat", "NAME": "Black Rock Retreat", "UFI": "{ee955278-ff15-4413-991c-0f852a060ea5}", "CREATED_ON": "2016-11-23 10:54:04", "LIST_GUID": "{f9704fdd-57c1-49df-9e91-38b055e71b6d}", "NOM_REG_NO": null }, "geometry": { "type": "Point", "coordinates": [ 146.001645714005775, -41.085126210102629 ] } },
{ "type": "Feature", "properties": { "COMFAC_ID": 63986, "PID": 6992434, "COM_TYPE1": "Tourist feature", "COM_TYPE2": "Industrial", "NAME": "Leven Valley Vineyard", "UFI": "{1e77b5f2-0724-476f-9df0-b9c9b3c7f010}", "CREATED_ON": "2017-05-30 12:11:40", "LIST_GUID": "{d579a14f-60f1-41a6-99a2-3331134fb4ac}", "NOM_REG_NO": null }, "geometry": { "type": "Point", "coordinates": [ 146.042187716128836, -41.285385081436345 ] } },
{ "type": "Feature", "properties": { "COMFAC_ID": 11064, "PID": 1855094, "COM_TYPE1": "Accommodation", "COM_TYPE2": "Caravan Park", "NAME": "Wings Park", "UFI": "{3280571e-47d4-4bad-91cc-b8a13d8c3bdf}", "CREATED_ON": "2016-11-23 10:54:04", "LIST_GUID": "{e6f9b6fd-f9b7-4805-8d39-d0f7acf60382}", "NOM_REG_NO": null }, "geometry": { "type": "Point", "coordinates": [ 146.046930393619704, -41.264106190244632 ] } },
{ "type": "Feature", "properties": { "COMFAC_ID": 46268, "PID": 6764343, "COM_TYPE1": "Accommodation", "COM_TYPE2": "Guest House\/ Bed and Breakfast", "NAME": "Glenbrook House & Cottage", "UFI": "{5a401d30-20ec-4bdc-bee3-6b044fa042ba}", "CREATED_ON": "2016-11-23 10:54:04", "LIST_GUID": "{dceba190-5580-419c-9a36-3d1d444b95fa}", "NOM_REG_NO": null }, "geometry": { "type": "Point", "coordinates": [ 146.049515517229793, -41.128494445594654 ] } },
{ "type": "Feature", "properties": { "COMFAC_ID": 37269, "PID": 6772159, "COM_TYPE1": "Club", "COM_TYPE2": "Surf life saving", "NAME": "Penguin Surf Life Saving Club", "UFI": "{111de4e4-8125-4d3b-a360-1343fa9d90bb}", "CREATED_ON": "2016-11-23 10:54:04", "LIST_GUID": "{e5c6ace7-54d2-4ec4-a958-9fda8bea6ae6}", "NOM_REG_NO": null }, "geometry": { "type": "Point", "coordinates": [ 146.05190413717483, -41.102460721171227 ] } },
{ "type": "Feature", "properties": { "COMFAC_ID": 61244, "PID": 6771164, "COM_TYPE1": "Commonwealth government", "COM_TYPE2": "Australia Post", "NAME": "Sulphur Creek", "UFI": "{986c99ec-73f6-4eda-ba91-d27f0d74aed9}", "CREATED_ON": "2016-11-23 10:54:04", "LIST_GUID": "{19db2b13-da28-4b95-b14f-bc79e95e8450}", "NOM_REG_NO": null }, "geometry": { "type": "Point", "coordinates": [ 146.019507844296697, -41.091982986690923 ] } },
{ "type": "Feature", "properties": { "COMFAC_ID": 7087, "PID": 6977648, "COM_TYPE1": "Ground", "COM_TYPE2": "Burial ground", "NAME": "Ulverstone Lawn Cemetery", "UFI": "{eeeb62f6-93ee-4973-8722-91a5638d6d1d}", "CREATED_ON": "2016-11-23 10:54:04", "LIST_GUID": "{e741c770-b718-46d5-a7d5-f3e6ce8f5d5a}", "NOM_REG_NO": null }, "geometry": { "type": "Point", "coordinates": [ 146.1064085505798, -41.139776349033447 ] } },
{ "type": "Feature", "properties": { "COMFAC_ID": 37225, "PID": 1413755, "COM_TYPE1": "Church", "COM_TYPE2": "Christian Reformed Church", "NAME": "Sanctuary Hill Christian Fellowship", "UFI": "{8e5529c5-ada7-4dd3-98fe-b1485fdc7f5a}", "CREATED_ON": "2016-11-23 10:54:04", "LIST_GUID": "{118d286a-f43a-4909-bd78-0d0a88d82664}", "NOM_REG_NO": null }, "geometry": { "type": "Point", "coordinates": [ 146.063628646522005, -41.107448679013153 ] } },
{ "type": "Feature", "properties": { "COMFAC_ID": 37267, "PID": 2541206, "COM_TYPE1": "Council", "COM_TYPE2": "Central Coast", "NAME": "Central Coast Council Penguin Depot", "UFI": "{10c4d5c7-a889-4c4b-8c70-4c12ce234833}", "CREATED_ON": "2016-11-23 10:54:04", "LIST_GUID": "{a4c092a1-0f9d-49f2-909b-05227ce66937}", "NOM_REG_NO": null }, "geometry": { "type": "Point", "coordinates": [ 146.066711094272563, -41.120214892335277 ] } },
{ "type": "Feature", "properties": { "COMFAC_ID": 61268, "PID": 1685742, "COM_TYPE1": "Tourist feature", "COM_TYPE2": "Historical", "NAME": "Penguin History Rooms", "UFI": "{68400fdb-ecbe-4d35-8af3-0c95a83c1432}", "CREATED_ON": "2016-11-23 10:54:04", "LIST_GUID": "{9b6e96c7-0a77-477d-b7d1-78efad08a339}", "NOM_REG_NO": null }, "geometry": { "type": "Point", "coordinates": [ 146.069864037960031, -41.11112959178719 ] } },
{ "type": "Feature", "properties": { "COMFAC_ID": 6834, "PID": 7679167, "COM_TYPE1": "Club", "COM_TYPE2": "Tennis", "NAME": "Penguin Tennis Club", "UFI": "{73d46d3c-9f93-4d17-9818-be3398b8b1b8}", "CREATED_ON": "2016-11-23 10:54:04", "LIST_GUID": "{8bdb6286-56f1-4c2d-98c3-56fb87c5c20b}", "NOM_REG_NO": null }, "geometry": { "type": "Point", "coordinates": [ 146.070030353045922, -41.1281014636794 ] } },
{ "type": "Feature", "properties": { "COMFAC_ID": 6859, "PID": 7679175, "COM_TYPE1": "Sports complex", "COM_TYPE2": "Other", "NAME": "Penguin Chopping Complex", "UFI": "{80b7e95d-83bb-4ff5-8d02-67f61e43715c}", "CREATED_ON": "2016-11-23 10:54:04", "LIST_GUID": "{67452910-fad9-4b07-b6df-2dfde7a6a84d}", "NOM_REG_NO": null }, "geometry": { "type": "Point", "coordinates": [ 146.070190019313713, -41.128835263964348 ] } },
{ "type": "Feature", "properties": { "COMFAC_ID": 25245, "PID": 7240066, "COM_TYPE1": "Financial institution", "COM_TYPE2": "Commonwealth", "NAME": "Commonwealth Bank Penguin", "UFI": "{88ff4340-761d-48a8-aa42-1130e2f8d275}", "CREATED_ON": "2016-11-23 10:54:04", "LIST_GUID": "{97e349e0-f58e-437f-b192-b3fd75dd8dbd}", "NOM_REG_NO": null }, "geometry": { "type": "Point", "coordinates": [ 146.071481583178041, -41.112805156352323 ] } },
{ "type": "Feature", "properties": { "COMFAC_ID": 25226, "PID": 6759843, "COM_TYPE1": "Cultural", "COM_TYPE2": "Library", "NAME": "Penguin Library", "UFI": "{179afd64-6d91-4aa9-ba73-55d16164abe7}", "CREATED_ON": "2016-11-23 10:54:04", "LIST_GUID": "{4d152031-9446-4ccc-8fe2-c5d607869c47}", "NOM_REG_NO": null }, "geometry": { "type": "Point", "coordinates": [ 146.07294623536319, -41.113565859608194 ] } },
{ "type": "Feature", "properties": { "COMFAC_ID": 6819, "PID": 6759392, "COM_TYPE1": "Accommodation", "COM_TYPE2": "Hotel", "NAME": "Neptune Grand Hotel", "UFI": "{5ece8afc-36a0-4cb5-a935-0e2fbad78280}", "CREATED_ON": "2016-11-23 10:54:04", "LIST_GUID": "{15a0f1c6-e22d-4454-bd2a-f37daa6c9033}", "NOM_REG_NO": null }, "geometry": { "type": "Point", "coordinates": [ 146.073423290290208, -41.114478243187911 ] } },
{ "type": "Feature", "properties": { "COMFAC_ID": 58246, "PID": 2653806, "COM_TYPE1": "Community care", "COM_TYPE2": "Creche", "NAME": "Debbies Little Buddies", "UFI": "{d122e288-ac8e-4f81-bdff-45d79234e227}", "CREATED_ON": "2016-11-23 10:54:04", "LIST_GUID": "{9b0cee2b-3433-49e8-ae21-66449ca1d6e4}", "NOM_REG_NO": null }, "geometry": { "type": "Point", "coordinates": [ 146.075525239718644, -41.129336515952403 ] } },
{ "type": "Feature", "properties": { "COMFAC_ID": 60100, "PID": 2708897, "COM_TYPE1": "Community care", "COM_TYPE2": "Creche", "NAME": "North West Christian School - OSHC", "UFI": "{a557e97b-f483-4bd5-aca8-b4162bedb0fd}", "CREATED_ON": "2016-11-23 10:54:04", "LIST_GUID": "{e035464d-ec3b-4e69-8be9-e49bbe60ace1}", "NOM_REG_NO": null }, "geometry": { "type": "Point", "coordinates": [ 146.079911014707278, -41.12279401088383 ] } },
{ "type": "Feature", "properties": { "COMFAC_ID": 37167, "PID": 6978181, "COM_TYPE1": "State police and emergency", "COM_TYPE2": "Fire station", "NAME": "North Motton Fire Station", "UFI": "{c5b1867b-7999-4f17-8ca4-a801a0ab7f36}", "CREATED_ON": "2016-11-23 10:54:04", "LIST_GUID": "{40b9721c-59fd-47d9-a494-16187277f9d4}", "NOM_REG_NO": null }, "geometry": { "type": "Point", "coordinates": [ 146.109627707451182, -41.207025862682279 ] } },
{ "type": "Feature", "properties": { "COMFAC_ID": 7022, "PID": 6986536, "COM_TYPE1": "Ground", "COM_TYPE2": "Burial ground", "NAME": "North Motton Uniting Church Cemetery", "UFI": "{14337556-3127-4eb9-9035-333c7015ae26}", "CREATED_ON": "2016-11-23 10:54:04", "LIST_GUID": "{a7e36db2-f9c7-4e89-b66b-590b3b3a6f2b}", "NOM_REG_NO": null }, "geometry": { "type": "Point", "coordinates": [ 146.109611367156049, -41.209162811012725 ] } },
{ "type": "Feature", "properties": { "COMFAC_ID": 36787, "PID": 1975774, "COM_TYPE1": "Ground", "COM_TYPE2": "Park or reserve", "NAME": "Henslowes Park", "UFI": "{f267ff9d-0586-4791-917c-6ba69bf7086e}", "CREATED_ON": "2016-11-23 10:54:04", "LIST_GUID": "{3e1f79c8-4d37-4677-ad7b-b1b66e41486e}", "NOM_REG_NO": "23730E" }, "geometry": { "type": "Point", "coordinates": [ 146.146775886359535, -41.165904223109735 ] } },
{ "type": "Feature", "properties": { "COMFAC_ID": 6925, "PID": 2083567, "COM_TYPE1": "Ground", "COM_TYPE2": "Park or reserve", "NAME": "Bellchambers Park", "UFI": "{95e83335-3994-472e-b0c7-17e8fca0391f}", "CREATED_ON": "2016-11-23 10:54:04", "LIST_GUID": "{88d836f3-7c78-42c2-b88e-4f3f7e6b694b}", "NOM_REG_NO": null }, "geometry": { "type": "Point", "coordinates": [ 146.158166280408011, -41.154024984585064 ] } },
{ "type": "Feature", "properties": { "COMFAC_ID": 60118, "PID": 6968936, "COM_TYPE1": "Community care", "COM_TYPE2": "Creche", "NAME": "West Ulverstone Primary - OSHC", "UFI": "{85f0aadd-59dd-429a-bf3e-bd6cd8524fe5}", "CREATED_ON": "2016-11-23 10:54:04", "LIST_GUID": "{aab56cf3-92c3-4892-8157-32803899eecd}", "NOM_REG_NO": null }, "geometry": { "type": "Point", "coordinates": [ 146.158500435906831, -41.148130379193042 ] } },
{ "type": "Feature", "properties": { "COMFAC_ID": 6876, "PID": 7144285, "COM_TYPE1": "Accommodation", "COM_TYPE2": "Camp and Camping Ground", "NAME": "Picnic Point Camping Ground", "UFI": "{2a054555-39c5-40b6-87dc-5a983382d427}", "CREATED_ON": "2016-11-23 10:54:04", "LIST_GUID": "{3d05618a-a1f0-4657-9747-78a3ea4de10c}", "NOM_REG_NO": null }, "geometry": { "type": "Point", "coordinates": [ 146.160477356705996, -41.14166448169631 ] } },
{ "type": "Feature", "properties": { "COMFAC_ID": 61724, "PID": 0, "COM_TYPE1": "Ground", "COM_TYPE2": "Picnic Area", "NAME": "Spellmans Reserve", "UFI": "{00ecfe38-52b6-42be-a88f-ca11b56959eb}", "CREATED_ON": "2016-11-23 10:54:04", "LIST_GUID": "{4bbf4267-ae97-4c9d-8514-cfc7ed22d80b}", "NOM_REG_NO": "21249T" }, "geometry": { "type": "Point", "coordinates": [ 146.163578104524504, -41.351228423090568 ] } },
{ "type": "Feature", "properties": { "COMFAC_ID": 63561, "PID": 0, "COM_TYPE1": "Ground", "COM_TYPE2": "Picnic Area", "NAME": null, "UFI": "{bda7f3d6-70be-4629-b201-791dfd271e40}", "CREATED_ON": "2016-11-23 10:54:04", "LIST_GUID": "{2a5bf20a-7ddc-44e9-8fe2-6fd28209ea0c}", "NOM_REG_NO": null }, "geometry": { "type": "Point", "coordinates": [ 146.163772192938012, -41.351187885344856 ] } },
{ "type": "Feature", "properties": { "COMFAC_ID": 36865, "PID": 6990797, "COM_TYPE1": "Education and training", "COM_TYPE2": "Primary and infant", "NAME": "Sprent Primary School", "UFI": "{da285d11-772a-42f5-9909-a018e7f0c197}", "CREATED_ON": "2016-11-23 10:54:04", "LIST_GUID": "{b0b28c49-e5be-47ca-ae00-436135dd613e}", "NOM_REG_NO": null }, "geometry": { "type": "Point", "coordinates": [ 146.160253596659373, -41.262199958662954 ] } },
{ "type": "Feature", "properties": { "COMFAC_ID": 36906, "PID": 6990711, "COM_TYPE1": "Ground", "COM_TYPE2": "Burial ground", "NAME": "Sprent Presbyterian Cemetery", "UFI": "{d9ee9812-9dbb-405c-be1f-2eb8b76d3ae5}", "CREATED_ON": "2016-11-23 10:54:04", "LIST_GUID": "{de2dfec4-61d2-4f17-9237-80e2608912f5}", "NOM_REG_NO": null }, "geometry": { "type": "Point", "coordinates": [ 146.178851343124421, -41.246092789303553 ] } },
{ "type": "Feature", "properties": { "COMFAC_ID": 6877, "PID": 7162694, "COM_TYPE1": "Accommodation", "COM_TYPE2": "Caravan Park", "NAME": "Apex Beachside Holiday Park", "UFI": "{d42821f9-1948-41b8-8948-ffb7834ee309}", "CREATED_ON": "2016-11-23 10:54:04", "LIST_GUID": "{ea4dbbfd-d5f4-40ae-aa37-dd98ee02fa25}", "NOM_REG_NO": null }, "geometry": { "type": "Point", "coordinates": [ 146.161491130785066, -41.144429304941696 ] } },
{ "type": "Feature", "properties": { "COMFAC_ID": 6894, "PID": 7374283, "COM_TYPE1": "Club", "COM_TYPE2": "Rowing", "NAME": "Ulverstone Rowing Club", "UFI": "{d5d288ca-cd51-4ba4-9b14-bc7b19688413}", "CREATED_ON": "2016-11-23 10:54:04", "LIST_GUID": "{2fce6a22-b795-4ecd-9adf-d63c209ae5e0}", "NOM_REG_NO": null }, "geometry": { "type": "Point", "coordinates": [ 146.163385197504766, -41.158343258015243 ] } },
{ "type": "Feature", "properties": { "COMFAC_ID": 57488, "PID": 1760263, "COM_TYPE1": "Ground", "COM_TYPE2": "Picnic Area", "NAME": "Picnic Area", "UFI": "{7418d3d8-9fe7-4463-ad48-68634631fd05}", "CREATED_ON": "2016-11-23 10:54:04", "LIST_GUID": "{afcbc8b5-77ef-4b15-bfc8-e01c5e7ce8ca}", "NOM_REG_NO": null }, "geometry": { "type": "Point", "coordinates": [ 146.165682168247713, -41.158413290632126 ] } },
{ "type": "Feature", "properties": { "COMFAC_ID": 6928, "PID": 1775182, "COM_TYPE1": "Ground", "COM_TYPE2": "Park or reserve", "NAME": "Legion Park", "UFI": "{b0f25843-c78b-4285-8b0c-79f77449b070}", "CREATED_ON": "2016-11-23 10:54:04", "LIST_GUID": "{5e3a1d68-278f-4c0c-bc71-11872df91c50}", "NOM_REG_NO": "23737W" }, "geometry": { "type": "Point", "coordinates": [ 146.16628835481356, -41.150498305387345 ] } },
{ "type": "Feature", "properties": { "COMFAC_ID": 6899, "PID": 1410204, "COM_TYPE1": "Commonwealth government", "COM_TYPE2": "Defence", "NAME": "TS Leven Naval Reserve Cadets", "UFI": "{6085225c-5c72-4b0a-b25d-97c3d10b345e}", "CREATED_ON": "2016-11-23 10:54:04", "LIST_GUID": "{517f0aad-c371-49ec-b021-1785b63fe1fe}", "NOM_REG_NO": null }, "geometry": { "type": "Point", "coordinates": [ 146.169252186507549, -41.155807798598126 ] } },
{ "type": "Feature", "properties": { "COMFAC_ID": 57132, "PID": 6965153, "COM_TYPE1": "Transport", "COM_TYPE2": "Car park", "NAME": "Kings Parade Car Park Ulverstone", "UFI": "{47afdc28-f14d-4d77-a9ab-58dea439db43}", "CREATED_ON": "2016-11-23 10:54:04", "LIST_GUID": "{79046443-c3a5-478b-940e-227fef39f4fd}", "NOM_REG_NO": null }, "geometry": { "type": "Point", "coordinates": [ 146.169340262390989, -41.15820188639556 ] } },
{ "type": "Feature", "properties": { "COMFAC_ID": 37535, "PID": 2046459, "COM_TYPE1": "Community care", "COM_TYPE2": "Creche", "NAME": "Ulverstone Child Care Centre", "UFI": "{597ed775-3c6d-408f-88fa-4a5422e00fe6}", "CREATED_ON": "2016-11-23 10:54:04", "LIST_GUID": "{33c69b74-58eb-42ff-9435-afb28ca18b37}", "NOM_REG_NO": null }, "geometry": { "type": "Point", "coordinates": [ 146.169637060489777, -41.16028150940835 ] } },
{ "type": "Feature", "properties": { "COMFAC_ID": 25585, "PID": 1409430, "COM_TYPE1": "Financial institution", "COM_TYPE2": "Bass & Equitable", "NAME": "Bass & Equitable Building Society Ulverstone", "UFI": "{e34f0390-0c63-4c72-9c68-cd0ae41ae9a0}", "CREATED_ON": "2016-11-23 10:54:04", "LIST_GUID": "{c6e9551f-27ef-46bc-b164-16d6ac757cc5}", "NOM_REG_NO": null }, "geometry": { "type": "Point", "coordinates": [ 146.170489590076897, -41.157376527588994 ] } },
{ "type": "Feature", "properties": { "COMFAC_ID": 59954, "PID": 6971801, "COM_TYPE1": "Financial institution", "COM_TYPE2": null, "NAME": "Bendigo Tasmanian Banking Service Ulverstone", "UFI": "{3325dec1-e89c-47a2-b4dd-18816eebec00}", "CREATED_ON": "2016-11-23 10:54:04", "LIST_GUID": "{66ee0a90-85fc-4270-94f9-172010c4e8f3}", "NOM_REG_NO": null }, "geometry": { "type": "Point", "coordinates": [ 146.170906096875598, -41.157384183473404 ] } },
{ "type": "Feature", "properties": { "COMFAC_ID": 57133, "PID": 7700157, "COM_TYPE1": "Transport", "COM_TYPE2": "Car park", "NAME": "Ulverstone Car Park", "UFI": "{da04e998-9a66-4d3a-b57f-c4369ba0bb6b}", "CREATED_ON": "2016-11-23 10:54:04", "LIST_GUID": "{ab380120-6f50-46cc-9254-cf588808c60c}", "NOM_REG_NO": null }, "geometry": { "type": "Point", "coordinates": [ 146.170918415997988, -41.157793148095543 ] } },
{ "type": "Feature", "properties": { "COMFAC_ID": 6937, "PID": 1868135, "COM_TYPE1": "Commonwealth government", "COM_TYPE2": "Post offices and agencies", "NAME": "Ulverstone Post Office", "UFI": "{ca577888-50e6-4b1d-872d-0da1d53d9912}", "CREATED_ON": "2016-11-23 10:54:04", "LIST_GUID": "{454371da-27b6-45d2-b139-fc20626ea124}", "NOM_REG_NO": null }, "geometry": { "type": "Point", "coordinates": [ 146.171212495544921, -41.15698247591272 ] } },
{ "type": "Feature", "properties": { "COMFAC_ID": 6911, "PID": 6969461, "COM_TYPE1": "Club", "COM_TYPE2": "Masonic", "NAME": "Ulverstone Masonic Hall", "UFI": "{18e4abf0-6840-4d60-80f1-b85704208e14}", "CREATED_ON": "2016-11-23 10:54:04", "LIST_GUID": "{cc46a5ae-2965-4dcc-a680-dc1ed2e3b885}", "NOM_REG_NO": null }, "geometry": { "type": "Point", "coordinates": [ 146.171694953194049, -41.155535337652971 ] } },
{ "type": "Feature", "properties": { "COMFAC_ID": 6895, "PID": 6965081, "COM_TYPE1": "Club", "COM_TYPE2": "RSL and ex service", "NAME": "Ulverstone RSL Club", "UFI": "{6ec70137-8007-4954-b0d1-4d3fc60d98f3}", "CREATED_ON": "2016-11-23 10:54:04", "LIST_GUID": "{01b58270-4a22-4379-b188-0ad846a869ae}", "NOM_REG_NO": null }, "geometry": { "type": "Point", "coordinates": [ 146.17251660460326, -41.156313920195537 ] } },
{ "type": "Feature", "properties": { "COMFAC_ID": 37705, "PID": 7276480, "COM_TYPE1": "Cultural", "COM_TYPE2": "Theatre\/ cinema", "NAME": "Leven Theatre", "UFI": "{58a5040e-3a58-4502-92b4-e80c7b8d68a2}", "CREATED_ON": "2016-11-23 10:54:04", "LIST_GUID": "{7cc579f9-14ab-4b95-839f-c9a14e2ba9f2}", "NOM_REG_NO": null }, "geometry": { "type": "Point", "coordinates": [ 146.173163328282243, -41.155721622171519 ] } },
{ "type": "Feature", "properties": { "COMFAC_ID": 6965, "PID": 1410044, "COM_TYPE1": "Church", "COM_TYPE2": "Salvation Army", "NAME": "Ulverstone", "UFI": "{4dc908ce-d99c-44dc-9d0b-5ac225e7b96b}", "CREATED_ON": "2016-11-23 10:54:04", "LIST_GUID": "{050fc08d-4eb6-4a8d-8029-06451b253bbc}", "NOM_REG_NO": null }, "geometry": { "type": "Point", "coordinates": [ 146.173777731815761, -41.156467432510397 ] } },
{ "type": "Feature", "properties": { "COMFAC_ID": 25828, "PID": 2019311, "COM_TYPE1": "Medical service", "COM_TYPE2": "Community health centre", "NAME": "Central Coast Community Health Centre", "UFI": "{6e83dd51-69aa-447f-96d4-72d1ec7f7736}", "CREATED_ON": "2016-11-23 10:54:04", "LIST_GUID": "{2bf1c89f-0e12-40c2-afba-97430ece4124}", "NOM_REG_NO": null }, "geometry": { "type": "Point", "coordinates": [ 146.178588536904556, -41.154480330651786 ] } },
{ "type": "Feature", "properties": { "COMFAC_ID": 6971, "PID": 6939799, "COM_TYPE1": "Club", "COM_TYPE2": "Surf life saving", "NAME": "Ulverstone SLSC", "UFI": "{e182506d-c9cd-4019-a244-d93fb61c5cc0}", "CREATED_ON": "2016-11-23 10:54:04", "LIST_GUID": "{5da7545f-b1b7-472b-b2a8-6a30fb852ec1}", "NOM_REG_NO": null }, "geometry": { "type": "Point", "coordinates": [ 146.181475077859915, -41.152602289859999 ] } },
{ "type": "Feature", "properties": { "COMFAC_ID": 42806, "PID": 6948951, "COM_TYPE1": "Club", "COM_TYPE2": "Football", "NAME": "East Ulverstone Football Club", "UFI": "{ded9866d-e5ba-4049-9e59-f138298bd857}", "CREATED_ON": "2016-11-23 10:54:04", "LIST_GUID": "{e1f804bc-f383-461f-96ef-437d46dae9f8}", "NOM_REG_NO": null }, "geometry": { "type": "Point", "coordinates": [ 146.186896845327908, -41.160242513354078 ] } },
{ "type": "Feature", "properties": { "COMFAC_ID": 6982, "PID": 6948951, "COM_TYPE1": "Ground", "COM_TYPE2": "Park or reserve", "NAME": "Haywoods Reserve", "UFI": "{6ab708f4-28e0-4350-9fc4-9e9374819166}", "CREATED_ON": "2016-11-23 10:54:04", "LIST_GUID": "{dfb9fcdd-faee-4423-a391-207b6a9c584c}", "NOM_REG_NO": "20234J" }, "geometry": { "type": "Point", "coordinates": [ 146.187702376674764, -41.159680701558678 ] } },
{ "type": "Feature", "properties": { "COMFAC_ID": 6984, "PID": 1902129, "COM_TYPE1": "Education and training", "COM_TYPE2": "Primary and infant", "NAME": "East Ulverstone Primary School", "UFI": "{c1f2badb-fb8e-4989-bfa7-fd8b5e805215}", "CREATED_ON": "2016-11-23 10:54:04", "LIST_GUID": "{70022eeb-fd64-4d8d-a6f0-d776ab746c32}", "NOM_REG_NO": null }, "geometry": { "type": "Point", "coordinates": [ 146.190977743336333, -41.155037704216227 ] } },