{
"type": "FeatureCollection",
"crs": { "type": "name", "properties": { "name": "urn:ogc:def:crs:OGC:1.3:CRS84" } },
"features": [
{ "type": "Feature", "properties": { "COMFAC_ID": 6044, "PID": 1641627, "COM_TYPE1": "Accommodation", "COM_TYPE2": "Guest House\/ Bed and Breakfast", "NAME": "Devils Gap Retreat", "UFI": "{cfd543f4-0dbb-4716-ae23-e46a7e6010cb}", "CREATED_ON": "2016-11-23 10:54:04", "LIST_GUID": "{18bbf428-61cb-40a3-b4ec-6b6afcd3f814}", "NOM_REG_NO": null }, "geometry": { "type": "Point", "coordinates": [ 143.835471344252568, -39.919416876337856 ] } },
{ "type": "Feature", "properties": { "COMFAC_ID": 6046, "PID": 6501885, "COM_TYPE1": "Cultural", "COM_TYPE2": "Museum", "NAME": "Currie Museum", "UFI": "{dcba30a3-4eaf-49aa-a401-d5d4c322517d}", "CREATED_ON": "2016-11-23 10:54:04", "LIST_GUID": "{886a3460-a07c-4611-ab74-17c9880de92e}", "NOM_REG_NO": null }, "geometry": { "type": "Point", "coordinates": [ 143.843737412128945, -39.930077949576521 ] } },
{ "type": "Feature", "properties": { "COMFAC_ID": 6054, "PID": 6505085, "COM_TYPE1": "Sports complex", "COM_TYPE2": "Golf", "NAME": "Currie Golf Course", "UFI": "{15e3ce98-4ae8-41ed-ae2c-a5175e84b9f8}", "CREATED_ON": "2016-11-23 10:54:04", "LIST_GUID": "{85fc4598-b9da-4172-be63-8e63400ebbcd}", "NOM_REG_NO": null }, "geometry": { "type": "Point", "coordinates": [ 143.844776339939699, -39.936494404620127 ] } },
{ "type": "Feature", "properties": { "COMFAC_ID": 43928, "PID": 6499930, "COM_TYPE1": "Council", "COM_TYPE2": "King Island", "NAME": "Currie Waste Transfer Station", "UFI": "{0917a3e6-c637-4de8-abaa-adcc3d0a7a74}", "CREATED_ON": "2016-11-23 10:54:04", "LIST_GUID": "{067d3de4-2ca2-467c-92aa-c06370b0cdf0}", "NOM_REG_NO": null }, "geometry": { "type": "Point", "coordinates": [ 143.847324393940056, -39.920724377819759 ] } },
{ "type": "Feature", "properties": { "COMFAC_ID": 6065, "PID": 1328286, "COM_TYPE1": "Accommodation", "COM_TYPE2": "Guest House\/ Bed and Breakfast", "NAME": "King Island Colonial Lodge", "UFI": "{caf4eb9b-1727-416e-aa8a-b50cf115b1dc}", "CREATED_ON": "2016-11-23 10:54:04", "LIST_GUID": "{83cc2357-376d-4ed2-b8d1-18cc93888688}", "NOM_REG_NO": null }, "geometry": { "type": "Point", "coordinates": [ 143.850660445547391, -39.929924010495768 ] } },
{ "type": "Feature", "properties": { "COMFAC_ID": 6076, "PID": 7209894, "COM_TYPE1": "Financial institution", "COM_TYPE2": "Westpac", "NAME": "Westpac Bank Currie", "UFI": "{da393116-5595-42ce-be0f-54441e014972}", "CREATED_ON": "2016-11-23 10:54:04", "LIST_GUID": "{e9b8d404-d015-4894-b3ff-ade78a4c8d60}", "NOM_REG_NO": null }, "geometry": { "type": "Point", "coordinates": [ 143.851092957837636, -39.930993906410102 ] } },
{ "type": "Feature", "properties": { "COMFAC_ID": 6059, "PID": 6502976, "COM_TYPE1": "Cultural", "COM_TYPE2": "Library", "NAME": "Currie Library", "UFI": "{79c2c379-2f46-459c-babd-bf6259a356b3}", "CREATED_ON": "2016-11-23 10:54:04", "LIST_GUID": "{320a7467-a8b3-4bd8-96a8-9ad72ba26d1a}", "NOM_REG_NO": null }, "geometry": { "type": "Point", "coordinates": [ 143.852009569531077, -39.929526107890915 ] } },
{ "type": "Feature", "properties": { "COMFAC_ID": 32311, "PID": 6502896, "COM_TYPE1": "Transport", "COM_TYPE2": "Service Station", "NAME": "Service Station Currie", "UFI": "{da3f0960-0cca-4fcc-ba1e-1e4f692b9c18}", "CREATED_ON": "2016-11-23 10:54:04", "LIST_GUID": "{b9462f3e-71df-4c9f-b495-454171f79d12}", "NOM_REG_NO": null }, "geometry": { "type": "Point", "coordinates": [ 143.853637703841969, -39.92982604900515 ] } },
{ "type": "Feature", "properties": { "COMFAC_ID": 6091, "PID": 6500161, "COM_TYPE1": "Church", "COM_TYPE2": "Uniting Church", "NAME": "Currie Uniting Church", "UFI": "{a388a0ad-9519-4527-a65a-4585dc337b23}", "CREATED_ON": "2016-11-23 10:54:04", "LIST_GUID": "{809f082c-e69a-4f7c-8207-0ccfc4838f99}", "NOM_REG_NO": null }, "geometry": { "type": "Point", "coordinates": [ 143.854235812705127, -39.931317163573233 ] } },
{ "type": "Feature", "properties": { "COMFAC_ID": 6124, "PID": 7565653, "COM_TYPE1": "Ground", "COM_TYPE2": "Sportsground", "NAME": "Currie Racecourse & Recreation Grounds", "UFI": "{5db12308-c0c0-4952-aaae-0b3ea6d5ac27}", "CREATED_ON": "2016-11-23 10:54:04", "LIST_GUID": "{d727151f-ee38-4795-8ab1-ecb4afdb3e29}", "NOM_REG_NO": null }, "geometry": { "type": "Point", "coordinates": [ 143.855580982453318, -39.907791585124706 ] } },
{ "type": "Feature", "properties": { "COMFAC_ID": 6080, "PID": 1859861, "COM_TYPE1": "Accommodation", "COM_TYPE2": "Motel", "NAME": "Island Breeze Motel", "UFI": "{aaeaba02-96ac-4364-b285-a529e594f8c3}", "CREATED_ON": "2016-11-23 10:54:04", "LIST_GUID": "{f6b0793b-fec0-451d-87cb-58106db92ea9}", "NOM_REG_NO": null }, "geometry": { "type": "Point", "coordinates": [ 143.857246315373715, -39.91829863265928 ] } },
{ "type": "Feature", "properties": { "COMFAC_ID": 6090, "PID": 6500129, "COM_TYPE1": "Medical service", "COM_TYPE2": "Hospital", "NAME": "King Island District Hospital & Health Centre", "UFI": "{42e95d4d-8ecd-409a-8b15-c3c980b557e9}", "CREATED_ON": "2016-11-23 10:54:04", "LIST_GUID": "{80292efb-bc57-4fde-9633-a0ad4799abd0}", "NOM_REG_NO": null }, "geometry": { "type": "Point", "coordinates": [ 143.859123451287701, -39.929895571637729 ] } },
{ "type": "Feature", "properties": { "COMFAC_ID": 17344, "PID": 6513499, "COM_TYPE1": "Accommodation", "COM_TYPE2": "Holiday Cabin", "NAME": "Blue Gate Farmhouse", "UFI": "{300fb96c-00c3-4646-b19b-1029e6c7462d}", "CREATED_ON": "2016-11-23 10:54:04", "LIST_GUID": "{79d1109a-d0b5-4ad3-b091-ca1951fb4cc3}", "NOM_REG_NO": null }, "geometry": { "type": "Point", "coordinates": [ 143.911076153301678, -40.038312075266155 ] } },
{ "type": "Feature", "properties": { "COMFAC_ID": 63650, "PID": 3403796, "COM_TYPE1": "Sports complex", "COM_TYPE2": "Golf", "NAME": "Cape Wickham Links", "UFI": "{da286ad6-d05e-4298-84d3-44049af0e02c}", "CREATED_ON": "2016-11-23 10:54:04", "LIST_GUID": "{d8b3e95d-3cbc-4e8c-b12d-1b8656b87848}", "NOM_REG_NO": null }, "geometry": { "type": "Point", "coordinates": [ 143.936681688476938, -39.595568989912906 ] } },
{ "type": "Feature", "properties": { "COMFAC_ID": 6098, "PID": 7777672, "COM_TYPE1": "Transport", "COM_TYPE2": "Port Operator", "NAME": "King Island Ports Corporation Grassy", "UFI": "{ad228b26-d9c2-405d-9f79-d2b81c40ee55}", "CREATED_ON": "2016-11-23 10:54:04", "LIST_GUID": "{f87c5bd4-40be-47fc-8cb2-3618c367637e}", "NOM_REG_NO": null }, "geometry": { "type": "Point", "coordinates": [ 144.059351594863273, -40.063837477544887 ] } },
{ "type": "Feature", "properties": { "COMFAC_ID": 6097, "PID": 1988495, "COM_TYPE1": "Transport", "COM_TYPE2": "Sea", "NAME": "Grassy Ferry Terminal", "UFI": "{84bb15a9-5227-472a-a28f-e4f0a53c2e36}", "CREATED_ON": "2016-11-23 10:54:04", "LIST_GUID": "{d6c81f04-3bda-4513-ad0d-423e2ea619ea}", "NOM_REG_NO": null }, "geometry": { "type": "Point", "coordinates": [ 144.060398234185527, -40.065867822376624 ] } },
{ "type": "Feature", "properties": { "COMFAC_ID": 60469, "PID": 6508921, "COM_TYPE1": "Accommodation", "COM_TYPE2": "Holiday Unit\/ Flat", "NAME": "Bold Views Grassy", "UFI": "{2c9a45e1-a803-4197-8918-661fa29c4a21}", "CREATED_ON": "2016-11-23 10:54:04", "LIST_GUID": "{fbe743cc-75ae-4f15-b135-2bf8f779a570}", "NOM_REG_NO": null }, "geometry": { "type": "Point", "coordinates": [ 144.06281660308332, -40.047544062390848 ] } },
{ "type": "Feature", "properties": { "COMFAC_ID": 6126, "PID": 6510933, "COM_TYPE1": "Sports complex", "COM_TYPE2": "Other", "NAME": "Yarra Creek Tennis Court", "UFI": "{2dfb3d31-7091-458b-ab08-f5cd35218e53}", "CREATED_ON": "2016-11-23 10:54:04", "LIST_GUID": "{3feec107-210b-411c-b606-cb9f308e1a5d}", "NOM_REG_NO": null }, "geometry": { "type": "Point", "coordinates": [ 144.084383532452478, -40.007123919904565 ] } },
{ "type": "Feature", "properties": { "COMFAC_ID": 6121, "PID": 6510351, "COM_TYPE1": "Accommodation", "COM_TYPE2": "Holiday Unit\/ Flat", "NAME": "Naracoopa Holiday Cottages", "UFI": "{39e5148e-e405-4bea-815e-868ff11deb1f}", "CREATED_ON": "2016-11-23 10:54:04", "LIST_GUID": "{4003cc9e-df88-4bad-bf42-26e3a12fc456}", "NOM_REG_NO": null }, "geometry": { "type": "Point", "coordinates": [ 144.113974233106916, -39.916420856174163 ] } },
{ "type": "Feature", "properties": { "COMFAC_ID": 6119, "PID": 2577436, "COM_TYPE1": "State police and emergency", "COM_TYPE2": "Fire station", "NAME": "Naracoopa Fire Station", "UFI": "{fa0e1a8b-a2ae-4423-ba32-bba2e0323cf4}", "CREATED_ON": "2016-11-23 10:54:04", "LIST_GUID": "{6009dacf-3ed5-41cf-b1cb-e54a2808fa1e}", "NOM_REG_NO": null }, "geometry": { "type": "Point", "coordinates": [ 144.123428711401118, -39.920556398124781 ] } },
{ "type": "Feature", "properties": { "COMFAC_ID": 62686, "PID": 0, "COM_TYPE1": "Tourist feature", "COM_TYPE2": "Natural", "NAME": "Calcified Forest", "UFI": "{ebdc7262-95a3-4b2a-a3ba-b46159cd6415}", "CREATED_ON": "2016-11-23 10:54:04", "LIST_GUID": "{08eba857-b49e-4c64-8971-87c46af8bb11}", "NOM_REG_NO": null }, "geometry": { "type": "Point", "coordinates": [ 143.880837368660423, -40.107069952965951 ] } },
{ "type": "Feature", "properties": { "COMFAC_ID": 50549, "PID": 7184631, "COM_TYPE1": "State Government", "COM_TYPE2": "Hydro Tasmania", "NAME": "King Island Power Station", "UFI": "{5c848e4f-c573-4e3d-81a4-934610b1afb4}", "CREATED_ON": "2016-11-23 10:54:04", "LIST_GUID": "{f2741afc-6451-4be9-aeb9-4178e922fcfd}", "NOM_REG_NO": null }, "geometry": { "type": "Point", "coordinates": [ 143.892204829985758, -39.938654080190673 ] } },
{ "type": "Feature", "properties": { "COMFAC_ID": 62011, "PID": 6505077, "COM_TYPE1": "State police and emergency", "COM_TYPE2": "Community Fire Refuge", "NAME": "King Island Golf & Bowling Club", "UFI": "{6e6fba97-53f5-4119-bf63-069d0f3dc3a6}", "CREATED_ON": "2016-11-23 10:54:04", "LIST_GUID": "{34760c10-6e8f-450b-a89c-04ddf33cc507}", "NOM_REG_NO": null }, "geometry": { "type": "Point", "coordinates": [ 143.847023204608945, -39.934514421484664 ] } },
{ "type": "Feature", "properties": { "COMFAC_ID": 6072, "PID": 6503303, "COM_TYPE1": "Club", "COM_TYPE2": "Other social", "NAME": "King Island Club", "UFI": "{c140eb66-0ab9-4354-9b7f-e19067acf13d}", "CREATED_ON": "2016-11-23 10:54:04", "LIST_GUID": "{67eb74a5-7f65-49af-b106-56834ead2262}", "NOM_REG_NO": null }, "geometry": { "type": "Point", "coordinates": [ 143.850813696285655, -39.932218710340997 ] } },
{ "type": "Feature", "properties": { "COMFAC_ID": 35874, "PID": 7191989, "COM_TYPE1": "Hall\/ Community centre", "COM_TYPE2": "Online Access Centre", "NAME": "King Island Online Access Centre", "UFI": "{91e05c47-72ec-4186-a21e-467cfd9a445f}", "CREATED_ON": "2016-11-23 10:54:04", "LIST_GUID": "{7c51e133-8803-4d9b-ae2d-0dd5926ca271}", "NOM_REG_NO": null }, "geometry": { "type": "Point", "coordinates": [ 143.853452307815019, -39.930497890364258 ] } },
{ "type": "Feature", "properties": { "COMFAC_ID": 46431, "PID": 6503637, "COM_TYPE1": "Community care", "COM_TYPE2": "Creche", "NAME": "King Island Childcare & Early Learning Centre", "UFI": "{74505549-5cea-4b6a-84c8-082095bb4686}", "CREATED_ON": "2016-11-23 10:54:04", "LIST_GUID": "{2dfc91a9-4892-4b35-ace9-916a3af89d19}", "NOM_REG_NO": null }, "geometry": { "type": "Point", "coordinates": [ 143.854238215730561, -39.926554270017128 ] } },
{ "type": "Feature", "properties": { "COMFAC_ID": 63546, "PID": 3104542, "COM_TYPE1": "Ground", "COM_TYPE2": "Park or reserve", "NAME": "Snodgrass Park", "UFI": "{62f8edea-cfc2-4b04-b25b-c2f25675e141}", "CREATED_ON": "2016-11-23 10:54:04", "LIST_GUID": "{912d7252-88b7-4b53-9b25-04e49e617d67}", "NOM_REG_NO": "41779X" }, "geometry": { "type": "Point", "coordinates": [ 143.855588472238736, -39.931103824965682 ] } },
{ "type": "Feature", "properties": { "COMFAC_ID": 6092, "PID": 1849268, "COM_TYPE1": "Club", "COM_TYPE2": "Other social", "NAME": "Grassy Club", "UFI": "{785d2109-309f-4036-9dd1-c959ab214912}", "CREATED_ON": "2016-11-23 10:54:04", "LIST_GUID": "{25fb9f2e-50d2-4db2-9f17-44c5494adcc0}", "NOM_REG_NO": null }, "geometry": { "type": "Point", "coordinates": [ 144.057838184727956, -40.048418296156825 ] } },
{ "type": "Feature", "properties": { "COMFAC_ID": 6120, "PID": 1858877, "COM_TYPE1": "Transport", "COM_TYPE2": "Sea", "NAME": "Naracoopa Wharf", "UFI": "{c85af9bc-577a-44d9-988f-c0d3d3b2ad21}", "CREATED_ON": "2016-11-23 10:54:04", "LIST_GUID": "{ccf3be1d-22e1-4861-9b39-ea98c90c96d9}", "NOM_REG_NO": null }, "geometry": { "type": "Point", "coordinates": [ 144.12610805068914, -39.920014000816685 ] } },
{ "type": "Feature", "properties": { "COMFAC_ID": 17384, "PID": 7632385, "COM_TYPE1": "Accommodation", "COM_TYPE2": "Holiday Unit\/ Flat", "NAME": "King Island Wave Watcher Holiday Units", "UFI": "{bb0617b4-e217-4563-8e78-2919d432b97b}", "CREATED_ON": "2016-11-23 10:54:04", "LIST_GUID": "{ea2902d8-3d2c-4231-85a8-20729f1cb850}", "NOM_REG_NO": null }, "geometry": { "type": "Point", "coordinates": [ 143.844160192829747, -39.932462562178642 ] } },
{ "type": "Feature", "properties": { "COMFAC_ID": 6050, "PID": 6505069, "COM_TYPE1": "Accommodation", "COM_TYPE2": "Motel", "NAME": "Boomerang By The Sea", "UFI": "{3ee66a54-9639-45da-bfc8-5524042af32d}", "CREATED_ON": "2016-11-23 10:54:04", "LIST_GUID": "{8c3613f5-7c6a-4c5b-9353-53b5ce1a7b22}", "NOM_REG_NO": null }, "geometry": { "type": "Point", "coordinates": [ 143.845392306504721, -39.933921793155214 ] } },
{ "type": "Feature", "properties": { "COMFAC_ID": 6052, "PID": 1988380, "COM_TYPE1": "Club", "COM_TYPE2": "Golf", "NAME": "King Island Golf & Bowling Club", "UFI": "{e7a8da50-694f-44d5-b842-01ff20ce4948}", "CREATED_ON": "2016-11-23 10:54:04", "LIST_GUID": "{7206ed80-62e7-474e-94f4-22fe062fb07a}", "NOM_REG_NO": null }, "geometry": { "type": "Point", "coordinates": [ 143.847042037094411, -39.934423607250899 ] } },
{ "type": "Feature", "properties": { "COMFAC_ID": 6069, "PID": 6500276, "COM_TYPE1": "State police and emergency", "COM_TYPE2": "Fire station", "NAME": "Currie Fire Station", "UFI": "{398d6020-8e38-4152-bec4-b37f781cc1ed}", "CREATED_ON": "2016-11-23 10:54:04", "LIST_GUID": "{b00d7f3a-6d42-4ee5-9b62-94b61ac06b8f}", "NOM_REG_NO": null }, "geometry": { "type": "Point", "coordinates": [ 143.849457488403829, -39.930834850131532 ] } },
{ "type": "Feature", "properties": { "COMFAC_ID": 6070, "PID": 7777824, "COM_TYPE1": "Commonwealth government", "COM_TYPE2": "Post offices and agencies", "NAME": "Currie Post Office", "UFI": "{23eec5d9-bd34-47c5-bb16-9ba2cda8ab28}", "CREATED_ON": "2016-11-23 10:54:04", "LIST_GUID": "{2299e18c-0933-430a-ba46-5b165fb07749}", "NOM_REG_NO": null }, "geometry": { "type": "Point", "coordinates": [ 143.850479970764894, -39.930816934323438 ] } },
{ "type": "Feature", "properties": { "COMFAC_ID": 6068, "PID": 6500241, "COM_TYPE1": "Club", "COM_TYPE2": "CWA", "NAME": "Currie CWA Hall", "UFI": "{4f2996cf-f3f9-4001-929a-44dbb9c253ea}", "CREATED_ON": "2016-11-23 10:54:04", "LIST_GUID": "{f7f1fe4c-da74-440a-99e4-4c2e90eed783}", "NOM_REG_NO": null }, "geometry": { "type": "Point", "coordinates": [ 143.851689121050754, -39.930958399618234 ] } },
{ "type": "Feature", "properties": { "COMFAC_ID": 6062, "PID": 6502212, "COM_TYPE1": "Club", "COM_TYPE2": "RAOB", "NAME": "Currie RAOB", "UFI": "{2827df32-3bdf-495e-bedd-26f3e5664d5b}", "CREATED_ON": "2016-11-23 10:54:04", "LIST_GUID": "{289a705d-6056-411c-9974-6daead38ab52}", "NOM_REG_NO": null }, "geometry": { "type": "Point", "coordinates": [ 143.852486059618059, -39.926278324010482 ] } },
{ "type": "Feature", "properties": { "COMFAC_ID": 6086, "PID": 7608297, "COM_TYPE1": "Hall\/ Community centre", "COM_TYPE2": "Community, town or city hall", "NAME": "Currie Town Hall", "UFI": "{fee3c7bc-ce62-467e-b633-df85627e259b}", "CREATED_ON": "2016-11-23 10:54:04", "LIST_GUID": "{8298fe98-7da6-4d05-b0b0-85a9a2360da3}", "NOM_REG_NO": null }, "geometry": { "type": "Point", "coordinates": [ 143.854529040759871, -39.929693643480086 ] } },
{ "type": "Feature", "properties": { "COMFAC_ID": 57382, "PID": 7209878, "COM_TYPE1": "Ground", "COM_TYPE2": "Picnic Area", "NAME": "Picnic Area", "UFI": "{0b982ed0-6b87-479f-a044-b514b4f1e4cf}", "CREATED_ON": "2016-11-23 10:54:04", "LIST_GUID": "{405ee86f-f507-4d45-bfea-ac32fe4d43b4}", "NOM_REG_NO": null }, "geometry": { "type": "Point", "coordinates": [ 143.85501467333404, -39.9239641951525 ] } },
{ "type": "Feature", "properties": { "COMFAC_ID": 6081, "PID": 7209878, "COM_TYPE1": "Ground", "COM_TYPE2": "Park or reserve", "NAME": "Camp Creek Reserve", "UFI": "{78e8ad29-f948-40c1-aa40-bc7feaa9fbdd}", "CREATED_ON": "2016-11-23 10:54:04", "LIST_GUID": "{4b2bad70-2dd9-42a0-be3b-e65d7b9668f5}", "NOM_REG_NO": null }, "geometry": { "type": "Point", "coordinates": [ 143.855143174818465, -39.924185683575381 ] } },
{ "type": "Feature", "properties": { "COMFAC_ID": 6114, "PID": 7627420, "COM_TYPE1": "Tourist feature", "COM_TYPE2": "Industrial", "NAME": "King Island Dairies", "UFI": "{eb282aa3-52e6-4cfc-8c74-7f1c441befbf}", "CREATED_ON": "2016-11-23 10:54:04", "LIST_GUID": "{610a12f2-233b-4c81-b25e-5641bc04fbd5}", "NOM_REG_NO": null }, "geometry": { "type": "Point", "coordinates": [ 143.871849211303413, -39.858446808450388 ] } },
{ "type": "Feature", "properties": { "COMFAC_ID": 6116, "PID": 6503848, "COM_TYPE1": "Transport", "COM_TYPE2": "Air", "NAME": "King Island Airport Navigation Facility", "UFI": "{96c58aee-047b-4ea8-a51e-6bba13a71956}", "CREATED_ON": "2016-11-23 10:54:04", "LIST_GUID": "{052d5342-dc3e-4609-b0f0-1f9f70added7}", "NOM_REG_NO": null }, "geometry": { "type": "Point", "coordinates": [ 143.87501523098797, -39.888818778477088 ] } },
{ "type": "Feature", "properties": { "COMFAC_ID": 6115, "PID": 6503928, "COM_TYPE1": "Transport", "COM_TYPE2": "Air", "NAME": "King Island Airport", "UFI": "{af3984c7-0825-4d1d-8d29-a73c1458a4ad}", "CREATED_ON": "2016-11-23 10:54:04", "LIST_GUID": "{003ea01d-4266-40db-8217-eccb285d7f45}", "NOM_REG_NO": "16499T" }, "geometry": { "type": "Point", "coordinates": [ 143.881434008708339, -39.879741945036102 ] } },
{ "type": "Feature", "properties": { "COMFAC_ID": 6094, "PID": 6508286, "COM_TYPE1": "Sports complex", "COM_TYPE2": "Swimming pools", "NAME": "Grassy Indoor Swimming Pool", "UFI": "{f36224ac-2ab3-4044-8067-ef19ba7e4e31}", "CREATED_ON": "2016-11-23 10:54:04", "LIST_GUID": "{faa70acc-623f-4ede-a479-87f1d7f837e8}", "NOM_REG_NO": null }, "geometry": { "type": "Point", "coordinates": [ 144.056308093818188, -40.048147883799395 ] } },
{ "type": "Feature", "properties": { "COMFAC_ID": 63251, "PID": 6513069, "COM_TYPE1": "Tourist feature", "COM_TYPE2": "Natural", "NAME": "Pegarah Private Nature Reserve & Parenna Place", "UFI": "{42a04eb0-b970-4b04-98b0-b1ba02a2b4fb}", "CREATED_ON": "2016-11-23 10:54:04", "LIST_GUID": "{f966c512-a440-4583-8c18-b8824d4cd24c}", "NOM_REG_NO": null }, "geometry": { "type": "Point", "coordinates": [ 144.10564988653536, -39.935230074615809 ] } },
{ "type": "Feature", "properties": { "COMFAC_ID": 35053, "PID": 2801055, "COM_TYPE1": "Ground", "COM_TYPE2": "Park or reserve", "NAME": "Old Stockyard Park", "UFI": "{8886ecda-f124-4887-8073-f7bbc46da5d0}", "CREATED_ON": "2016-11-23 10:54:04", "LIST_GUID": "{e850d931-2238-46c4-bc6c-87e1e57dd69b}", "NOM_REG_NO": null }, "geometry": { "type": "Point", "coordinates": [ 143.845291150119863, -39.927224720677842 ] } },
{ "type": "Feature", "properties": { "COMFAC_ID": 6047, "PID": 2801055, "COM_TYPE1": "Transport", "COM_TYPE2": "Port Operator", "NAME": "King Island Ports Corporation Currie", "UFI": "{318894f9-e246-4da8-8619-ebccee4ccde0}", "CREATED_ON": "2016-11-23 10:54:04", "LIST_GUID": "{92e9e447-bf7d-4e2a-bdb5-761573cd9d32}", "NOM_REG_NO": null }, "geometry": { "type": "Point", "coordinates": [ 143.845457240386452, -39.928039512552346 ] } },
{ "type": "Feature", "properties": { "COMFAC_ID": 6045, "PID": 6500284, "COM_TYPE1": "Ground", "COM_TYPE2": "Park or reserve", "NAME": "Currie Lions Park", "UFI": "{a465f823-143d-4ab3-a992-a1883b28de29}", "CREATED_ON": "2016-11-23 10:54:04", "LIST_GUID": "{5291d7ec-7e52-4a36-8057-f24b30f0ed7d}", "NOM_REG_NO": null }, "geometry": { "type": "Point", "coordinates": [ 143.845759598486154, -39.92877339859573 ] } },
{ "type": "Feature", "properties": { "COMFAC_ID": 60464, "PID": 6501797, "COM_TYPE1": "Accommodation", "COM_TYPE2": "Holiday Unit\/ Flat", "NAME": "Craypot Cottage", "UFI": "{05b68c43-c64f-4222-a83e-2b24d4b1c81d}", "CREATED_ON": "2016-11-23 10:54:04", "LIST_GUID": "{eaced9cd-aafa-415b-902a-77fac6baa0cf}", "NOM_REG_NO": null }, "geometry": { "type": "Point", "coordinates": [ 143.846241403643489, -39.930759643592737 ] } },
{ "type": "Feature", "properties": { "COMFAC_ID": 6060, "PID": 1849292, "COM_TYPE1": "Club", "COM_TYPE2": "Masonic", "NAME": "Currie Masonic Hall", "UFI": "{573ded6a-3730-4e81-b41c-900d124f1ede}", "CREATED_ON": "2016-11-23 10:54:04", "LIST_GUID": "{0debd4da-3370-49ef-a657-cc9cd00d2494}", "NOM_REG_NO": null }, "geometry": { "type": "Point", "coordinates": [ 143.852625579906601, -39.926552340018475 ] } },
{ "type": "Feature", "properties": { "COMFAC_ID": 38629, "PID": 6500815, "COM_TYPE1": "State Government", "COM_TYPE2": "Service Tasmania", "NAME": "Service Tasmania Currie", "UFI": "{0c9761a4-db42-45c9-84a9-ec980e59ceba}", "CREATED_ON": "2016-11-23 10:54:04", "LIST_GUID": "{c003d2a5-450e-4f3b-bbc8-f9e059faf34e}", "NOM_REG_NO": null }, "geometry": { "type": "Point", "coordinates": [ 143.853845959623925, -39.928919011816731 ] } },
{ "type": "Feature", "properties": { "COMFAC_ID": 6078, "PID": 6502810, "COM_TYPE1": "Council", "COM_TYPE2": "King Island", "NAME": "King Island Council Currie Depot", "UFI": "{b59ec35e-9f1e-4402-926f-817d1d214c62}", "CREATED_ON": "2016-11-23 10:54:04", "LIST_GUID": "{68dd5221-99d8-49dc-9a3a-60f75b71d71e}", "NOM_REG_NO": null }, "geometry": { "type": "Point", "coordinates": [ 143.857463100755353, -39.917608385867346 ] } },
{ "type": "Feature", "properties": { "COMFAC_ID": 63651, "PID": 0, "COM_TYPE1": "Accommodation", "COM_TYPE2": "Holiday Unit\/ Flat", "NAME": "Cape Wichkam Links", "UFI": "{b2c02f79-7508-4fad-bb81-fd09c2398e88}", "CREATED_ON": "2016-11-23 10:54:04", "LIST_GUID": "{557a76e3-0547-440e-8e3c-6b04a48f69a9}", "NOM_REG_NO": null }, "geometry": { "type": "Point", "coordinates": [ 143.93425948628331, -39.596005548044211 ] } },
{ "type": "Feature", "properties": { "COMFAC_ID": 6093, "PID": 1849241, "COM_TYPE1": "State police and emergency", "COM_TYPE2": "Fire station", "NAME": "Grassy Fire Station", "UFI": "{77c2dc7c-fd01-4d3d-8aab-880e0c0c64b6}", "CREATED_ON": "2016-11-23 10:54:04", "LIST_GUID": "{8ddcda9b-ef00-4677-a6fc-af29a91ee564}", "NOM_REG_NO": null }, "geometry": { "type": "Point", "coordinates": [ 144.050819995749265, -40.048060048999467 ] } },
{ "type": "Feature", "properties": { "COMFAC_ID": 60470, "PID": 6509713, "COM_TYPE1": "Accommodation", "COM_TYPE2": "Holiday Unit\/ Flat", "NAME": "King Island Holiday Village", "UFI": "{c7abc2d2-5f44-424d-a6bc-6c9d7a8a38f9}", "CREATED_ON": "2016-11-23 10:54:04", "LIST_GUID": "{0da44ab8-c63b-4a5c-b4e7-fa18c50b289d}", "NOM_REG_NO": null }, "geometry": { "type": "Point", "coordinates": [ 144.060182173052965, -40.050356303625229 ] } },
{ "type": "Feature", "properties": { "COMFAC_ID": 58404, "PID": 7253385, "COM_TYPE1": "State Government", "COM_TYPE2": "Other", "NAME": "TasWater - Wastewater Wetlands", "UFI": "{980c4758-3224-4d8c-b2e8-09b1072100b9}", "CREATED_ON": "2016-11-23 10:54:04", "LIST_GUID": "{6df8fba8-6eff-4799-a985-23f32d4965f9}", "NOM_REG_NO": null }, "geometry": { "type": "Point", "coordinates": [ 143.839895669248193, -39.932266128656437 ] } },
{ "type": "Feature", "properties": { "COMFAC_ID": 6056, "PID": 6500284, "COM_TYPE1": "Tourist feature", "COM_TYPE2": "Natural", "NAME": "Bell Hill Lookout", "UFI": "{8f46e0fa-159a-484a-b059-41f68c0c2fbb}", "CREATED_ON": "2016-11-23 10:54:04", "LIST_GUID": "{dcfb2053-86a4-4c6f-ab82-342e696a8a60}", "NOM_REG_NO": null }, "geometry": { "type": "Point", "coordinates": [ 143.849274817773534, -39.929846353558069 ] } },
{ "type": "Feature", "properties": { "COMFAC_ID": 6064, "PID": 7373969, "COM_TYPE1": "Accommodation", "COM_TYPE2": "Holiday Unit\/ Flat", "NAME": "Gullhaven", "UFI": "{c2a5be7c-70d8-4dbc-9323-1ab9e7648977}", "CREATED_ON": "2016-11-23 10:54:04", "LIST_GUID": "{7fc38bd3-772b-4f68-b972-31025b68f83e}", "NOM_REG_NO": null }, "geometry": { "type": "Point", "coordinates": [ 143.85066680007256, -39.928290070667622 ] } },
{ "type": "Feature", "properties": { "COMFAC_ID": 17365, "PID": 7608254, "COM_TYPE1": "Accommodation", "COM_TYPE2": "Guest House\/ Bed and Breakfast", "NAME": "King Island Green Ponds Guest House", "UFI": "{ca995eb4-b62c-4caf-9e86-e7e35ac4c5bd}", "CREATED_ON": "2016-11-23 10:54:04", "LIST_GUID": "{9376fab4-8639-474b-bae2-9ec98b26a4b6}", "NOM_REG_NO": null }, "geometry": { "type": "Point", "coordinates": [ 143.852147378466213, -39.931663278219261 ] } },
{ "type": "Feature", "properties": { "COMFAC_ID": 6067, "PID": 1328438, "COM_TYPE1": "Church", "COM_TYPE2": "Catholic Church", "NAME": "Star of the Sea Catholic Church", "UFI": "{a6d71338-a1e1-487b-aa70-59c805037b10}", "CREATED_ON": "2016-11-23 10:54:04", "LIST_GUID": "{230f6395-0891-49dc-a362-3b5f0865a929}", "NOM_REG_NO": null }, "geometry": { "type": "Point", "coordinates": [ 143.852931582290296, -39.927533473052783 ] } },
{ "type": "Feature", "properties": { "COMFAC_ID": 6088, "PID": 7608297, "COM_TYPE1": "Council", "COM_TYPE2": "King Island", "NAME": "King Island Council Office Currie", "UFI": "{418cb940-636d-47a5-b351-9883e86035af}", "CREATED_ON": "2016-11-23 10:54:04", "LIST_GUID": "{51e7726e-1bb8-4935-8b4f-44e83cc76adf}", "NOM_REG_NO": null }, "geometry": { "type": "Point", "coordinates": [ 143.854346461484852, -39.92985146888978 ] } },
{ "type": "Feature", "properties": { "COMFAC_ID": 54992, "PID": 7797235, "COM_TYPE1": "Tourist feature", "COM_TYPE2": "Other", "NAME": "King Island Coach Tours", "UFI": "{2b409860-a4c9-4ec1-a451-b8704ba24457}", "CREATED_ON": "2016-11-23 10:54:04", "LIST_GUID": "{f2482e5b-046f-4929-bff2-dcabd826c195}", "NOM_REG_NO": null }, "geometry": { "type": "Point", "coordinates": [ 143.857112034624294, -39.918614576235591 ] } },
{ "type": "Feature", "properties": { "COMFAC_ID": 63993, "PID": 3215779, "COM_TYPE1": "Sports complex", "COM_TYPE2": "Golf", "NAME": "Ocean Dunes", "UFI": "{9838ed2f-8998-4008-adb2-2b1dc4b11fc5}", "CREATED_ON": "2017-05-30 12:11:40", "LIST_GUID": "{df67fe0b-c777-4ac0-90b6-de4bfe70c790}", "NOM_REG_NO": null }, "geometry": { "type": "Point", "coordinates": [ 143.848573580978154, -39.895321779820726 ] } },
{ "type": "Feature", "properties": { "COMFAC_ID": 62594, "PID": 2217916, "COM_TYPE1": "Accommodation", "COM_TYPE2": "Holiday Unit\/ Flat", "NAME": "Sea View Cottages", "UFI": "{12862de5-3106-406c-ac2e-ff1af1e2509d}", "CREATED_ON": "2016-11-23 10:54:04", "LIST_GUID": "{9ec71d83-a7b7-4d36-8e35-0b63b6e44357}", "NOM_REG_NO": null }, "geometry": { "type": "Point", "coordinates": [ 143.900168256599414, -39.988250451413911 ] } },
{ "type": "Feature", "properties": { "COMFAC_ID": 61485, "PID": 2076631, "COM_TYPE1": "Education and training", "COM_TYPE2": "Private", "NAME": "Ballarat Clarendon College", "UFI": "{28ca2ce4-eb1b-43fc-bd61-0bb3ef19aa4d}", "CREATED_ON": "2016-11-23 10:54:04", "LIST_GUID": "{0b9d329b-f558-47a4-951f-a7e884103222}", "NOM_REG_NO": null }, "geometry": { "type": "Point", "coordinates": [ 144.05518647113513, -40.046997282119122 ] } },
{ "type": "Feature", "properties": { "COMFAC_ID": 46348, "PID": 2040073, "COM_TYPE1": "Ground", "COM_TYPE2": "Sportsground", "NAME": "Grassy Recreation Ground", "UFI": "{39bfa768-211f-4f72-8752-c7a19ef84f48}", "CREATED_ON": "2016-11-23 10:54:04", "LIST_GUID": "{fc93ec0b-83f7-44d6-b3a2-3f484d954264}", "NOM_REG_NO": null }, "geometry": { "type": "Point", "coordinates": [ 144.057533674770042, -40.047539254283102 ] } },
{ "type": "Feature", "properties": { "COMFAC_ID": 63375, "PID": 3298746, "COM_TYPE1": "Accommodation", "COM_TYPE2": "Holiday Unit\/ Flat", "NAME": "Bronzewing Cottages", "UFI": "{5784523d-6f0d-4907-98ab-9aef7b047d8b}", "CREATED_ON": "2016-11-23 10:54:04", "LIST_GUID": "{3af8920a-557d-46f8-b1be-cbe1c4206662}", "NOM_REG_NO": null }, "geometry": { "type": "Point", "coordinates": [ 144.119198403106054, -39.918534651991422 ] } },
{ "type": "Feature", "properties": { "COMFAC_ID": 6073, "PID": 1988372, "COM_TYPE1": "Club", "COM_TYPE2": "Tennis", "NAME": "King Island Tennis Club", "UFI": "{ea0f546a-4f78-46c1-9753-0cb861414c09}", "CREATED_ON": "2016-11-23 10:54:04", "LIST_GUID": "{7b2bc943-8d83-43ff-b00a-91461510f46a}", "NOM_REG_NO": null }, "geometry": { "type": "Point", "coordinates": [ 143.847803679384896, -39.932955129716781 ] } },
{ "type": "Feature", "properties": { "COMFAC_ID": 63092, "PID": 7565653, "COM_TYPE1": "Ground", "COM_TYPE2": "Showground", "NAME": "King Island Showground", "UFI": "{d09a85f9-cc17-4e7b-ad83-d59b33a5cb29}", "CREATED_ON": "2016-11-23 10:54:04", "LIST_GUID": "{e03cf3f6-fb19-446b-8f0c-d13a480442bf}", "NOM_REG_NO": null }, "geometry": { "type": "Point", "coordinates": [ 143.853615377395386, -39.909265325272614 ] } },
{ "type": "Feature", "properties": { "COMFAC_ID": 35907, "PID": 6502925, "COM_TYPE1": "State police and emergency", "COM_TYPE2": "State Emergency Service unit", "NAME": "SES King Island", "UFI": "{261998fb-64bd-410f-92c5-71936f0db0b8}", "CREATED_ON": "2016-11-23 10:54:04", "LIST_GUID": "{d4c5cf90-8fe3-4409-bf1a-a40fd14fb1fa}", "NOM_REG_NO": null }, "geometry": { "type": "Point", "coordinates": [ 143.85293215974545, -39.929728751193437 ] } },
{ "type": "Feature", "properties": { "COMFAC_ID": 55996, "PID": 6500129, "COM_TYPE1": "Education and training", "COM_TYPE2": "University", "NAME": "Rural Health Teaching Site King Island", "UFI": "{85b0726b-f165-4b94-b06e-f9cfbdfd2bc7}", "CREATED_ON": "2016-11-23 10:54:04", "LIST_GUID": "{ea7188d6-c593-4d36-8f3d-c82eee355bca}", "NOM_REG_NO": null }, "geometry": { "type": "Point", "coordinates": [ 143.857719633453826, -39.930123840834263 ] } },
{ "type": "Feature", "properties": { "COMFAC_ID": 36201, "PID": 2098849, "COM_TYPE1": "Community care", "COM_TYPE2": "Nursing and age home", "NAME": "King Island Multi Purpose Centre", "UFI": "{1bfc6b3c-03a8-4c5e-ade8-58b3a86f49c8}", "CREATED_ON": "2016-11-23 10:54:04", "LIST_GUID": "{9947ddf4-86d7-4b97-b1ce-def4e4100d4b}", "NOM_REG_NO": null }, "geometry": { "type": "Point", "coordinates": [ 143.858996334049721, -39.929870939070135 ] } },
{ "type": "Feature", "properties": { "COMFAC_ID": 62948, "PID": 7602709, "COM_TYPE1": "Accommodation", "COM_TYPE2": "Guest House\/ Bed and Breakfast", "NAME": "King Island Scenic Retreat", "UFI": "{c2c44e8a-6f7b-4903-b8ed-b20c23bd35eb}", "CREATED_ON": "2016-11-23 10:54:04", "LIST_GUID": "{90fb9f5a-4216-4928-a0b7-a5dfc4254345}", "NOM_REG_NO": null }, "geometry": { "type": "Point", "coordinates": [ 144.132895901667808, -39.951218135210766 ] } },
{ "type": "Feature", "properties": { "COMFAC_ID": 63587, "PID": 0, "COM_TYPE1": "Tourist feature", "COM_TYPE2": "Historical", "NAME": "Currie Lightkeepers Residence Historic Site", "UFI": "{7c9a3115-f1dc-4e20-9a60-dcd7758c7f7f}", "CREATED_ON": "2016-11-23 10:54:04", "LIST_GUID": "{5a2a7bcb-533e-4418-b7d6-5c163a2ea4d6}", "NOM_REG_NO": "38295Q" }, "geometry": { "type": "Point", "coordinates": [ 143.844132065864329, -39.930104177519397 ] } },
{ "type": "Feature", "properties": { "COMFAC_ID": 6058, "PID": 6500938, "COM_TYPE1": "Ground", "COM_TYPE2": "Park or reserve", "NAME": "Bicentennial Park", "UFI": "{7a6d8d69-2fb6-4cb4-b04d-47c7af95b9a7}", "CREATED_ON": "2016-11-23 10:54:04", "LIST_GUID": "{205e7f30-31f0-4beb-aa53-d6057ceabd88}", "NOM_REG_NO": null }, "geometry": { "type": "Point", "coordinates": [ 143.848384428630681, -39.928139846911755 ] } },
{ "type": "Feature", "properties": { "COMFAC_ID": 6104, "PID": 6503258, "COM_TYPE1": "Ground", "COM_TYPE2": "Sportsground", "NAME": "Currie Recreation Ground", "UFI": "{1ab1fd62-8813-42eb-bab9-d42d2a961b6c}", "CREATED_ON": "2016-11-23 10:54:04", "LIST_GUID": "{9e3d4410-b41e-434c-ac6b-fe0b64841a46}", "NOM_REG_NO": null }, "geometry": { "type": "Point", "coordinates": [ 143.849735907200312, -39.933521159896159 ] } },
{ "type": "Feature", "properties": { "COMFAC_ID": 35906, "PID": 6502941, "COM_TYPE1": "State police and emergency", "COM_TYPE2": "Ambulance station", "NAME": "Currie Ambulance Station", "UFI": "{5a91a9f7-7ed7-4604-9a2f-14ae99ec815e}", "CREATED_ON": "2016-11-23 10:54:04", "LIST_GUID": "{2ddb6797-9a45-4653-846a-e24babdf54cb}", "NOM_REG_NO": null }, "geometry": { "type": "Point", "coordinates": [ 143.852314068937915, -39.929731367789373 ] } },
{ "type": "Feature", "properties": { "COMFAC_ID": 35872, "PID": 6500815, "COM_TYPE1": "State Government", "COM_TYPE2": "Aurora Energy", "NAME": "Aurora Energy Currie", "UFI": "{d39f47cc-cc2c-4395-8eb8-20255bfa1043}", "CREATED_ON": "2016-11-23 10:54:04", "LIST_GUID": "{5dda4ab4-2063-455d-a8c7-5b9a838e01be}", "NOM_REG_NO": null }, "geometry": { "type": "Point", "coordinates": [ 143.853668021753066, -39.928891831111706 ] } },
{ "type": "Feature", "properties": { "COMFAC_ID": 6084, "PID": 6500815, "COM_TYPE1": "Commonwealth government", "COM_TYPE2": "Centrelink", "NAME": "Centrelink Currie", "UFI": "{47c66868-59f9-4c8e-be6f-1a6023383faa}", "CREATED_ON": "2016-11-23 10:54:04", "LIST_GUID": "{f0334147-485b-4f63-b834-e2c98967cc8e}", "NOM_REG_NO": null }, "geometry": { "type": "Point", "coordinates": [ 143.853754341641661, -39.928895698010095 ] } },
{ "type": "Feature", "properties": { "COMFAC_ID": 49870, "PID": 7608297, "COM_TYPE1": "State Government", "COM_TYPE2": "Justice", "NAME": "Currie Court House", "UFI": "{6c261589-fafb-4a78-9613-089a665be25a}", "CREATED_ON": "2016-11-23 10:54:04", "LIST_GUID": "{f7756cbe-0ba1-4ae8-a267-bd3e9a1609b8}", "NOM_REG_NO": null }, "geometry": { "type": "Point", "coordinates": [ 143.854300004379155, -39.929789082365978 ] } },
{ "type": "Feature", "properties": { "COMFAC_ID": 6105, "PID": 6501690, "COM_TYPE1": "Ground", "COM_TYPE2": "Burial ground", "NAME": "Currie Cemetery", "UFI": "{01ae9edf-28ad-4dea-9e71-d9005029f753}", "CREATED_ON": "2016-11-23 10:54:04", "LIST_GUID": "{bc999be2-a7bb-455f-a327-53df8d3301b4}", "NOM_REG_NO": null }, "geometry": { "type": "Point", "coordinates": [ 143.855075203074165, -39.934056554767643 ] } },
{ "type": "Feature", "properties": { "COMFAC_ID": 6077, "PID": 1328788, "COM_TYPE1": "Accommodation", "COM_TYPE2": "Caravan Park", "NAME": "Bass Caravan Park", "UFI": "{d8a77416-8cb6-4f51-92e6-ef17960dee2b}", "CREATED_ON": "2016-11-23 10:54:04", "LIST_GUID": "{e0d9bdc6-a63b-4787-a51a-99ac3578a586}", "NOM_REG_NO": null }, "geometry": { "type": "Point", "coordinates": [ 143.859265733818461, -39.91662595719751 ] } },
{ "type": "Feature", "properties": { "COMFAC_ID": 57895, "PID": 6500129, "COM_TYPE1": "Medical service", "COM_TYPE2": "Family & child health centre", "NAME": "Currie Child Health Centre", "UFI": "{752ef8af-bdc6-42a7-b5fc-70f10ec4ea02}", "CREATED_ON": "2016-11-23 10:54:04", "LIST_GUID": "{38d2f699-daf0-4c1b-8e6b-3a7cd6b64165}", "NOM_REG_NO": null }, "geometry": { "type": "Point", "coordinates": [ 143.859015493296567, -39.930048537165078 ] } },
{ "type": "Feature", "properties": { "COMFAC_ID": 62386, "PID": 0, "COM_TYPE1": "Accommodation", "COM_TYPE2": "Holiday Unit\/ Flat", "NAME": "King Island Breaks - Porkys Beach House", "UFI": "{ee5cd4ea-938d-4a9d-adbb-a55c1c87a390}", "CREATED_ON": "2016-11-23 10:54:04", "LIST_GUID": "{b4743a8e-6426-4aa9-88c9-70ba9424f46b}", "NOM_REG_NO": null }, "geometry": { "type": "Point", "coordinates": [ 143.859820123593522, -39.850022932139169 ] } },
{ "type": "Feature", "properties": { "COMFAC_ID": 60468, "PID": 2893965, "COM_TYPE1": "Accommodation", "COM_TYPE2": "Holiday Unit\/ Flat", "NAME": "Portside Links", "UFI": "{03aed264-ae62-4fb4-9841-1ebf18f9b651}", "CREATED_ON": "2016-11-23 10:54:04", "LIST_GUID": "{eec4e247-8460-445a-9c37-a05278945533}", "NOM_REG_NO": null }, "geometry": { "type": "Point", "coordinates": [ 144.05904414857855, -40.061997348729278 ] } },
{ "type": "Feature", "properties": { "COMFAC_ID": 60466, "PID": 6510327, "COM_TYPE1": "Accommodation", "COM_TYPE2": "Holiday Unit\/ Flat", "NAME": "Bold Views Naracoopa", "UFI": "{2efd3b35-2e28-4853-b0a7-d1dcb234ee6c}", "CREATED_ON": "2016-11-23 10:54:04", "LIST_GUID": "{12033b6e-e17b-41dd-a809-61696edb22b7}", "NOM_REG_NO": null }, "geometry": { "type": "Point", "coordinates": [ 144.11556883429796, -39.916733378832127 ] } },
{ "type": "Feature", "properties": { "COMFAC_ID": 60467, "PID": 6510642, "COM_TYPE1": "Accommodation", "COM_TYPE2": "Holiday Unit\/ Flat", "NAME": "The Flying Squirrel Holiday Accomodation", "UFI": "{1b451ee8-22c9-4204-ae69-08ce36c2eacb}", "CREATED_ON": "2016-11-23 10:54:04", "LIST_GUID": "{c4955f69-4803-4550-86c0-69636da5dc31}", "NOM_REG_NO": null }, "geometry": { "type": "Point", "coordinates": [ 144.121534944349804, -39.920566987290115 ] } },
{ "type": "Feature", "properties": { "COMFAC_ID": 6048, "PID": 2801055, "COM_TYPE1": "Ground", "COM_TYPE2": "Park or reserve", "NAME": "Les Ross Park", "UFI": "{23a9b696-839f-40e7-8b15-2c14e7b3982d}", "CREATED_ON": "2016-11-23 10:54:04", "LIST_GUID": "{121fb21b-5c8b-41f1-bc8b-34aadeb4a7c7}", "NOM_REG_NO": "41944S" }, "geometry": { "type": "Point", "coordinates": [ 143.845311871690626, -39.929264778257817 ] } },
{ "type": "Feature", "properties": { "COMFAC_ID": 57381, "PID": 2582876, "COM_TYPE1": "Ground", "COM_TYPE2": "Picnic Area", "NAME": "Picnic Area", "UFI": "{f85c6a55-539e-4bc1-8cbd-7d582023261d}", "CREATED_ON": "2016-11-23 10:54:04", "LIST_GUID": "{8644f9fb-535f-4812-8cec-299fdbe1424e}", "NOM_REG_NO": null }, "geometry": { "type": "Point", "coordinates": [ 143.845463507979019, -39.928543778256234 ] } },
{ "type": "Feature", "properties": { "COMFAC_ID": 17364, "PID": 7777816, "COM_TYPE1": "Accommodation", "COM_TYPE2": "Holiday Unit\/ Flat", "NAME": "Fishermans Cottage, The", "UFI": "{263b093e-a901-42fe-9668-943fe75d1e07}", "CREATED_ON": "2016-11-23 10:54:04", "LIST_GUID": "{f486a221-5af5-4121-84b6-e93b29a5711a}", "NOM_REG_NO": null }, "geometry": { "type": "Point", "coordinates": [ 143.850180121913326, -39.931059117133891 ] } },
{ "type": "Feature", "properties": { "COMFAC_ID": 6066, "PID": 7625345, "COM_TYPE1": "Accommodation", "COM_TYPE2": "Hotel", "NAME": "Ocean Dunes King Island Hotel", "UFI": "{99b38bea-1644-40a0-a493-2641972e8c18}", "CREATED_ON": "2016-11-23 10:54:04", "LIST_GUID": "{3628a7df-fde1-4e9c-8ad1-2a0da7b643b2}", "NOM_REG_NO": null }, "geometry": { "type": "Point", "coordinates": [ 143.850553598871272, -39.930402006470615 ] } },
{ "type": "Feature", "properties": { "COMFAC_ID": 6063, "PID": 6502300, "COM_TYPE1": "Club", "COM_TYPE2": "Senior and elderly citizens", "NAME": "Currie Senior Citizens' Club", "UFI": "{4de26259-d691-461e-994e-b4832171aa0b}", "CREATED_ON": "2016-11-23 10:54:04", "LIST_GUID": "{c52b2950-888e-4967-bddd-7f70ab944635}", "NOM_REG_NO": null }, "geometry": { "type": "Point", "coordinates": [ 143.851382973496385, -39.929923412980273 ] } },
{ "type": "Feature", "properties": { "COMFAC_ID": 6055, "PID": 6502474, "COM_TYPE1": "Church", "COM_TYPE2": "Anglican Church", "NAME": "All Saints Anglican Church", "UFI": "{f052e658-6c7e-42fc-9aff-70e1a03ff6f2}", "CREATED_ON": "2016-11-23 10:54:04", "LIST_GUID": "{2db20b27-8752-4c6f-9317-a3079294ea21}", "NOM_REG_NO": null }, "geometry": { "type": "Point", "coordinates": [ 143.851932039688734, -39.927810000314857 ] } },
{ "type": "Feature", "properties": { "COMFAC_ID": 6061, "PID": 6502941, "COM_TYPE1": "State police and emergency", "COM_TYPE2": "Police station", "NAME": "Currie Police Station", "UFI": "{0ad413e1-4068-4428-92ad-b9e4d68246a4}", "CREATED_ON": "2016-11-23 10:54:04", "LIST_GUID": "{b2614f67-6c92-4da4-8710-734ed01d3e98}", "NOM_REG_NO": null }, "geometry": { "type": "Point", "coordinates": [ 143.85234225954477, -39.929670261355433 ] } },
{ "type": "Feature", "properties": { "COMFAC_ID": 48792, "PID": 1523727, "COM_TYPE1": "Accommodation", "COM_TYPE2": "Holiday Unit\/ Flat", "NAME": "Joys Holiday Units", "UFI": "{ae174b47-43ec-4da2-87ae-cad2dcb3f02c}", "CREATED_ON": "2016-11-23 10:54:04", "LIST_GUID": "{fa9601e3-3a97-4e46-a20c-804c1eda9de1}", "NOM_REG_NO": null }, "geometry": { "type": "Point", "coordinates": [ 143.85241696164789, -39.931529141428605 ] } },
{ "type": "Feature", "properties": { "COMFAC_ID": 6074, "PID": 1859714, "COM_TYPE1": "Church", "COM_TYPE2": "Seventh Day Adventist Church", "NAME": "King Island Seventh Day Adventist Church", "UFI": "{b569600d-7af8-4813-90cc-904d0bc2903a}", "CREATED_ON": "2016-11-23 10:54:04", "LIST_GUID": "{0b29bb37-5704-4c9b-9c2a-659ee1d5a751}", "NOM_REG_NO": null }, "geometry": { "type": "Point", "coordinates": [ 143.852709999729683, -39.932533053635517 ] } },
{ "type": "Feature", "properties": { "COMFAC_ID": 6089, "PID": 6500639, "COM_TYPE1": "Education and training", "COM_TYPE2": "District High School", "NAME": "King Island District High School", "UFI": "{4521bb2c-c3ee-478d-852d-612641f55366}", "CREATED_ON": "2016-11-23 10:54:04", "LIST_GUID": "{bccc0f85-6365-4595-8df8-dfe8c48c3202}", "NOM_REG_NO": null }, "geometry": { "type": "Point", "coordinates": [ 143.855979765324662, -39.926544516940211 ] } },
{ "type": "Feature", "properties": { "COMFAC_ID": 46048, "PID": 6498081, "COM_TYPE1": "State police and emergency", "COM_TYPE2": "Fire station", "NAME": "North King Island Fire Station", "UFI": "{dfd61f70-5b01-4f27-9ff7-ba2fdf05bc8f}", "CREATED_ON": "2016-11-23 10:54:04", "LIST_GUID": "{dae06c1a-e93b-47db-b569-3c33479368c6}", "NOM_REG_NO": null }, "geometry": { "type": "Point", "coordinates": [ 143.915874793302976, -39.752961236273322 ] } },
{ "type": "Feature", "properties": { "COMFAC_ID": 63631, "PID": 1957664, "COM_TYPE1": "Tourist feature", "COM_TYPE2": "Industrial", "NAME": "King Island Farm Tours", "UFI": "{173dc6ee-0279-45a7-bb22-57ffbee3ef85}", "CREATED_ON": "2016-11-23 10:54:04", "LIST_GUID": "{37509d22-e8ed-447b-98ff-f5126b063c55}", "NOM_REG_NO": null }, "geometry": { "type": "Point", "coordinates": [ 143.976335118478517, -39.66564958734849 ] } },
{ "type": "Feature", "properties": { "COMFAC_ID": 63205, "PID": 0, "COM_TYPE1": "Council", "COM_TYPE2": "King Island", "NAME": "King Island Waste Disposal Site", "UFI": "{cb293484-f499-4e9b-9909-0181e8787c58}", "CREATED_ON": "2016-11-23 10:54:04", "LIST_GUID": "{641e679b-3beb-46ce-a403-45b916d8e420}", "NOM_REG_NO": null }, "geometry": { "type": "Point", "coordinates": [ 144.068633280418425, -39.930615046624823 ] } },
{ "type": "Feature", "properties": { "COMFAC_ID": 6122, "PID": 7449150, "COM_TYPE1": "Accommodation", "COM_TYPE2": "Holiday Unit\/ Flat", "NAME": "Baudins", "UFI": "{a4c6199b-7327-4e3c-9cf1-d835b4c24302}", "CREATED_ON": "2016-11-23 10:54:04", "LIST_GUID": "{f8c8e1a0-2e34-4405-acdd-cd2fd250a7de}", "NOM_REG_NO": null }, "geometry": { "type": "Point", "coordinates": [ 144.116762956442926, -39.917359216766421 ] } },
{ "type": "Feature", "properties": { "COMFAC_ID": 60465, "PID": 2603622, "COM_TYPE1": "Accommodation", "COM_TYPE2": "Guest House\/ Bed and Breakfast", "NAME": "Rocky Glen Retreat", "UFI": "{dbe39d46-86f3-402c-b678-ef053a814b9e}", "CREATED_ON": "2016-11-23 10:54:04", "LIST_GUID": "{3b2afb9a-6428-435f-9eb1-a500f16378b7}", "NOM_REG_NO": null }, "geometry": { "type": "Point", "coordinates": [ 144.130370988664737, -39.923430054116899 ] } }
]
}
