{
"type": "FeatureCollection",
"crs": { "type": "name", "properties": { "name": "urn:ogc:def:crs:OGC:1.3:CRS84" } },
"features": [
{ "type": "Feature", "properties": { "COMFAC_ID": 2842, "PID": 6448922, "COM_TYPE1": "Accommodation", "COM_TYPE2": "Guest House\/ Bed and Breakfast", "NAME": "The Grove", "UFI": "{ab346cc9-d6bd-4f09-8651-b4615ff9fb36}", "CREATED_ON": "2016-11-23 10:54:04", "LIST_GUID": "{713d9fe6-b414-4214-90cd-063c69c9d532}", "NOM_REG_NO": null }, "geometry": { "type": "Point", "coordinates": [ 146.818967985258752, -41.105563090112163 ] } },
{ "type": "Feature", "properties": { "COMFAC_ID": 55976, "PID": 6447241, "COM_TYPE1": "Education and training", "COM_TYPE2": "University", "NAME": "Rural Health Teaching Site George Town", "UFI": "{acb9c40f-4f93-4d28-a3c4-a62b241f081e}", "CREATED_ON": "2016-11-23 10:54:04", "LIST_GUID": "{e166bf7c-8a4a-49b0-a837-ca162c891cf8}", "NOM_REG_NO": null }, "geometry": { "type": "Point", "coordinates": [ 146.820565492165485, -41.101186585633172 ] } },
{ "type": "Feature", "properties": { "COMFAC_ID": 59168, "PID": 6437166, "COM_TYPE1": "Tourist feature", "COM_TYPE2": "Historical", "NAME": "Bass & Flinders Centre", "UFI": "{8b739c5e-c1e4-4ddb-a4f6-d03427917e48}", "CREATED_ON": "2016-11-23 10:54:04", "LIST_GUID": "{8e3c9de2-427f-4718-a952-c2deec5f84ca}", "NOM_REG_NO": null }, "geometry": { "type": "Point", "coordinates": [ 146.821400179911024, -41.107924621044361 ] } },
{ "type": "Feature", "properties": { "COMFAC_ID": 2880, "PID": 6440533, "COM_TYPE1": "Cultural", "COM_TYPE2": "Library", "NAME": "George Town Library", "UFI": "{35063925-38b6-4667-91f9-76757b2f35b9}", "CREATED_ON": "2016-11-23 10:54:04", "LIST_GUID": "{cf7aa4d6-691a-4eb4-8fb3-008891e11559}", "NOM_REG_NO": null }, "geometry": { "type": "Point", "coordinates": [ 146.822045649119787, -41.107032037804451 ] } },
{ "type": "Feature", "properties": { "COMFAC_ID": 45909, "PID": 1323231, "COM_TYPE1": "Medical service", "COM_TYPE2": "Family & child health centre", "NAME": "George Town Child Health Centre", "UFI": "{2e246e94-dd63-479f-97c2-d4094688e9c4}", "CREATED_ON": "2016-11-23 10:54:04", "LIST_GUID": "{0862a9f7-6b47-4fce-afd7-60c204ee4326}", "NOM_REG_NO": null }, "geometry": { "type": "Point", "coordinates": [ 146.822224609247911, -41.106915209222763 ] } },
{ "type": "Feature", "properties": { "COMFAC_ID": 2872, "PID": 1802486, "COM_TYPE1": "Commonwealth government", "COM_TYPE2": "Post offices and agencies", "NAME": "George Town Post Office", "UFI": "{8e1821e7-5d92-4a44-8e50-06132acb9fc1}", "CREATED_ON": "2016-11-23 10:54:04", "LIST_GUID": "{242a17da-a1c1-4c06-9c2e-525b1a46424f}", "NOM_REG_NO": null }, "geometry": { "type": "Point", "coordinates": [ 146.824332364893451, -41.106696960825211 ] } },
{ "type": "Feature", "properties": { "COMFAC_ID": 2911, "PID": 6441122, "COM_TYPE1": "State police and emergency", "COM_TYPE2": "Police station", "NAME": "George Town Police Station", "UFI": "{866bb799-eeb7-47b6-a7af-0d470be73a43}", "CREATED_ON": "2016-11-23 10:54:04", "LIST_GUID": "{63c1a5d0-e6d8-48b4-b630-a7615de25870}", "NOM_REG_NO": null }, "geometry": { "type": "Point", "coordinates": [ 146.82472605627305, -41.106756896532836 ] } },
{ "type": "Feature", "properties": { "COMFAC_ID": 2871, "PID": 1325413, "COM_TYPE1": "Commonwealth government", "COM_TYPE2": "Defence", "NAME": "TS York Naval Reserve Cadets", "UFI": "{dc032c71-f180-44a7-bc69-86741f256563}", "CREATED_ON": "2016-11-23 10:54:04", "LIST_GUID": "{131553ac-c110-4a58-98d6-dd64c9f67afc}", "NOM_REG_NO": null }, "geometry": { "type": "Point", "coordinates": [ 146.825138115017694, -41.101239971509067 ] } },
{ "type": "Feature", "properties": { "COMFAC_ID": 2910, "PID": 6439444, "COM_TYPE1": "State police and emergency", "COM_TYPE2": "Fire station", "NAME": "George Town Fire Station", "UFI": "{fbab641e-f9d3-4ffe-8946-7110233559e2}", "CREATED_ON": "2016-11-23 10:54:04", "LIST_GUID": "{2b8a8e97-d6b3-4182-9e30-0807677b2276}", "NOM_REG_NO": null }, "geometry": { "type": "Point", "coordinates": [ 146.826220499893509, -41.104579207882139 ] } },
{ "type": "Feature", "properties": { "COMFAC_ID": 59506, "PID": 2094549, "COM_TYPE1": "Tourist feature", "COM_TYPE2": "Historical", "NAME": "George Town Cenotaph", "UFI": "{adc0a624-c4ba-4edc-b492-6c64ec842437}", "CREATED_ON": "2016-11-23 10:54:04", "LIST_GUID": "{7719f20c-7493-4208-8eeb-33af73545d47}", "NOM_REG_NO": null }, "geometry": { "type": "Point", "coordinates": [ 146.827616176406536, -41.105868548464571 ] } },
{ "type": "Feature", "properties": { "COMFAC_ID": 2897, "PID": 6446927, "COM_TYPE1": "Hall\/ Community centre", "COM_TYPE2": "Community centre", "NAME": "George Town Neighbourhood House", "UFI": "{fde84cb3-24ed-46c1-9565-ce8249c51892}", "CREATED_ON": "2016-11-23 10:54:04", "LIST_GUID": "{f32964f2-2340-4742-a60e-a6163947e034}", "NOM_REG_NO": null }, "geometry": { "type": "Point", "coordinates": [ 146.82852226517781, -41.098357969029493 ] } },
{ "type": "Feature", "properties": { "COMFAC_ID": 2876, "PID": 6439372, "COM_TYPE1": "Community care", "COM_TYPE2": "Creche", "NAME": "Gordon Square Early Learning Centre", "UFI": "{a5283941-ec1e-4966-90fe-c0d19a134377}", "CREATED_ON": "2016-11-23 10:54:04", "LIST_GUID": "{7f085306-2a5e-42ae-8664-f531795c5023}", "NOM_REG_NO": null }, "geometry": { "type": "Point", "coordinates": [ 146.831421218261767, -41.105992193293375 ] } },
{ "type": "Feature", "properties": { "COMFAC_ID": 32705, "PID": 1996823, "COM_TYPE1": "Sports complex", "COM_TYPE2": "Other", "NAME": "George Town Cycling Track", "UFI": "{fbf113cd-95af-4e62-8419-2bb48611bab8}", "CREATED_ON": "2016-11-23 10:54:04", "LIST_GUID": "{6b12235c-9b6d-486a-8800-0615fbf937b8}", "NOM_REG_NO": null }, "geometry": { "type": "Point", "coordinates": [ 146.834268445985089, -41.099098094741592 ] } },
{ "type": "Feature", "properties": { "COMFAC_ID": 2917, "PID": 6456738, "COM_TYPE1": "Church", "COM_TYPE2": "Anglican Church", "NAME": "Christ Church Anglican Church", "UFI": "{c8d17762-a3fb-4e21-9a96-c9b98edc716e}", "CREATED_ON": "2016-11-23 10:54:04", "LIST_GUID": "{5c765777-e0ff-4e69-9c5d-8d16f2fec666}", "NOM_REG_NO": null }, "geometry": { "type": "Point", "coordinates": [ 146.798346472570188, -41.063844209696157 ] } },
{ "type": "Feature", "properties": { "COMFAC_ID": 2918, "PID": 6457482, "COM_TYPE1": "Church", "COM_TYPE2": "Other Church", "NAME": "St Pauls by the Sea Church", "UFI": "{20a3e09b-0343-4346-8dcd-e11e32ef0b25}", "CREATED_ON": "2016-11-23 10:54:04", "LIST_GUID": "{e9851a6e-4aaf-40fd-bb94-def53f97ff43}", "NOM_REG_NO": null }, "geometry": { "type": "Point", "coordinates": [ 146.80689825495736, -41.078001183097676 ] } },
{ "type": "Feature", "properties": { "COMFAC_ID": 2971, "PID": 1326440, "COM_TYPE1": "Club", "COM_TYPE2": "Golf", "NAME": "George Town Golf Club", "UFI": "{e7e35ed8-4f42-4774-beef-3620f9be1c54}", "CREATED_ON": "2016-11-23 10:54:04", "LIST_GUID": "{bc803988-f5d3-4bad-8c5c-04daa7527841}", "NOM_REG_NO": null }, "geometry": { "type": "Point", "coordinates": [ 146.895374309449807, -41.136524222834311 ] } },
{ "type": "Feature", "properties": { "COMFAC_ID": 62688, "PID": 0, "COM_TYPE1": "Ground", "COM_TYPE2": "Picnic Area", "NAME": null, "UFI": "{b27a7f18-26c1-42f2-8c6a-de66636d6da7}", "CREATED_ON": "2016-11-23 10:54:04", "LIST_GUID": "{87123cbc-7aea-4705-9162-eae6da74949c}", "NOM_REG_NO": null }, "geometry": { "type": "Point", "coordinates": [ 146.915272735886902, -41.215016365407607 ] } },
{ "type": "Feature", "properties": { "COMFAC_ID": 2970, "PID": 7907756, "COM_TYPE1": "Ground", "COM_TYPE2": "Burial ground", "NAME": "Lefroy Cemetery", "UFI": "{2056bd54-6bb1-4c3e-bb2e-c3b47cd34650}", "CREATED_ON": "2016-11-23 10:54:04", "LIST_GUID": "{842d37aa-e8fb-45c7-b3f1-075c724a0994}", "NOM_REG_NO": null }, "geometry": { "type": "Point", "coordinates": [ 146.992703560029128, -41.098857480478259 ] } },
{ "type": "Feature", "properties": { "COMFAC_ID": 2902, "PID": 6447671, "COM_TYPE1": "Medical service", "COM_TYPE2": "Hospital", "NAME": "George Town District Hospital", "UFI": "{ca167e3a-8e16-42f2-9ba6-08a0c5c654ef}", "CREATED_ON": "2016-11-23 10:54:04", "LIST_GUID": "{d31b1d25-bee7-491d-aad3-faf138ef7df6}", "NOM_REG_NO": null }, "geometry": { "type": "Point", "coordinates": [ 146.821387107166174, -41.103932243506009 ] } },
{ "type": "Feature", "properties": { "COMFAC_ID": 2909, "PID": 6447698, "COM_TYPE1": "State police and emergency", "COM_TYPE2": "Ambulance station", "NAME": "George Town Ambulance Station", "UFI": "{1e84c538-5754-4fd5-a505-1e9d309e032a}", "CREATED_ON": "2016-11-23 10:54:04", "LIST_GUID": "{e19da96a-7152-4fdb-aad3-1b50f6c98764}", "NOM_REG_NO": null }, "geometry": { "type": "Point", "coordinates": [ 146.821853838771432, -41.104372289658741 ] } },
{ "type": "Feature", "properties": { "COMFAC_ID": 56469, "PID": 2573195, "COM_TYPE1": "Accommodation", "COM_TYPE2": "Holiday Unit\/ Flat", "NAME": "Charles Robbins, The", "UFI": "{b293b398-8271-48de-b8e4-87ec9aaeb682}", "CREATED_ON": "2016-11-23 10:54:04", "LIST_GUID": "{d713db90-2cab-4c87-9861-59f178523970}", "NOM_REG_NO": null }, "geometry": { "type": "Point", "coordinates": [ 146.822286087075554, -41.108461159961429 ] } },
{ "type": "Feature", "properties": { "COMFAC_ID": 2906, "PID": 1322335, "COM_TYPE1": "State Government", "COM_TYPE2": "Service Tasmania", "NAME": "Service Tasmania George Town", "UFI": "{6eeff366-93a2-4521-89a7-819129f8a0d0}", "CREATED_ON": "2016-11-23 10:54:04", "LIST_GUID": "{f0921401-61f8-42f0-afe9-3386f725d4ff}", "NOM_REG_NO": null }, "geometry": { "type": "Point", "coordinates": [ 146.823327002371116, -41.105182131375223 ] } },
{ "type": "Feature", "properties": { "COMFAC_ID": 2854, "PID": 6443355, "COM_TYPE1": "Church", "COM_TYPE2": "Salvation Army", "NAME": "George Town", "UFI": "{57b47b49-ed85-43e6-89d9-d8f25469ecfd}", "CREATED_ON": "2016-11-23 10:54:04", "LIST_GUID": "{5e7f4572-1261-4e76-905c-898291badc50}", "NOM_REG_NO": null }, "geometry": { "type": "Point", "coordinates": [ 146.824042106982802, -41.104210741571954 ] } },
{ "type": "Feature", "properties": { "COMFAC_ID": 34609, "PID": 6441106, "COM_TYPE1": "Financial institution", "COM_TYPE2": "Commonwealth", "NAME": "Commonwealth Bank George Town", "UFI": "{b00d5c90-a3e7-40eb-9e4d-0df9ddc47b7e}", "CREATED_ON": "2016-11-23 10:54:04", "LIST_GUID": "{0f113102-6d50-47b0-94d3-fddb95c8d643}", "NOM_REG_NO": null }, "geometry": { "type": "Point", "coordinates": [ 146.825441823330806, -41.106307579857642 ] } },
{ "type": "Feature", "properties": { "COMFAC_ID": 2865, "PID": 7335452, "COM_TYPE1": "Club", "COM_TYPE2": "Senior and elderly citizens", "NAME": "George Town York Cove Centre", "UFI": "{8a98dc63-884b-492e-bdd4-c2a6579bd353}", "CREATED_ON": "2016-11-23 10:54:04", "LIST_GUID": "{96546f90-2345-47aa-bd24-242e2ef4637d}", "NOM_REG_NO": null }, "geometry": { "type": "Point", "coordinates": [ 146.82602448490826, -41.106650767663659 ] } },
{ "type": "Feature", "properties": { "COMFAC_ID": 61346, "PID": 7335452, "COM_TYPE1": "Club", "COM_TYPE2": "Girl Guide", "NAME": "George Town York Cove Centre", "UFI": "{ed446e83-7b06-41bd-8852-ec4d600001d0}", "CREATED_ON": "2016-11-23 10:54:04", "LIST_GUID": "{6620fa04-2919-4ce9-8d5a-6a7adb1646f1}", "NOM_REG_NO": null }, "geometry": { "type": "Point", "coordinates": [ 146.826057990453847, -41.106726035603636 ] } },
{ "type": "Feature", "properties": { "COMFAC_ID": 2895, "PID": 1873161, "COM_TYPE1": "Hall\/ Community centre", "COM_TYPE2": "Church hall", "NAME": "Our Lady Star of the Sea Hall", "UFI": "{81d7493a-f0d0-4a43-9bac-8829f50e7d88}", "CREATED_ON": "2016-11-23 10:54:04", "LIST_GUID": "{6163410d-618e-41e6-adb0-fba4bff5bdf8}", "NOM_REG_NO": null }, "geometry": { "type": "Point", "coordinates": [ 146.827915799238326, -41.107536398422859 ] } },
{ "type": "Feature", "properties": { "COMFAC_ID": 32545, "PID": 7324366, "COM_TYPE1": "Education and training", "COM_TYPE2": "District High School", "NAME": "Port Dalrymple School", "UFI": "{d2e4993c-a766-4f90-b0df-43c2a495e7fc}", "CREATED_ON": "2016-11-23 10:54:04", "LIST_GUID": "{4b69be63-244f-40f0-8094-95d0c6c7c2de}", "NOM_REG_NO": null }, "geometry": { "type": "Point", "coordinates": [ 146.828195992636694, -41.100090925448697 ] } },
{ "type": "Feature", "properties": { "COMFAC_ID": 2904, "PID": 7316809, "COM_TYPE1": "Sports complex", "COM_TYPE2": "Swimming pools", "NAME": "George Town Swimming Centre", "UFI": "{a8172883-bdb9-4066-b824-6759f5476257}", "CREATED_ON": "2016-11-23 10:54:04", "LIST_GUID": "{abd08977-52e4-4364-8e1c-55d5ca7122ac}", "NOM_REG_NO": null }, "geometry": { "type": "Point", "coordinates": [ 146.832301547608722, -41.10725442713921 ] } },
{ "type": "Feature", "properties": { "COMFAC_ID": 2932, "PID": 6441798, "COM_TYPE1": "Transport", "COM_TYPE2": "Service Station", "NAME": "BP George Town", "UFI": "{d697df3a-7613-42ea-9840-205387d961d7}", "CREATED_ON": "2016-11-23 10:54:04", "LIST_GUID": "{2f817e80-946b-4472-acac-74e925ff4f9b}", "NOM_REG_NO": null }, "geometry": { "type": "Point", "coordinates": [ 146.836595281401287, -41.10863901076943 ] } },
{ "type": "Feature", "properties": { "COMFAC_ID": 2938, "PID": 7789809, "COM_TYPE1": "Transport", "COM_TYPE2": "Service Station", "NAME": "United George Town", "UFI": "{c3dabbb9-ccbd-4297-b817-61ea0cf2a776}", "CREATED_ON": "2016-11-23 10:54:04", "LIST_GUID": "{c9f85c10-1f18-4224-9a1a-e69e8e2f154d}", "NOM_REG_NO": null }, "geometry": { "type": "Point", "coordinates": [ 146.8425840999721, -41.10943105028236 ] } },
{ "type": "Feature", "properties": { "COMFAC_ID": 21426, "PID": 6459234, "COM_TYPE1": "Cultural", "COM_TYPE2": "Museum", "NAME": "Pilot Station Maritime Museum", "UFI": "{602af087-2f09-4623-ae29-3b46a1a31322}", "CREATED_ON": "2016-11-23 10:54:04", "LIST_GUID": "{20eae3f2-e655-4db3-8bac-c7513a64f6dd}", "NOM_REG_NO": null }, "geometry": { "type": "Point", "coordinates": [ 146.796165604820658, -41.064759202144522 ] } },
{ "type": "Feature", "properties": { "COMFAC_ID": 21427, "PID": 6459234, "COM_TYPE1": "Accommodation", "COM_TYPE2": "Holiday Unit\/ Flat", "NAME": "Low Head Pilot Station Accommodation", "UFI": "{b12db57d-4ce4-4495-9913-d214735d887f}", "CREATED_ON": "2016-11-23 10:54:04", "LIST_GUID": "{72927bc5-4366-4812-b5ff-6ea65885084f}", "NOM_REG_NO": null }, "geometry": { "type": "Point", "coordinates": [ 146.796725108446054, -41.064724157913396 ] } },
{ "type": "Feature", "properties": { "COMFAC_ID": 57586, "PID": 2095461, "COM_TYPE1": "Ground", "COM_TYPE2": "Picnic Area", "NAME": "Picnic Area", "UFI": "{353b5dbf-57c3-4055-966e-a720acb37360}", "CREATED_ON": "2016-11-23 10:54:04", "LIST_GUID": "{dd5f652d-e9bb-4d22-9139-8f96df93040c}", "NOM_REG_NO": null }, "geometry": { "type": "Point", "coordinates": [ 146.80268858773556, -41.068517936254729 ] } },
{ "type": "Feature", "properties": { "COMFAC_ID": 57585, "PID": 6455671, "COM_TYPE1": "Ground", "COM_TYPE2": "Picnic Area", "NAME": "Picnic Area", "UFI": "{91a1da92-b3de-4854-b9b4-b3390ea6c319}", "CREATED_ON": "2016-11-23 10:54:04", "LIST_GUID": "{ee5cf430-9124-4e16-8629-776ace5df586}", "NOM_REG_NO": null }, "geometry": { "type": "Point", "coordinates": [ 146.803405390083867, -41.064378719641468 ] } },
{ "type": "Feature", "properties": { "COMFAC_ID": 2919, "PID": 2095461, "COM_TYPE1": "Club", "COM_TYPE2": "Bowls", "NAME": "Bass & Flinders Bowls Club", "UFI": "{f78ea763-baf4-432d-9648-278c664d9787}", "CREATED_ON": "2016-11-23 10:54:04", "LIST_GUID": "{d2a7551c-ff8b-4872-80ec-fdb277489c45}", "NOM_REG_NO": null }, "geometry": { "type": "Point", "coordinates": [ 146.80489486302389, -41.079151269765042 ] } },
{ "type": "Feature", "properties": { "COMFAC_ID": 50709, "PID": 2117464, "COM_TYPE1": "Transport", "COM_TYPE2": "Port Operator", "NAME": "Tasports Bell Bay", "UFI": "{2f641ac6-a2d3-4e68-a72a-7905103650c6}", "CREATED_ON": "2016-11-23 10:54:04", "LIST_GUID": "{a4ec6309-dcbf-4ec2-afd8-fc42a6444acb}", "NOM_REG_NO": null }, "geometry": { "type": "Point", "coordinates": [ 146.866572372861413, -41.132305732803651 ] } },
{ "type": "Feature", "properties": { "COMFAC_ID": 2972, "PID": 6465175, "COM_TYPE1": "Sports complex", "COM_TYPE2": "Golf", "NAME": "George Town Golf Course", "UFI": "{54b3d637-f952-4d39-96e6-c7390a34d9a7}", "CREATED_ON": "2016-11-23 10:54:04", "LIST_GUID": "{0e8ab3bd-ecb5-4a1f-a6bf-53a24752ca3a}", "NOM_REG_NO": "22616F" }, "geometry": { "type": "Point", "coordinates": [ 146.895267030803865, -41.134971006865285 ] } },
{ "type": "Feature", "properties": { "COMFAC_ID": 61637, "PID": 7907836, "COM_TYPE1": "Tourist feature", "COM_TYPE2": "Industrial", "NAME": "Three Wishes Vineyard", "UFI": "{7769ce4f-8d6a-402f-88e8-53999474bae4}", "CREATED_ON": "2016-11-23 10:54:04", "LIST_GUID": "{9f72fed4-2dd5-4bf4-aa89-5fbd560f653c}", "NOM_REG_NO": null }, "geometry": { "type": "Point", "coordinates": [ 146.938604922547881, -41.207971869836626 ] } },
{ "type": "Feature", "properties": { "COMFAC_ID": 63208, "PID": 2535260, "COM_TYPE1": "Council", "COM_TYPE2": "George Town", "NAME": "Pipers River Waste Transfer Station", "UFI": "{f88cf855-6ede-4d24-8791-ead5c845ca1a}", "CREATED_ON": "2016-11-23 10:54:04", "LIST_GUID": "{c53f4694-011f-4f04-b92e-3243df7c7b8f}", "NOM_REG_NO": null }, "geometry": { "type": "Point", "coordinates": [ 147.066613950540017, -41.090635175468115 ] } },
{ "type": "Feature", "properties": { "COMFAC_ID": 2964, "PID": 6472797, "COM_TYPE1": "State police and emergency", "COM_TYPE2": "Fire station", "NAME": "Pipers Brook Fire Station", "UFI": "{7d04e038-82a4-41aa-a58b-902a72cd8558}", "CREATED_ON": "2016-11-23 10:54:04", "LIST_GUID": "{c3893109-4ee9-4df1-af64-2fc588b4cb1f}", "NOM_REG_NO": null }, "geometry": { "type": "Point", "coordinates": [ 147.18207633043815, -41.08318230798838 ] } },
{ "type": "Feature", "properties": { "COMFAC_ID": 60968, "PID": 2070264, "COM_TYPE1": "Tourist feature", "COM_TYPE2": "Industrial", "NAME": "Jansz Tasmania", "UFI": "{63a5afb9-c567-4751-90f2-2ff13dee5603}", "CREATED_ON": "2016-11-23 10:54:04", "LIST_GUID": "{d86c26d5-24d7-40a2-815a-440b77e7b445}", "NOM_REG_NO": null }, "geometry": { "type": "Point", "coordinates": [ 147.195997705242519, -41.073867308177654 ] } },
{ "type": "Feature", "properties": { "COMFAC_ID": 32726, "PID": 6447698, "COM_TYPE1": "State police and emergency", "COM_TYPE2": "State Emergency Service unit", "NAME": "SES George Town", "UFI": "{d665f715-e1e4-4d3f-960f-5092f04bf7c2}", "CREATED_ON": "2016-11-23 10:54:04", "LIST_GUID": "{a339e733-aab8-4d02-99d7-6a6d391ad98f}", "NOM_REG_NO": null }, "geometry": { "type": "Point", "coordinates": [ 146.821760271412472, -41.104318276694485 ] } },
{ "type": "Feature", "properties": { "COMFAC_ID": 49789, "PID": 1322327, "COM_TYPE1": "State Government", "COM_TYPE2": "Justice", "NAME": "George Town Court House", "UFI": "{ab2c39f7-ec72-4c33-b7d3-6dc59ce2e7be}", "CREATED_ON": "2016-11-23 10:54:04", "LIST_GUID": "{43917756-b648-4c43-8e83-9fdf80b5e8f7}", "NOM_REG_NO": null }, "geometry": { "type": "Point", "coordinates": [ 146.823069898068667, -41.105272952546841 ] } },
{ "type": "Feature", "properties": { "COMFAC_ID": 2852, "PID": 6439647, "COM_TYPE1": "Church", "COM_TYPE2": "Convent or monastery", "NAME": "Presentation Sisters Convent", "UFI": "{883941e0-e4b4-4125-806d-26c4f38c1340}", "CREATED_ON": "2016-11-23 10:54:04", "LIST_GUID": "{1d491aaa-bae5-4528-ac57-a967df019994}", "NOM_REG_NO": null }, "geometry": { "type": "Point", "coordinates": [ 146.827579866111193, -41.108012350739727 ] } },
{ "type": "Feature", "properties": { "COMFAC_ID": 21324, "PID": 6438660, "COM_TYPE1": "Accommodation", "COM_TYPE2": "Motel", "NAME": "Central Court Motel", "UFI": "{bb6c0ae2-f383-4803-898c-67046d5c7baa}", "CREATED_ON": "2016-11-23 10:54:04", "LIST_GUID": "{b26e14fd-e561-4abe-953c-0a75e52b0bc0}", "NOM_REG_NO": null }, "geometry": { "type": "Point", "coordinates": [ 146.830501146096196, -41.108610920330683 ] } },
{ "type": "Feature", "properties": { "COMFAC_ID": 2859, "PID": 1325587, "COM_TYPE1": "Club", "COM_TYPE2": "Football", "NAME": "George Town Football Club", "UFI": "{267f66c3-6394-47bd-9b40-600b3782d8d8}", "CREATED_ON": "2016-11-23 10:54:04", "LIST_GUID": "{9c7f76dc-a768-41be-9266-25c9d778298b}", "NOM_REG_NO": null }, "geometry": { "type": "Point", "coordinates": [ 146.835275202384537, -41.0974304943745 ] } },
{ "type": "Feature", "properties": { "COMFAC_ID": 56466, "PID": 7644773, "COM_TYPE1": "Sports complex", "COM_TYPE2": "Golf", "NAME": "Low Head Golf Course", "UFI": "{35be5004-5be2-4af1-98a2-95e6c0294736}", "CREATED_ON": "2016-11-23 10:54:04", "LIST_GUID": "{ddd27dea-7b41-4ab1-b52e-cb397642ab0c}", "NOM_REG_NO": null }, "geometry": { "type": "Point", "coordinates": [ 146.796890378042917, -41.061467604119379 ] } },
{ "type": "Feature", "properties": { "COMFAC_ID": 2921, "PID": 6457482, "COM_TYPE1": "Community care", "COM_TYPE2": "Nursing and age home", "NAME": "Ainslie Nursing Home Low Head", "UFI": "{b341766b-8c8e-45c5-80f4-6dddabef4356}", "CREATED_ON": "2016-11-23 10:54:04", "LIST_GUID": "{c2d1558b-b306-43c9-b9ee-81d175d4609f}", "NOM_REG_NO": null }, "geometry": { "type": "Point", "coordinates": [ 146.808396822421059, -41.078463521561382 ] } },
{ "type": "Feature", "properties": { "COMFAC_ID": 50832, "PID": 1701845, "COM_TYPE1": "State Government", "COM_TYPE2": "Transend Networks", "NAME": "Starwood Transend Sub Station", "UFI": "{d7fccb6d-c335-41bf-b24e-a9617a9ac297}", "CREATED_ON": "2016-11-23 10:54:04", "LIST_GUID": "{5a0adaa4-ff9a-4f2a-9a9e-f8549dc48367}", "NOM_REG_NO": null }, "geometry": { "type": "Point", "coordinates": [ 146.847694634990432, -41.121493073289777 ] } },
{ "type": "Feature", "properties": { "COMFAC_ID": 50829, "PID": 7386946, "COM_TYPE1": "State Government", "COM_TYPE2": "Transend Networks", "NAME": "George Town Transend Sub Station", "UFI": "{7859ddc8-0767-4c0a-9f1d-3451555ac42c}", "CREATED_ON": "2016-11-23 10:54:04", "LIST_GUID": "{115569bb-d38d-4c02-b2c8-ccc84088fc41}", "NOM_REG_NO": null }, "geometry": { "type": "Point", "coordinates": [ 146.885127007986227, -41.128466020884808 ] } },
{ "type": "Feature", "properties": { "COMFAC_ID": 26785, "PID": 7907780, "COM_TYPE1": "Tourist feature", "COM_TYPE2": "Industrial", "NAME": "East Arm Vineyard", "UFI": "{2993e9c7-7ff0-419a-83a7-b6404cb879bb}", "CREATED_ON": "2016-11-23 10:54:04", "LIST_GUID": "{09fdd63e-e534-4559-b63a-bf7a7ed3e868}", "NOM_REG_NO": null }, "geometry": { "type": "Point", "coordinates": [ 146.950202923779386, -41.189383783320515 ] } },
{ "type": "Feature", "properties": { "COMFAC_ID": 62987, "PID": 2095189, "COM_TYPE1": "Ground", "COM_TYPE2": "Park or reserve", "NAME": "Hillwood Pontoon Park", "UFI": "{ba27099e-62ba-4067-b705-2c26764e0499}", "CREATED_ON": "2016-11-23 10:54:04", "LIST_GUID": "{fb56403e-f9b2-45ac-ab91-4f7ec970fee2}", "NOM_REG_NO": "42018H" }, "geometry": { "type": "Point", "coordinates": [ 146.978694675389164, -41.24390062819478 ] } },
{ "type": "Feature", "properties": { "COMFAC_ID": 51209, "PID": 3097901, "COM_TYPE1": "Commonwealth government", "COM_TYPE2": "Post offices and agencies", "NAME": "Pipers River Post Office", "UFI": "{dd237826-1a54-4831-bb79-ccddc52146d7}", "CREATED_ON": "2016-11-23 10:54:04", "LIST_GUID": "{84e50556-8005-4305-b4f0-3cce8bded086}", "NOM_REG_NO": null }, "geometry": { "type": "Point", "coordinates": [ 147.076386878822547, -41.098328145373458 ] } },
{ "type": "Feature", "properties": { "COMFAC_ID": 46134, "PID": 6471399, "COM_TYPE1": "State police and emergency", "COM_TYPE2": "Fire station", "NAME": "Pipers River Fire Station", "UFI": "{8b383174-ecbd-4cad-bd91-b0779ae64425}", "CREATED_ON": "2016-11-23 10:54:04", "LIST_GUID": "{9dfd45ce-6663-466a-8da9-c290d7b9205e}", "NOM_REG_NO": null }, "geometry": { "type": "Point", "coordinates": [ 147.091428866749169, -41.10058239956517 ] } },
{ "type": "Feature", "properties": { "COMFAC_ID": 2954, "PID": 6471356, "COM_TYPE1": "Church", "COM_TYPE2": "Anglican Church", "NAME": "St Albans Anglican Church", "UFI": "{612151ac-6ced-4c7e-b090-6dffaaf8084b}", "CREATED_ON": "2016-11-23 10:54:04", "LIST_GUID": "{a671d79e-930d-4c9c-aaa2-c6e19eaa1e59}", "NOM_REG_NO": null }, "geometry": { "type": "Point", "coordinates": [ 147.091531173989296, -41.101423889124703 ] } },
{ "type": "Feature", "properties": { "COMFAC_ID": 2953, "PID": 6471372, "COM_TYPE1": "Ground", "COM_TYPE2": "Burial ground", "NAME": "Pipers River Cemetery", "UFI": "{5ba1d000-5f82-4d62-8ed0-a08f3638c674}", "CREATED_ON": "2016-11-23 10:54:04", "LIST_GUID": "{0b805bb4-37ee-4021-b9f8-917680763b8b}", "NOM_REG_NO": null }, "geometry": { "type": "Point", "coordinates": [ 147.092897386512931, -41.10200932967355 ] } },
{ "type": "Feature", "properties": { "COMFAC_ID": 2968, "PID": 6462900, "COM_TYPE1": "Hall\/ Community centre", "COM_TYPE2": "Community, town or city hall", "NAME": "Lulworth Hall", "UFI": "{632d412f-c0e4-4c1c-8395-2c78b7ca4191}", "CREATED_ON": "2016-11-23 10:54:04", "LIST_GUID": "{02689715-19bb-4456-ac61-7c98cffa5cd1}", "NOM_REG_NO": null }, "geometry": { "type": "Point", "coordinates": [ 147.075076391636514, -41.000416399087442 ] } },
{ "type": "Feature", "properties": { "COMFAC_ID": 2950, "PID": 7907940, "COM_TYPE1": "Tourist feature", "COM_TYPE2": "Industrial", "NAME": "Delamere Vineyard", "UFI": "{9f0b9b1b-1dda-4dc6-9fa2-eac642e3e18b}", "CREATED_ON": "2016-11-23 10:54:04", "LIST_GUID": "{d9e5f195-8faf-4c8e-a454-f3e1fe599349}", "NOM_REG_NO": null }, "geometry": { "type": "Point", "coordinates": [ 147.159843764645416, -41.072723896573955 ] } },
{ "type": "Feature", "properties": { "COMFAC_ID": 21284, "PID": 6471321, "COM_TYPE1": "Accommodation", "COM_TYPE2": "Camp and Camping Ground", "NAME": "Salvation Army Holiday Camp", "UFI": "{7ad34ec6-4f94-4e3a-a97a-9d2a328f2717}", "CREATED_ON": "2016-11-23 10:54:04", "LIST_GUID": "{f53bafcc-1034-48cb-8881-82821477924f}", "NOM_REG_NO": null }, "geometry": { "type": "Point", "coordinates": [ 147.148419692588988, -41.015546170574275 ] } },
{ "type": "Feature", "properties": { "COMFAC_ID": 42285, "PID": 1884995, "COM_TYPE1": "Tourist feature", "COM_TYPE2": "Industrial", "NAME": "Dalrymple Vineyards", "UFI": "{3b56cf01-9b97-4e9d-8e97-729fde38f87b}", "CREATED_ON": "2016-11-23 10:54:04", "LIST_GUID": "{7917ed6c-b129-4196-a0a5-c9e55c2a212e}", "NOM_REG_NO": null }, "geometry": { "type": "Point", "coordinates": [ 147.18304573006364, -41.067091585239709 ] } },
{ "type": "Feature", "properties": { "COMFAC_ID": 2899, "PID": 1323215, "COM_TYPE1": "Hall\/ Community centre", "COM_TYPE2": "Community, town or city hall", "NAME": "George Town Memorial Hall", "UFI": "{f86f2eb8-777a-4b79-af86-7450c6461d1c}", "CREATED_ON": "2016-11-23 10:54:04", "LIST_GUID": "{098e479b-f6bc-4314-a679-fcfc4df5a459}", "NOM_REG_NO": null }, "geometry": { "type": "Point", "coordinates": [ 146.821974775310792, -41.106815734745375 ] } },
{ "type": "Feature", "properties": { "COMFAC_ID": 32725, "PID": 1323223, "COM_TYPE1": "Hall\/ Community centre", "COM_TYPE2": "Online Access Centre", "NAME": "George Town Online Access Centre", "UFI": "{6eac197d-8309-4e10-8ff5-f49c0ba5e6bb}", "CREATED_ON": "2016-11-23 10:54:04", "LIST_GUID": "{4fdc0197-3701-48ce-8bf7-60ff4ede7eed}", "NOM_REG_NO": null }, "geometry": { "type": "Point", "coordinates": [ 146.821997961990462, -41.107049980271412 ] } },
{ "type": "Feature", "properties": { "COMFAC_ID": 2849, "PID": 2656169, "COM_TYPE1": "Church", "COM_TYPE2": "Anglican Church", "NAME": "St Mary Magdalene Anglican Church", "UFI": "{54cf44f2-f18f-4e04-b68e-4d9fd954a286}", "CREATED_ON": "2016-11-23 10:54:04", "LIST_GUID": "{20aca9dc-402e-4ce5-96df-2c807fa8dc01}", "NOM_REG_NO": null }, "geometry": { "type": "Point", "coordinates": [ 146.823806539172523, -41.107683324752387 ] } },
{ "type": "Feature", "properties": { "COMFAC_ID": 2861, "PID": 6449044, "COM_TYPE1": "Club", "COM_TYPE2": "Masonic", "NAME": "George Town Masonic Hall", "UFI": "{ef21b495-5950-4171-aa6a-223060741201}", "CREATED_ON": "2016-11-23 10:54:04", "LIST_GUID": "{bd44aabf-65d9-4a2c-87ba-9fa8bd674246}", "NOM_REG_NO": null }, "geometry": { "type": "Point", "coordinates": [ 146.824078582712445, -41.103640289154114 ] } },
{ "type": "Feature", "properties": { "COMFAC_ID": 61606, "PID": 6441114, "COM_TYPE1": "Tourist feature", "COM_TYPE2": "Historical", "NAME": "The Watch House", "UFI": "{1d4f1ef9-5e18-4464-a8c9-2061f2a842d8}", "CREATED_ON": "2016-11-23 10:54:04", "LIST_GUID": "{0c2f7b2d-d1df-4fbb-b540-1844d7fa5b44}", "NOM_REG_NO": null }, "geometry": { "type": "Point", "coordinates": [ 146.82496140433534, -41.106464600263386 ] } },
{ "type": "Feature", "properties": { "COMFAC_ID": 2855, "PID": 6440680, "COM_TYPE1": "Church", "COM_TYPE2": "Uniting Church", "NAME": "St Andrews Uniting Church", "UFI": "{5bd761da-e154-4647-939d-a3e39a85737c}", "CREATED_ON": "2016-11-23 10:54:04", "LIST_GUID": "{7cf86ec2-e0d3-4337-a9f3-ad02c3197ee5}", "NOM_REG_NO": null }, "geometry": { "type": "Point", "coordinates": [ 146.826719122166622, -41.105351337811243 ] } },
{ "type": "Feature", "properties": { "COMFAC_ID": 2889, "PID": 6446775, "COM_TYPE1": "Ground", "COM_TYPE2": "Park or reserve", "NAME": "Boongala Reserve", "UFI": "{39c6059d-210c-46f4-a20f-a6c2e97fdfd9}", "CREATED_ON": "2016-11-23 10:54:04", "LIST_GUID": "{f6654f20-0eae-46d7-907b-23773aa4d66c}", "NOM_REG_NO": "19639R" }, "geometry": { "type": "Point", "coordinates": [ 146.830571515740274, -41.099017140059679 ] } },
{ "type": "Feature", "properties": { "COMFAC_ID": 56467, "PID": 6453123, "COM_TYPE1": "Sports complex", "COM_TYPE2": "Other", "NAME": "George Town Woodchopping Arena", "UFI": "{c0a7c429-8e91-4e77-b9bc-a68d129768b4}", "CREATED_ON": "2016-11-23 10:54:04", "LIST_GUID": "{60780037-95e5-4bd9-bd71-0cf16b39686e}", "NOM_REG_NO": null }, "geometry": { "type": "Point", "coordinates": [ 146.83510437081668, -41.098235329206069 ] } },
{ "type": "Feature", "properties": { "COMFAC_ID": 2915, "PID": 7584424, "COM_TYPE1": "Accommodation", "COM_TYPE2": "Holiday Unit\/ Flat", "NAME": "Belfont Cottages", "UFI": "{6c6e94d6-c283-4e9d-afa2-52f72399820d}", "CREATED_ON": "2016-11-23 10:54:04", "LIST_GUID": "{c1ef7b2c-4e15-40ae-9251-5f569f8e0006}", "NOM_REG_NO": null }, "geometry": { "type": "Point", "coordinates": [ 146.808055019142699, -41.080112976830407 ] } },
{ "type": "Feature", "properties": { "COMFAC_ID": 2959, "PID": 6457677, "COM_TYPE1": "Accommodation", "COM_TYPE2": "Caravan Park", "NAME": "Low Head Caravan Park", "UFI": "{1f06bb00-397e-4d04-9f29-8ae352af2f21}", "CREATED_ON": "2016-11-23 10:54:04", "LIST_GUID": "{29b1aac3-b324-4bea-937a-51b92b6316d4}", "NOM_REG_NO": null }, "geometry": { "type": "Point", "coordinates": [ 146.812587318898466, -41.083998984513585 ] } },
{ "type": "Feature", "properties": { "COMFAC_ID": 2957, "PID": 1890690, "COM_TYPE1": "Transport", "COM_TYPE2": "Air", "NAME": "George Town Airstrip", "UFI": "{5b1452b8-a015-4a58-826a-9c3429e234f6}", "CREATED_ON": "2016-11-23 10:54:04", "LIST_GUID": "{85a0d1b5-ad06-4b54-9202-976a3159dbb9}", "NOM_REG_NO": null }, "geometry": { "type": "Point", "coordinates": [ 146.839191305943871, -41.079483486595102 ] } },
{ "type": "Feature", "properties": { "COMFAC_ID": 60944, "PID": 7686447, "COM_TYPE1": "Tourist feature", "COM_TYPE2": "Industrial", "NAME": "Hillwood Vineyard", "UFI": "{3ccac0ff-4689-47bd-b858-5bdb04541e61}", "CREATED_ON": "2016-11-23 10:54:04", "LIST_GUID": "{9e9b1ad0-767e-4068-9d2e-f0a66288313b}", "NOM_REG_NO": null }, "geometry": { "type": "Point", "coordinates": [ 146.985593365598419, -41.24572712180936 ] } },
{ "type": "Feature", "properties": { "COMFAC_ID": 63593, "PID": 0, "COM_TYPE1": "Tourist feature", "COM_TYPE2": "Historical", "NAME": "Mount Direction Historic Site", "UFI": "{7082125c-02d0-4c09-bbcd-5a5b10a46cc6}", "CREATED_ON": "2016-11-23 10:54:04", "LIST_GUID": "{5fe84eac-1542-4e8e-b16d-64488a2a15b4}", "NOM_REG_NO": null }, "geometry": { "type": "Point", "coordinates": [ 147.026724906612287, -41.241405131811533 ] } },
{ "type": "Feature", "properties": { "COMFAC_ID": 63091, "PID": 7453512, "COM_TYPE1": "Transport", "COM_TYPE2": "Air", "NAME": "Cranbourn Airfield", "UFI": "{53392a84-4309-408a-903d-bed74812b794}", "CREATED_ON": "2016-11-23 10:54:04", "LIST_GUID": "{fa3229e0-08e8-4b1d-bfa4-cca3a7b20fe5}", "NOM_REG_NO": null }, "geometry": { "type": "Point", "coordinates": [ 147.014560661194707, -41.160582383011295 ] } },
{ "type": "Feature", "properties": { "COMFAC_ID": 2892, "PID": 6440533, "COM_TYPE1": "Ground", "COM_TYPE2": "Park or reserve", "NAME": "Regent Square", "UFI": "{6194e315-96f2-42b6-a61f-8f89f7cddaf1}", "CREATED_ON": "2016-11-23 10:54:04", "LIST_GUID": "{9fd582a6-76da-4633-8771-50a357a25ea3}", "NOM_REG_NO": "19616B" }, "geometry": { "type": "Point", "coordinates": [ 146.821483660897201, -41.106031876640436 ] } },
{ "type": "Feature", "properties": { "COMFAC_ID": 2900, "PID": 6448981, "COM_TYPE1": "Medical service", "COM_TYPE2": "Dental clinic", "NAME": "George Town Dental Clinic", "UFI": "{dde74d6b-710e-4846-9278-463393f27e77}", "CREATED_ON": "2016-11-23 10:54:04", "LIST_GUID": "{f2bc19e8-24ad-4385-9f2f-b9ef509eb929}", "NOM_REG_NO": null }, "geometry": { "type": "Point", "coordinates": [ 146.821560608262899, -41.104593182180537 ] } },
{ "type": "Feature", "properties": { "COMFAC_ID": 2879, "PID": 6435662, "COM_TYPE1": "Council", "COM_TYPE2": "George Town", "NAME": "George Town Council Office", "UFI": "{4796a4ba-80f4-4387-b19c-c91fe9083f24}", "CREATED_ON": "2016-11-23 10:54:04", "LIST_GUID": "{36c3ddcc-3d5d-416b-a8a0-0a5806469d74}", "NOM_REG_NO": null }, "geometry": { "type": "Point", "coordinates": [ 146.823295555178134, -41.105357839567887 ] } },
{ "type": "Feature", "properties": { "COMFAC_ID": 2862, "PID": 6441050, "COM_TYPE1": "Club", "COM_TYPE2": "RSL and ex service", "NAME": "George Town RSLA Club", "UFI": "{104b1387-7a2a-4b9b-bfc6-7af85bc47a41}", "CREATED_ON": "2016-11-23 10:54:04", "LIST_GUID": "{63eff083-bb5e-4512-a9ca-a1c6d055eafd}", "NOM_REG_NO": null }, "geometry": { "type": "Point", "coordinates": [ 146.828049327403505, -41.106150085269803 ] } },
{ "type": "Feature", "properties": { "COMFAC_ID": 2856, "PID": 6439364, "COM_TYPE1": "Church", "COM_TYPE2": "Other Church", "NAME": "Cornerstone Family Church", "UFI": "{87822368-568b-405a-8564-dc74b92f905b}", "CREATED_ON": "2016-11-23 10:54:04", "LIST_GUID": "{0e063d48-d4c4-4e62-92ef-e6cf9e76d14d}", "NOM_REG_NO": null }, "geometry": { "type": "Point", "coordinates": [ 146.83101738276082, -41.105568222528881 ] } },
{ "type": "Feature", "properties": { "COMFAC_ID": 2891, "PID": 7316809, "COM_TYPE1": "Ground", "COM_TYPE2": "Park or reserve", "NAME": "Manduama Park", "UFI": "{36cf847e-284f-4be6-b216-ee6b8b17a565}", "CREATED_ON": "2016-11-23 10:54:04", "LIST_GUID": "{414557a9-e9cb-4e61-9b1d-8ef098f1905d}", "NOM_REG_NO": "19661M" }, "geometry": { "type": "Point", "coordinates": [ 146.831298089292943, -41.107568424675861 ] } },
{ "type": "Feature", "properties": { "COMFAC_ID": 2940, "PID": 7907748, "COM_TYPE1": "Ground", "COM_TYPE2": "Park or reserve", "NAME": "Gordon Square", "UFI": "{d6aeeb47-c030-4499-adf3-948b7d2c88ab}", "CREATED_ON": "2016-11-23 10:54:04", "LIST_GUID": "{16d0bef5-24c1-4dea-8dfc-b59c17c2b4f5}", "NOM_REG_NO": "19652K" }, "geometry": { "type": "Point", "coordinates": [ 146.831711138993143, -41.105265927258635 ] } },
{ "type": "Feature", "properties": { "COMFAC_ID": 56468, "PID": 6453123, "COM_TYPE1": "Club", "COM_TYPE2": "Equestrian", "NAME": "George Town Pony Club", "UFI": "{4daf342c-a22e-41dd-b878-6bca9d3276ac}", "CREATED_ON": "2016-11-23 10:54:04", "LIST_GUID": "{5c726a23-97ad-4ca0-b6c9-cc975b63498b}", "NOM_REG_NO": null }, "geometry": { "type": "Point", "coordinates": [ 146.833818546859021, -41.100026467814068 ] } },
{ "type": "Feature", "properties": { "COMFAC_ID": 2853, "PID": 6441894, "COM_TYPE1": "Church", "COM_TYPE2": "Jehovahs Witnesses", "NAME": "George Town Kingdom Hall", "UFI": "{98cde270-2ba1-46a1-9194-d30b5a86c57b}", "CREATED_ON": "2016-11-23 10:54:04", "LIST_GUID": "{d0ef1641-543b-4031-9b7d-ac9a2feeab47}", "NOM_REG_NO": null }, "geometry": { "type": "Point", "coordinates": [ 146.839253296286074, -41.108957446540842 ] } },
{ "type": "Feature", "properties": { "COMFAC_ID": 62465, "PID": 6442563, "COM_TYPE1": "Council", "COM_TYPE2": "George Town", "NAME": "George Town Waste Transfer Station", "UFI": "{cd624fbd-cf23-485b-938b-7045b3ac0736}", "CREATED_ON": "2016-11-23 10:54:04", "LIST_GUID": "{a3ef2b09-7270-4758-a88b-b9f9eaf0af9f}", "NOM_REG_NO": null }, "geometry": { "type": "Point", "coordinates": [ 146.851506706277519, -41.105784818922878 ] } },
{ "type": "Feature", "properties": { "COMFAC_ID": 63485, "PID": 2804061, "COM_TYPE1": "State Government", "COM_TYPE2": "Hydro Tasmania", "NAME": "Tamar Valley Power Station", "UFI": "{79c4b215-d7de-468e-b337-c9a8704f7302}", "CREATED_ON": "2016-11-23 10:54:04", "LIST_GUID": "{9cb0abeb-5b30-4984-9c7d-001755c6cb11}", "NOM_REG_NO": "43569S" }, "geometry": { "type": "Point", "coordinates": [ 146.905524619432327, -41.140087414960838 ] } },
{ "type": "Feature", "properties": { "COMFAC_ID": 21544, "PID": 2566251, "COM_TYPE1": "Tourist feature", "COM_TYPE2": "Industrial", "NAME": "Hillwood Strawberry Farm", "UFI": "{52985fd2-d081-414e-848f-e820f5857fc9}", "CREATED_ON": "2016-11-23 10:54:04", "LIST_GUID": "{d14a8960-a5ae-44cf-8c71-d61c966d92e2}", "NOM_REG_NO": null }, "geometry": { "type": "Point", "coordinates": [ 147.007449708454516, -41.243859877219208 ] } },
{ "type": "Feature", "properties": { "COMFAC_ID": 2956, "PID": 6471401, "COM_TYPE1": "Ground", "COM_TYPE2": "Sportsground", "NAME": "Pipers River Recreation Ground", "UFI": "{39f76945-a4a9-4da0-9286-675e84f4215f}", "CREATED_ON": "2016-11-23 10:54:04", "LIST_GUID": "{fee32ab7-7715-4821-816e-eef4c512a0e3}", "NOM_REG_NO": null }, "geometry": { "type": "Point", "coordinates": [ 147.091748199477507, -41.099893595090187 ] } },
{ "type": "Feature", "properties": { "COMFAC_ID": 46108, "PID": 7888567, "COM_TYPE1": "State police and emergency", "COM_TYPE2": "Fire station", "NAME": "Weymouth Fire Station", "UFI": "{a86e85fb-6596-4b4c-9f53-ecfd22442dfd}", "CREATED_ON": "2016-11-23 10:54:04", "LIST_GUID": "{0ba263e3-c758-4d8a-872f-c9ff60938dc0}", "NOM_REG_NO": null }, "geometry": { "type": "Point", "coordinates": [ 147.106881163381928, -41.016810523522949 ] } },
{ "type": "Feature", "properties": { "COMFAC_ID": 2941, "PID": 7907887, "COM_TYPE1": "Ground", "COM_TYPE2": "Sportsground", "NAME": "Weymouth Sports Ground", "UFI": "{7b679d8e-8060-4acd-9dd7-75a9fee28fad}", "CREATED_ON": "2016-11-23 10:54:04", "LIST_GUID": "{79950679-c3a0-450f-a31c-8757e449536a}", "NOM_REG_NO": null }, "geometry": { "type": "Point", "coordinates": [ 147.149820704120629, -41.017853657406782 ] } },
{ "type": "Feature", "properties": { "COMFAC_ID": 2931, "PID": 6470177, "COM_TYPE1": "Hall\/ Community centre", "COM_TYPE2": "Community, town or city hall", "NAME": "Weymouth Hall", "UFI": "{2583068e-8094-4ed5-b524-5b4ccad64d4a}", "CREATED_ON": "2016-11-23 10:54:04", "LIST_GUID": "{9d741fff-2a23-40aa-8264-842322a1a4a6}", "NOM_REG_NO": null }, "geometry": { "type": "Point", "coordinates": [ 147.154389315817753, -41.015177955904761 ] } },
{ "type": "Feature", "properties": { "COMFAC_ID": 2930, "PID": 7595270, "COM_TYPE1": "Hall\/ Community centre", "COM_TYPE2": "Community, town or city hall", "NAME": "Bellingham Hall", "UFI": "{c12fa4cf-422a-40b0-beaa-8b3bdb8cbeec}", "CREATED_ON": "2016-11-23 10:54:04", "LIST_GUID": "{7b039856-d13b-46b5-87ac-ea336ffd1a55}", "NOM_REG_NO": null }, "geometry": { "type": "Point", "coordinates": [ 147.163717518989017, -41.016732458460865 ] } },
{ "type": "Feature", "properties": { "COMFAC_ID": 63592, "PID": 0, "COM_TYPE1": "Tourist feature", "COM_TYPE2": "Historical", "NAME": "Low Head Historic Site", "UFI": "{8cb758ec-0fea-4518-be6e-ef90b320402a}", "CREATED_ON": "2016-11-23 10:54:04", "LIST_GUID": "{fc9fb620-5e6a-4121-9a45-92aa3fcb8f5e}", "NOM_REG_NO": "38947N" }, "geometry": { "type": "Point", "coordinates": [ 146.789548278373843, -41.055875797767271 ] } },
{ "type": "Feature", "properties": { "COMFAC_ID": 2847, "PID": 1465088, "COM_TYPE1": "Accommodation", "COM_TYPE2": "Hotel", "NAME": "Comfort Inn The Pier", "UFI": "{28006029-c19d-4675-8fe6-f47470b03d18}", "CREATED_ON": "2016-12-01 11:19:26", "LIST_GUID": "{b667aaa2-e322-4ab3-8635-9312f0057115}", "NOM_REG_NO": null }, "geometry": { "type": "Point", "coordinates": [ 146.821042044455965, -41.108668464654677 ] } },
{ "type": "Feature", "properties": { "COMFAC_ID": 62029, "PID": 6440533, "COM_TYPE1": "State police and emergency", "COM_TYPE2": "Community Fire Refuge", "NAME": "George Town Memorial Hall", "UFI": "{609ee121-e173-4939-adec-b8724335df33}", "CREATED_ON": "2016-11-23 10:54:04", "LIST_GUID": "{e54f277d-3271-45f3-9663-1899d368eb53}", "NOM_REG_NO": null }, "geometry": { "type": "Point", "coordinates": [ 146.822000227709879, -41.106859274018738 ] } },
{ "type": "Feature", "properties": { "COMFAC_ID": 59804, "PID": 6434352, "COM_TYPE1": "Accommodation", "COM_TYPE2": "Holiday Unit\/ Flat", "NAME": "York Cove", "UFI": "{03834b09-8ac7-4f57-b29e-45a45dd2b90c}", "CREATED_ON": "2016-11-23 10:54:04", "LIST_GUID": "{305a901f-808a-4b92-8b5b-274c6a7e9b0e}", "NOM_REG_NO": null }, "geometry": { "type": "Point", "coordinates": [ 146.823380279572177, -41.112019738186888 ] } },
{ "type": "Feature", "properties": { "COMFAC_ID": 32646, "PID": 6441165, "COM_TYPE1": "Financial institution", "COM_TYPE2": "Other", "NAME": "Heritage Isle Credit Union George Town", "UFI": "{8b2b2838-6fef-4e2f-9976-4e191fd65f8d}", "CREATED_ON": "2016-11-23 10:54:04", "LIST_GUID": "{55d99815-a90e-4db0-8018-8fae019cc40d}", "NOM_REG_NO": null }, "geometry": { "type": "Point", "coordinates": [ 146.823647506598235, -41.107033870206138 ] } },
{ "type": "Feature", "properties": { "COMFAC_ID": 2875, "PID": 6441157, "COM_TYPE1": "Community care", "COM_TYPE2": "Charity or welfare", "NAME": "St Vincent de Paul George Town", "UFI": "{7caf6020-897c-4d1e-a61a-58758eac8a8c}", "CREATED_ON": "2016-11-23 10:54:04", "LIST_GUID": "{4af8a883-d9ed-4923-8955-f4edffed5f73}", "NOM_REG_NO": null }, "geometry": { "type": "Point", "coordinates": [ 146.824035096436148, -41.106917294897663 ] } },
{ "type": "Feature", "properties": { "COMFAC_ID": 43467, "PID": 2094629, "COM_TYPE1": "Ground", "COM_TYPE2": "Park or reserve", "NAME": "Elizabeth Park", "UFI": "{d8c69caa-8d6d-4aee-ba6a-0f2b6f866020}", "CREATED_ON": "2016-11-23 10:54:04", "LIST_GUID": "{4f977911-8797-4f77-a01b-16756dbc62c1}", "NOM_REG_NO": "23720A" }, "geometry": { "type": "Point", "coordinates": [ 146.827269162672536, -41.108752879653153 ] } },
{ "type": "Feature", "properties": { "COMFAC_ID": 2851, "PID": 6439655, "COM_TYPE1": "Church", "COM_TYPE2": "Catholic Church", "NAME": "Our Lady Star of the Sea Catholic Church", "UFI": "{0265e142-e09e-4957-b698-a8056f752cfd}", "CREATED_ON": "2016-11-23 10:54:04", "LIST_GUID": "{34635d04-d9fe-47ee-9a2a-f160d4933afe}", "NOM_REG_NO": null }, "geometry": { "type": "Point", "coordinates": [ 146.827363640020764, -41.107754243179144 ] } },
{ "type": "Feature", "properties": { "COMFAC_ID": 59505, "PID": 6439639, "COM_TYPE1": "Ground", "COM_TYPE2": "Park or reserve", "NAME": "Max Harris Memorial Reserve", "UFI": "{3815e71b-8033-42fa-9301-908b4ef1b741}", "CREATED_ON": "2016-11-23 10:54:04", "LIST_GUID": "{fc930133-eaa8-4050-8683-af604d2f0a1f}", "NOM_REG_NO": "40474Y" }, "geometry": { "type": "Point", "coordinates": [ 146.827744816618861, -41.105351209342061 ] } },
{ "type": "Feature", "properties": { "COMFAC_ID": 21664, "PID": 1871297, "COM_TYPE1": "Tourist feature", "COM_TYPE2": "Information", "NAME": "George Town Visitor Information Centre", "UFI": "{0f0fd644-28db-4160-b194-fcf97c6c6352}", "CREATED_ON": "2016-11-23 10:54:04", "LIST_GUID": "{957a420b-211e-4b4d-9120-78cb60c716b2}", "NOM_REG_NO": null }, "geometry": { "type": "Point", "coordinates": [ 146.838760903434945, -41.10945278749854 ] } },
{ "type": "Feature", "properties": { "COMFAC_ID": 2975, "PID": 1871297, "COM_TYPE1": "Ground", "COM_TYPE2": "Park or reserve", "NAME": "Killara Reserve", "UFI": "{e7971f81-0f51-4daa-9c86-8a90b6ebb77e}", "CREATED_ON": "2016-11-23 10:54:04", "LIST_GUID": "{60f1e9c4-932d-4921-bf54-884bd1b97962}", "NOM_REG_NO": "19658A" }, "geometry": { "type": "Point", "coordinates": [ 146.838939503888469, -41.109429859558951 ] } },
{ "type": "Feature", "properties": { "COMFAC_ID": 2925, "PID": 2095461, "COM_TYPE1": "Ground", "COM_TYPE2": "Park or reserve", "NAME": "Perrin Reserve", "UFI": "{6e7e3a21-f5fc-4e34-91de-8b642237c027}", "CREATED_ON": "2016-11-23 10:54:04", "LIST_GUID": "{dd94f7e0-7cfd-446e-b94e-9c41c91a6317}", "NOM_REG_NO": "35857Q" }, "geometry": { "type": "Point", "coordinates": [ 146.804487893155567, -41.071243680943986 ] } },
{ "type": "Feature", "properties": { "COMFAC_ID": 2922, "PID": 1996866, "COM_TYPE1": "Community care", "COM_TYPE2": "Nursing and age home", "NAME": "Bruce Griffiths Complex", "UFI": "{3ba0770d-cc67-4758-9e9b-359971202379}", "CREATED_ON": "2016-11-23 10:54:04", "LIST_GUID": "{794e9818-e2a1-4d5e-ad69-7ee268f3f0e9}", "NOM_REG_NO": null }, "geometry": { "type": "Point", "coordinates": [ 146.808029783880272, -41.077906614875594 ] } },
{ "type": "Feature", "properties": { "COMFAC_ID": 50831, "PID": 7198603, "COM_TYPE1": "State Government", "COM_TYPE2": "Transend Networks", "NAME": "Temco Transend Sub Station", "UFI": "{ae4df4e4-ae1b-428f-b1ca-74a2e63730c5}", "CREATED_ON": "2016-11-23 10:54:04", "LIST_GUID": "{e26c83fd-f577-4549-a381-5f5fbc25397b}", "NOM_REG_NO": null }, "geometry": { "type": "Point", "coordinates": [ 146.855760826376184, -41.12976163643301 ] } },
{ "type": "Feature", "properties": { "COMFAC_ID": 50830, "PID": 2144243, "COM_TYPE1": "State Government", "COM_TYPE2": "Transend Networks", "NAME": "Comalco Transend Sub Station", "UFI": "{1d4d666f-94fc-42b8-af68-6d7d262f65c5}", "CREATED_ON": "2016-11-23 10:54:04", "LIST_GUID": "{f1b82c18-cc4e-415f-b39d-6f20b71159f4}", "NOM_REG_NO": null }, "geometry": { "type": "Point", "coordinates": [ 146.872563956185644, -41.124691890331476 ] } },
{ "type": "Feature", "properties": { "COMFAC_ID": 2969, "PID": 6465204, "COM_TYPE1": "State Government", "COM_TYPE2": "Other", "NAME": "TasWater -  Bell Bay Plant", "UFI": "{05a3f321-56e8-43dd-96c9-14acb5328231}", "CREATED_ON": "2016-11-23 10:54:04", "LIST_GUID": "{c0fb854a-e1d8-47cd-9b62-5828aad09bff}", "NOM_REG_NO": null }, "geometry": { "type": "Point", "coordinates": [ 146.874398521961069, -41.11435249394026 ] } },
{ "type": "Feature", "properties": { "COMFAC_ID": 2943, "PID": 7852767, "COM_TYPE1": "Hall\/ Community centre", "COM_TYPE2": "Community, town or city hall", "NAME": "Hillwood War Memorial Hall", "UFI": "{52915cb1-5fa2-471b-aa08-55383c3eb536}", "CREATED_ON": "2016-11-23 10:54:04", "LIST_GUID": "{ee7ecbc0-ec9a-4582-8996-658d597e3b8f}", "NOM_REG_NO": null }, "geometry": { "type": "Point", "coordinates": [ 146.974895408128361, -41.236211111481822 ] } },
{ "type": "Feature", "properties": { "COMFAC_ID": 21428, "PID": 7852767, "COM_TYPE1": "Club", "COM_TYPE2": "Football", "NAME": "Hillwood Football Club", "UFI": "{500278ac-0d83-4fcc-8391-aec5cbabc4a6}", "CREATED_ON": "2016-11-23 10:54:04", "LIST_GUID": "{9e70f734-35c6-4dc4-a399-20a7a5929106}", "NOM_REG_NO": null }, "geometry": { "type": "Point", "coordinates": [ 146.975740521984079, -41.234854896644741 ] } },
{ "type": "Feature", "properties": { "COMFAC_ID": 62651, "PID": 2790181, "COM_TYPE1": "Accommodation", "COM_TYPE2": "Holiday Unit\/ Flat", "NAME": "Sunsets on Tamar", "UFI": "{0bc9fa42-78de-4bd6-a8e3-dc2e52e39599}", "CREATED_ON": "2016-11-23 10:54:04", "LIST_GUID": "{edbeaa6e-e2d6-4222-8ab8-99d06214a943}", "NOM_REG_NO": null }, "geometry": { "type": "Point", "coordinates": [ 146.983498929865675, -41.245985294037496 ] } },
{ "type": "Feature", "properties": { "COMFAC_ID": 2945, "PID": 1810232, "COM_TYPE1": "State police and emergency", "COM_TYPE2": "Fire station", "NAME": "Hillwood Fire Station", "UFI": "{8478283f-31cb-4090-a5b9-c2c966b57844}", "CREATED_ON": "2016-11-23 10:54:04", "LIST_GUID": "{512bd4d4-c588-4ae4-931b-bb2a8ec462e9}", "NOM_REG_NO": null }, "geometry": { "type": "Point", "coordinates": [ 146.995719695264711, -41.238032402891051 ] } },
{ "type": "Feature", "properties": { "COMFAC_ID": 2961, "PID": 1803454, "COM_TYPE1": "Commonwealth government", "COM_TYPE2": "Defence", "NAME": "Stony Head Artillery Range", "UFI": "{1ffb9553-2f2b-4fb1-a80b-97a22d71f212}", "CREATED_ON": "2016-11-23 10:54:04", "LIST_GUID": "{9b59ae38-4b81-40b0-a448-70c1542b2cc8}", "NOM_REG_NO": null }, "geometry": { "type": "Point", "coordinates": [ 146.98601840241227, -41.028337815164001 ] } },
{ "type": "Feature", "properties": { "COMFAC_ID": 21425, "PID": 1864310, "COM_TYPE1": "Club", "COM_TYPE2": "Golf", "NAME": "Tam O'Shanter Golf Club", "UFI": "{b46b219e-9575-42cf-9d25-0024eaaa5fdb}", "CREATED_ON": "2016-11-23 10:54:04", "LIST_GUID": "{93a36c15-547d-4234-9ad9-65b3a59c023d}", "NOM_REG_NO": null }, "geometry": { "type": "Point", "coordinates": [ 147.095584560175809, -41.003048369061105 ] } },
{ "type": "Feature", "properties": { "COMFAC_ID": 21644, "PID": 2242636, "COM_TYPE1": "Accommodation", "COM_TYPE2": "Holiday Cabin", "NAME": "Pipers Brook", "UFI": "{b16e818f-273e-4228-ad9b-8fb2cc6a2bb3}", "CREATED_ON": "2016-11-23 10:54:04", "LIST_GUID": "{7e6d30fe-820a-41e6-8676-6d12c170791f}", "NOM_REG_NO": null }, "geometry": { "type": "Point", "coordinates": [ 147.195658511476779, -41.071334405461421 ] } },
{ "type": "Feature", "properties": { "COMFAC_ID": 21584, "PID": 7852505, "COM_TYPE1": "Tourist feature", "COM_TYPE2": "Other", "NAME": "Nocturnal Tours", "UFI": "{a62867bd-6f32-4f8b-8131-48fda6b36008}", "CREATED_ON": "2016-11-23 10:54:04", "LIST_GUID": "{fce3d1ee-6ba8-4105-9147-fdebf8a25d24}", "NOM_REG_NO": null }, "geometry": { "type": "Point", "coordinates": [ 146.791567444435742, -41.058881943761733 ] } },
{ "type": "Feature", "properties": { "COMFAC_ID": 2912, "PID": 6448922, "COM_TYPE1": "Tourist feature", "COM_TYPE2": "Historical", "NAME": "The Grove Historic House", "UFI": "{b903d2c7-3bc3-4df2-a30f-29c54ff41529}", "CREATED_ON": "2016-11-23 10:54:04", "LIST_GUID": "{eb03e882-3cc2-4d17-9a46-0853aee8856d}", "NOM_REG_NO": null }, "geometry": { "type": "Point", "coordinates": [ 146.819056133641652, -41.105430422639856 ] } },
{ "type": "Feature", "properties": { "COMFAC_ID": 2896, "PID": 6438759, "COM_TYPE1": "Hall\/ Community centre", "COM_TYPE2": "Community centre", "NAME": "George Town Community Centre", "UFI": "{02f1dbb7-6a69-4e1d-9425-637aa2a5c563}", "CREATED_ON": "2016-11-23 10:54:04", "LIST_GUID": "{1a2fef44-6463-45c5-9f5e-472b412a9765}", "NOM_REG_NO": null }, "geometry": { "type": "Point", "coordinates": [ 146.826891991145544, -41.104379113559915 ] } },
{ "type": "Feature", "properties": { "COMFAC_ID": 2885, "PID": 6446361, "COM_TYPE1": "Education and training", "COM_TYPE2": "Private", "NAME": "Star of the Sea Catholic College", "UFI": "{541fbbfa-4b6e-4d86-862c-a549fdfb8d0b}", "CREATED_ON": "2016-11-23 10:54:04", "LIST_GUID": "{fcb6dc72-cf6f-4514-8f59-edbabbb8d980}", "NOM_REG_NO": null }, "geometry": { "type": "Point", "coordinates": [ 146.829363655149194, -41.108185745207663 ] } },
{ "type": "Feature", "properties": { "COMFAC_ID": 2974, "PID": 6435734, "COM_TYPE1": "Ground", "COM_TYPE2": "Park or reserve", "NAME": "Currong Reserve", "UFI": "{96039766-b634-4ecc-b063-94f7813835e0}", "CREATED_ON": "2016-11-23 10:54:04", "LIST_GUID": "{c4c85b33-7b39-4dd6-ad58-36ef1be9f0f9}", "NOM_REG_NO": "19645M" }, "geometry": { "type": "Point", "coordinates": [ 146.829685667753836, -41.111810957374935 ] } },
{ "type": "Feature", "properties": { "COMFAC_ID": 2867, "PID": 1715171, "COM_TYPE1": "Club", "COM_TYPE2": "Tennis", "NAME": "George Town Tennis Club", "UFI": "{4cc33fab-ae89-46ea-83c7-c7d14f327156}", "CREATED_ON": "2016-11-23 10:54:04", "LIST_GUID": "{8ea8f536-6120-424b-b29b-cc4b82b7ccef}", "NOM_REG_NO": null }, "geometry": { "type": "Point", "coordinates": [ 146.832449334584481, -41.0976255974456 ] } },
{ "type": "Feature", "properties": { "COMFAC_ID": 2882, "PID": 6445633, "COM_TYPE1": "Education and training", "COM_TYPE2": "Primary and infant", "NAME": "South George Town Primary School", "UFI": "{4e4478aa-2dff-469e-8490-41bca53ef667}", "CREATED_ON": "2016-11-23 10:54:04", "LIST_GUID": "{4d562eb8-370d-4dcc-b688-cbea89137e90}", "NOM_REG_NO": null }, "geometry": { "type": "Point", "coordinates": [ 146.83321444056952, -41.11279792594992 ] } },
{ "type": "Feature", "properties": { "COMFAC_ID": 2864, "PID": 6453123, "COM_TYPE1": "Club", "COM_TYPE2": "Scout", "NAME": "George Town Scout Hall", "UFI": "{a384498e-f029-404c-9bec-9d61c0710200}", "CREATED_ON": "2016-11-23 10:54:04", "LIST_GUID": "{377bd4f6-19e6-4c5a-87b1-12bca7c5fff5}", "NOM_REG_NO": null }, "geometry": { "type": "Point", "coordinates": [ 146.833466428106476, -41.097880973732011 ] } },
{ "type": "Feature", "properties": { "COMFAC_ID": 60440, "PID": 7480035, "COM_TYPE1": "Accommodation", "COM_TYPE2": "Hotel", "NAME": "George Town Motor Inn", "UFI": "{a6bd4414-a7b5-425b-ae22-45f5a4ebf7c9}", "CREATED_ON": "2016-11-23 10:54:04", "LIST_GUID": "{46775851-5270-4dc0-8a5e-31e03d6a9d13}", "NOM_REG_NO": null }, "geometry": { "type": "Point", "coordinates": [ 146.835441243021165, -41.107321974637834 ] } },
{ "type": "Feature", "properties": { "COMFAC_ID": 32685, "PID": 1862024, "COM_TYPE1": "Council", "COM_TYPE2": "George Town", "NAME": "George Town Council Works Depot", "UFI": "{538117f0-fe8c-4174-a490-dad0b0d5834d}", "CREATED_ON": "2016-11-23 10:54:04", "LIST_GUID": "{65b24de1-8dcd-4b6e-adfe-3cd61afd502d}", "NOM_REG_NO": null }, "geometry": { "type": "Point", "coordinates": [ 146.836414232982463, -41.11440391173894 ] } },
{ "type": "Feature", "properties": { "COMFAC_ID": 2937, "PID": 1715155, "COM_TYPE1": "Ground", "COM_TYPE2": "Burial ground", "NAME": "George Town Cemetery", "UFI": "{23969e48-84d0-4b0f-8785-d17f97c95046}", "CREATED_ON": "2016-11-23 10:54:04", "LIST_GUID": "{064d401d-cdc9-4941-b7df-202b7a983e45}", "NOM_REG_NO": null }, "geometry": { "type": "Point", "coordinates": [ 146.839008887933602, -41.103658172622737 ] } },
{ "type": "Feature", "properties": { "COMFAC_ID": 2858, "PID": 1325587, "COM_TYPE1": "Club", "COM_TYPE2": "Cricket", "NAME": "George Town Cricket Club", "UFI": "{4b224837-c5bb-410b-a28c-03ace3d4c4f3}", "CREATED_ON": "2016-11-23 10:54:04", "LIST_GUID": "{eed7b525-c68b-413f-8462-a8f14f10e62b}", "NOM_REG_NO": null }, "geometry": { "type": "Point", "coordinates": [ 146.834345540249757, -41.095097545382671 ] } },
{ "type": "Feature", "properties": { "COMFAC_ID": 2963, "PID": 7198611, "COM_TYPE1": "State police and emergency", "COM_TYPE2": "Fire station", "NAME": "Bell Bay Fire Station", "UFI": "{fe3fb6f8-15c6-4ff6-965f-65cd97f369bc}", "CREATED_ON": "2016-11-23 10:54:04", "LIST_GUID": "{c2f53f2f-2a81-4431-accc-0c3dbe48d962}", "NOM_REG_NO": null }, "geometry": { "type": "Point", "coordinates": [ 146.857890734600204, -41.125786821647353 ] } },
{ "type": "Feature", "properties": { "COMFAC_ID": 63970, "PID": 7750322, "COM_TYPE1": "Tourist feature", "COM_TYPE2": "Cultural", "NAME": "Hillwood Road Meditation Skills Centre", "UFI": "{26562943-7d3c-4df1-b8d3-d64659a51d95}", "CREATED_ON": "2017-05-23 17:10:14", "LIST_GUID": "{6d2a5434-93b7-4c22-9488-3b78a529760f}", "NOM_REG_NO": null }, "geometry": { "type": "Point", "coordinates": [ 146.982273699534005, -41.232191576967203 ] } },
{ "type": "Feature", "properties": { "COMFAC_ID": 21564, "PID": 6472180, "COM_TYPE1": "Tourist feature", "COM_TYPE2": "Industrial", "NAME": "Bay of Fires Winery", "UFI": "{feee611d-6319-4048-9d18-e5a72cc9830e}", "CREATED_ON": "2016-11-23 10:54:04", "LIST_GUID": "{d0016aef-04df-4475-815b-d2c59bc74d05}", "NOM_REG_NO": null }, "geometry": { "type": "Point", "coordinates": [ 147.097134730161144, -41.112646103432702 ] } },
{ "type": "Feature", "properties": { "COMFAC_ID": 2960, "PID": 1864310, "COM_TYPE1": "Sports complex", "COM_TYPE2": "Golf", "NAME": "Tam O'Shanter Golf Course", "UFI": "{fd35f676-a08d-473a-8761-6c2971261d46}", "CREATED_ON": "2016-11-23 10:54:04", "LIST_GUID": "{4fcbf926-dc89-4275-96ab-61445e3ee81d}", "NOM_REG_NO": null }, "geometry": { "type": "Point", "coordinates": [ 147.092718944347723, -41.001227397979271 ] } },
{ "type": "Feature", "properties": { "COMFAC_ID": 60967, "PID": 2242636, "COM_TYPE1": "Tourist feature", "COM_TYPE2": "Industrial", "NAME": "Pipers Brook Vineyard", "UFI": "{9b32e89e-495c-49f8-845f-a4353dab382a}", "CREATED_ON": "2016-11-23 10:54:04", "LIST_GUID": "{7b996637-ed3a-4360-a04b-fbde73b1319e}", "NOM_REG_NO": null }, "geometry": { "type": "Point", "coordinates": [ 147.199211031557354, -41.069943419400516 ] } },
{ "type": "Feature", "properties": { "COMFAC_ID": 2868, "PID": 6437668, "COM_TYPE1": "Club", "COM_TYPE2": "Yacht and sailing", "NAME": "George Town Yacht Club", "UFI": "{18a6c58e-bb2d-477b-bc21-b24decdfea53}", "CREATED_ON": "2016-11-23 10:54:04", "LIST_GUID": "{748ff07b-b655-4bf4-a852-8f35e3305982}", "NOM_REG_NO": null }, "geometry": { "type": "Point", "coordinates": [ 146.818918622635351, -41.109468350736869 ] } },
{ "type": "Feature", "properties": { "COMFAC_ID": 2846, "PID": 6440576, "COM_TYPE1": "Accommodation", "COM_TYPE2": "Hotel", "NAME": "George Town Heritage Hotel", "UFI": "{173a7e99-5066-48d4-8f80-7f13bd49bcbd}", "CREATED_ON": "2016-11-23 10:54:04", "LIST_GUID": "{11b6f7be-c9e0-4753-a0f9-19cd6f5c1534}", "NOM_REG_NO": null }, "geometry": { "type": "Point", "coordinates": [ 146.824310541832233, -41.106260820035345 ] } },
{ "type": "Feature", "properties": { "COMFAC_ID": 2850, "PID": 6439452, "COM_TYPE1": "Church", "COM_TYPE2": "Baptist Church", "NAME": "George Town Baptist Church", "UFI": "{585e6b2d-e9c3-4d2d-8549-c0ec1877edda}", "CREATED_ON": "2016-11-23 10:54:04", "LIST_GUID": "{d7e73eea-1b90-4dd0-89c5-5d7002fd9848}", "NOM_REG_NO": null }, "geometry": { "type": "Point", "coordinates": [ 146.82658085431467, -41.104894168477124 ] } },
{ "type": "Feature", "properties": { "COMFAC_ID": 2857, "PID": 6439620, "COM_TYPE1": "Club", "COM_TYPE2": "Bowls", "NAME": "George Town Bowls Club", "UFI": "{bae7787a-8739-42ec-bfd5-cbf6d21774b8}", "CREATED_ON": "2016-11-23 10:54:04", "LIST_GUID": "{8d1fc7e9-4f8e-4754-95c5-c3d2afe91138}", "NOM_REG_NO": null }, "geometry": { "type": "Point", "coordinates": [ 146.828303915545831, -41.10941966271087 ] } },
{ "type": "Feature", "properties": { "COMFAC_ID": 2935, "PID": 6441595, "COM_TYPE1": "Transport", "COM_TYPE2": "Service Station", "NAME": "Shell George Town", "UFI": "{f6675f56-82a7-4b0f-8318-4a7a83057e91}", "CREATED_ON": "2016-11-23 10:54:04", "LIST_GUID": "{d9d023a9-a0e4-4d7f-972c-2ab6c7f75bfd}", "NOM_REG_NO": null }, "geometry": { "type": "Point", "coordinates": [ 146.831236456108741, -41.108322021153299 ] } },
{ "type": "Feature", "properties": { "COMFAC_ID": 2905, "PID": 1996700, "COM_TYPE1": "Sports complex", "COM_TYPE2": "Other", "NAME": "Max Leslie Cycling Track", "UFI": "{bfa12123-1efc-49f6-84f2-082ff4d1ee3a}", "CREATED_ON": "2016-11-23 10:54:04", "LIST_GUID": "{e3e1c935-3c54-44a7-83f8-f46f23ccc4e6}", "NOM_REG_NO": null }, "geometry": { "type": "Point", "coordinates": [ 146.834459240409501, -41.099093090284711 ] } },
{ "type": "Feature", "properties": { "COMFAC_ID": 2894, "PID": 6453123, "COM_TYPE1": "Ground", "COM_TYPE2": "Sportsground", "NAME": "George Town Sports Complex", "UFI": "{e7d942c3-7ca9-4fe2-a68e-cefd226d8334}", "CREATED_ON": "2016-11-23 10:54:04", "LIST_GUID": "{919b0911-e8ee-4e84-a759-81e719700ad7}", "NOM_REG_NO": null }, "geometry": { "type": "Point", "coordinates": [ 146.834465077363205, -41.096796632714216 ] } },
{ "type": "Feature", "properties": { "COMFAC_ID": 2976, "PID": 7852599, "COM_TYPE1": "Ground", "COM_TYPE2": "Park or reserve", "NAME": "Monomeeth Reserve", "UFI": "{0835fc11-ace7-41f2-8be4-34e98a8147c4}", "CREATED_ON": "2016-11-23 10:54:04", "LIST_GUID": "{3877c299-aa81-4eab-af3e-14e404068298}", "NOM_REG_NO": "19668E" }, "geometry": { "type": "Point", "coordinates": [ 146.834735144856722, -41.110098483258554 ] } },
{ "type": "Feature", "properties": { "COMFAC_ID": 2958, "PID": 1466638, "COM_TYPE1": "State Government", "COM_TYPE2": "Other", "NAME": "TasWater - Wastewater Treatment Plant", "UFI": "{6305d72a-9636-4a82-8568-0ff5329bb52c}", "CREATED_ON": "2016-11-23 10:54:04", "LIST_GUID": "{4d615120-9fc3-412d-8c2e-93cc596bc21d}", "NOM_REG_NO": null }, "geometry": { "type": "Point", "coordinates": [ 146.844787802298811, -41.127639774909902 ] } },
{ "type": "Feature", "properties": { "COMFAC_ID": 2973, "PID": 6459605, "COM_TYPE1": "Ground", "COM_TYPE2": "Sportsground", "NAME": "Beechford Sports Ground", "UFI": "{87949a39-6945-43be-b54e-5b1fafc57fe4}", "CREATED_ON": "2016-11-23 10:54:04", "LIST_GUID": "{c8f59522-e3e3-41e1-abf1-3360fcc60a75}", "NOM_REG_NO": null }, "geometry": { "type": "Point", "coordinates": [ 146.947531889835375, -41.027498994009989 ] } },
{ "type": "Feature", "properties": { "COMFAC_ID": 2949, "PID": 6472797, "COM_TYPE1": "Hall\/ Community centre", "COM_TYPE2": "Other", "NAME": "Pipers Brook Hall", "UFI": "{251fe99d-20b2-4ea0-af5a-86dd5a51a4c3}", "CREATED_ON": "2016-11-23 10:54:04", "LIST_GUID": "{03741d00-b543-4291-a338-c817ba63eee5}", "NOM_REG_NO": null }, "geometry": { "type": "Point", "coordinates": [ 147.182020352814419, -41.083182810798888 ] } },
{ "type": "Feature", "properties": { "COMFAC_ID": 2951, "PID": 2167314, "COM_TYPE1": "Tourist feature", "COM_TYPE2": "Industrial", "NAME": "Kreglinger Wine Estates", "UFI": "{8d0c6c3c-8ed4-4c02-b8a4-d0da51b9345e}", "CREATED_ON": "2016-11-23 10:54:04", "LIST_GUID": "{06de64bd-fd81-4435-8be0-64d100c90be5}", "NOM_REG_NO": null }, "geometry": { "type": "Point", "coordinates": [ 147.204569378557665, -41.095673690446674 ] } }
]
}
