{
"type": "FeatureCollection",
"crs": { "type": "name", "properties": { "name": "urn:ogc:def:crs:OGC:1.3:CRS84" } },
"features": [
{ "type": "Feature", "properties": { "COMFAC_ID": 519, "PID": 6414984, "COM_TYPE1": "Club", "COM_TYPE2": "Other social", "NAME": "Mathinna Country Club Inc", "UFI": "{d1126929-138d-4819-be12-8b0fd1bec069}", "CREATED_ON": "2016-11-23 10:54:04", "LIST_GUID": "{6661efee-e5c7-49e2-b6e4-1aa63bf67300}", "NOM_REG_NO": null }, "geometry": { "type": "Point", "coordinates": [ 147.888280386951465, -41.477489994199018 ] } },
{ "type": "Feature", "properties": { "COMFAC_ID": 35665, "PID": 7689656, "COM_TYPE1": "State police and emergency", "COM_TYPE2": "Fire station", "NAME": "Weldborough Fire Station", "UFI": "{3bd1e3ad-e568-437f-8fad-c1d6510fec0f}", "CREATED_ON": "2016-11-23 10:54:04", "LIST_GUID": "{dfb10e03-88a8-4c8d-beb0-e2734719b2e0}", "NOM_REG_NO": null }, "geometry": { "type": "Point", "coordinates": [ 147.904207625369565, -41.193322073556992 ] } },
{ "type": "Feature", "properties": { "COMFAC_ID": 60367, "PID": 6801212, "COM_TYPE1": "Accommodation", "COM_TYPE2": "Camp and Camping Ground", "NAME": "Weldborough Camping Ground", "UFI": "{1f9b5dce-45c1-430d-90a6-15142847656c}", "CREATED_ON": "2016-11-23 10:54:04", "LIST_GUID": "{a7cd1d22-aa36-422d-b83e-ade552f60b7f}", "NOM_REG_NO": null }, "geometry": { "type": "Point", "coordinates": [ 147.905210783287004, -41.193922416348144 ] } },
{ "type": "Feature", "properties": { "COMFAC_ID": 63989, "PID": 6801001, "COM_TYPE1": "Accommodation", "COM_TYPE2": "Holiday Unit\/ Flat", "NAME": "A Place To Stay in Weldborough", "UFI": "{dd2893c3-17f1-423c-b1c0-68232fe9574c}", "CREATED_ON": "2017-05-30 12:11:40", "LIST_GUID": "{72f15ca6-140f-442f-9409-6768695c1c58}", "NOM_REG_NO": null }, "geometry": { "type": "Point", "coordinates": [ 147.907798173832816, -41.196513639275558 ] } },
{ "type": "Feature", "properties": { "COMFAC_ID": 13004, "PID": 6412540, "COM_TYPE1": "Accommodation", "COM_TYPE2": "Holiday Unit\/ Flat", "NAME": "Glenesk Holiday Cottage", "UFI": "{0164b7a0-14e6-4c71-b036-57743a30a88f}", "CREATED_ON": "2016-11-23 10:54:04", "LIST_GUID": "{8f474d76-bc89-48c9-b8b9-714061f0f0ab}", "NOM_REG_NO": null }, "geometry": { "type": "Point", "coordinates": [ 147.966326236668948, -41.638216131261231 ] } },
{ "type": "Feature", "properties": { "COMFAC_ID": 396, "PID": 1837101, "COM_TYPE1": "Church", "COM_TYPE2": "Anglican Church", "NAME": "St Peters Anglican Church", "UFI": "{8be3aaa6-dde6-4f8a-ad3e-6c547cf44712}", "CREATED_ON": "2016-11-23 10:54:04", "LIST_GUID": "{43038ec5-1faa-47cc-8f15-47dbec1e5e5b}", "NOM_REG_NO": null }, "geometry": { "type": "Point", "coordinates": [ 147.966396775025657, -41.639414263933936 ] } },
{ "type": "Feature", "properties": { "COMFAC_ID": 408, "PID": 6412516, "COM_TYPE1": "Commonwealth government", "COM_TYPE2": "Post offices and agencies", "NAME": "Fingal Post Office", "UFI": "{601192c1-6166-46a3-b3f6-22615827bcef}", "CREATED_ON": "2016-11-23 10:54:04", "LIST_GUID": "{44d761c2-9cfd-4fd8-9d11-17c517ffd32b}", "NOM_REG_NO": null }, "geometry": { "type": "Point", "coordinates": [ 147.966695331813838, -41.638486581792861 ] } },
{ "type": "Feature", "properties": { "COMFAC_ID": 62007, "PID": 6410414, "COM_TYPE1": "State police and emergency", "COM_TYPE2": "Community Fire Refuge", "NAME": "Fingal Valley Football Club", "UFI": "{7cc7a4f7-9d83-47c7-9952-d26295b9847e}", "CREATED_ON": "2016-11-23 10:54:04", "LIST_GUID": "{539b175a-c926-46ff-8148-a6f1f09c4a0a}", "NOM_REG_NO": null }, "geometry": { "type": "Point", "coordinates": [ 147.967464726340495, -41.636152839600989 ] } },
{ "type": "Feature", "properties": { "COMFAC_ID": 23086, "PID": 6412663, "COM_TYPE1": "State Government", "COM_TYPE2": "Justice", "NAME": "Fingal Court House", "UFI": "{ecd196d4-4e10-4599-894c-e38f3f1d88b1}", "CREATED_ON": "2016-11-23 10:54:04", "LIST_GUID": "{74437904-5b93-488c-9e05-7e9ccfc75ad0}", "NOM_REG_NO": null }, "geometry": { "type": "Point", "coordinates": [ 147.970685757682418, -41.638287482559655 ] } },
{ "type": "Feature", "properties": { "COMFAC_ID": 23185, "PID": 2054862, "COM_TYPE1": "Community care", "COM_TYPE2": "Creche", "NAME": "Fingal Valley Neighbourhood House Play Centre", "UFI": "{dc53d432-a4bc-49b7-9cd2-d9410357c1cf}", "CREATED_ON": "2016-11-23 10:54:04", "LIST_GUID": "{33613719-e459-4e9f-ad47-a36211454530}", "NOM_REG_NO": null }, "geometry": { "type": "Point", "coordinates": [ 147.970798535652847, -41.638601777980774 ] } },
{ "type": "Feature", "properties": { "COMFAC_ID": 517, "PID": 6805467, "COM_TYPE1": "Church", "COM_TYPE2": "Other Church", "NAME": "Goulds Country Union Church", "UFI": "{547bfafe-9a7f-4005-adf6-923bb9749ca3}", "CREATED_ON": "2016-11-23 10:54:04", "LIST_GUID": "{73fe725b-a873-41c7-9a72-827c6a87af59}", "NOM_REG_NO": null }, "geometry": { "type": "Point", "coordinates": [ 148.071752922544334, -41.247829861134335 ] } },
{ "type": "Feature", "properties": { "COMFAC_ID": 63799, "PID": 1478268, "COM_TYPE1": "Tourist feature", "COM_TYPE2": "Cultural", "NAME": "Vortex Healing Centre", "UFI": "{5cc66d87-ddf3-4574-afa9-9745aca1c702}", "CREATED_ON": "2016-12-01 11:19:26", "LIST_GUID": "{eb7d2522-41ee-4a56-8fe9-54dd06f11902}", "NOM_REG_NO": null }, "geometry": { "type": "Point", "coordinates": [ 148.221377309364271, -41.643314474910945 ] } },
{ "type": "Feature", "properties": { "COMFAC_ID": 35807, "PID": 6402553, "COM_TYPE1": "Medical service", "COM_TYPE2": "Family & child health centre", "NAME": "St Marys Child Health Centre", "UFI": "{c4c1e4e8-8ed2-48a4-8c48-5d829363deea}", "CREATED_ON": "2016-11-23 10:54:04", "LIST_GUID": "{be192201-f9fc-4036-9f8f-1b8aab680625}", "NOM_REG_NO": null }, "geometry": { "type": "Point", "coordinates": [ 148.181392678205071, -41.57585951294169 ] } },
{ "type": "Feature", "properties": { "COMFAC_ID": 23105, "PID": 7298946, "COM_TYPE1": "State Government", "COM_TYPE2": "Transend Networks", "NAME": "St Marys Transend Sub Station", "UFI": "{17c7e95b-25a7-4acd-b93d-cac4ca1ed018}", "CREATED_ON": "2016-11-23 10:54:04", "LIST_GUID": "{9770df3b-20f7-4508-b5ec-33d75b537d9f}", "NOM_REG_NO": null }, "geometry": { "type": "Point", "coordinates": [ 148.183818158859935, -41.592281391324171 ] } },
{ "type": "Feature", "properties": { "COMFAC_ID": 42675, "PID": 2114538, "COM_TYPE1": "Ground", "COM_TYPE2": "Sportsground", "NAME": "St Marys Recreation Ground", "UFI": "{22e2dafb-89a2-4417-a86b-60b0be2ff393}", "CREATED_ON": "2016-11-23 10:54:04", "LIST_GUID": "{154f3e14-0840-4121-b728-9507cb0fd68d}", "NOM_REG_NO": null }, "geometry": { "type": "Point", "coordinates": [ 148.184262957847665, -41.587079706244445 ] } },
{ "type": "Feature", "properties": { "COMFAC_ID": 35929, "PID": 2098750, "COM_TYPE1": "Financial institution", "COM_TYPE2": "Commonwealth", "NAME": "Commonwealth Bank St Marys", "UFI": "{4ca43fd3-7006-482f-9997-220aec0bbcf9}", "CREATED_ON": "2016-11-23 10:54:04", "LIST_GUID": "{5f1a8c46-651d-4bf2-8bdc-5504b1fe2ed8}", "NOM_REG_NO": null }, "geometry": { "type": "Point", "coordinates": [ 148.184676178351197, -41.580312646450409 ] } },
{ "type": "Feature", "properties": { "COMFAC_ID": 48330, "PID": 6402780, "COM_TYPE1": "Club", "COM_TYPE2": "Other sporting", "NAME": "St Marys Sports Centre", "UFI": "{f17afab1-7fcd-42c0-b53f-116e81a032b1}", "CREATED_ON": "2016-11-23 10:54:04", "LIST_GUID": "{96e9ce95-0221-44fc-a96a-b7b533509437}", "NOM_REG_NO": null }, "geometry": { "type": "Point", "coordinates": [ 148.187605912662804, -41.586276141100271 ] } },
{ "type": "Feature", "properties": { "COMFAC_ID": 506, "PID": 6404583, "COM_TYPE1": "Transport", "COM_TYPE2": "Service Station", "NAME": "Caltex St Marys", "UFI": "{d3899c9b-450e-46ea-900a-de5127162866}", "CREATED_ON": "2016-11-23 10:54:04", "LIST_GUID": "{9a4bf9c5-b20c-42bd-9420-5372e981268f}", "NOM_REG_NO": null }, "geometry": { "type": "Point", "coordinates": [ 148.188125335360951, -41.578663394527418 ] } },
{ "type": "Feature", "properties": { "COMFAC_ID": 63347, "PID": 2949009, "COM_TYPE1": "Tourist feature", "COM_TYPE2": "Industrial", "NAME": "Priory Ridge Wines", "UFI": "{d5705e43-2e99-4631-9f8e-4688b290a628}", "CREATED_ON": "2016-11-23 10:54:04", "LIST_GUID": "{a23c7694-4747-4e39-89e5-bed37bb9b9b1}", "NOM_REG_NO": null }, "geometry": { "type": "Point", "coordinates": [ 148.212866094876716, -41.291857925605242 ] } },
{ "type": "Feature", "properties": { "COMFAC_ID": 35445, "PID": 2598982, "COM_TYPE1": "Tourist feature", "COM_TYPE2": "Industrial", "NAME": "Eureka Farm", "UFI": "{9d372087-1541-4a17-8efc-ac53301a20f2}", "CREATED_ON": "2016-11-23 10:54:04", "LIST_GUID": "{f7e5cf2f-6010-4cea-a63b-95f181fbedf0}", "NOM_REG_NO": null }, "geometry": { "type": "Point", "coordinates": [ 148.243892273934875, -41.47443055951193 ] } },
{ "type": "Feature", "properties": { "COMFAC_ID": 62426, "PID": 7659203, "COM_TYPE1": "Accommodation", "COM_TYPE2": "Holiday Unit\/ Flat", "NAME": "Scamander On The Beach", "UFI": "{f3d1c896-535d-44ab-9b67-def6145b30a1}", "CREATED_ON": "2016-11-23 10:54:04", "LIST_GUID": "{89b0141a-b4be-41c2-89f2-ffda8b9655ae}", "NOM_REG_NO": null }, "geometry": { "type": "Point", "coordinates": [ 148.263242861877188, -41.458581874264929 ] } },
{ "type": "Feature", "properties": { "COMFAC_ID": 63212, "PID": 1742591, "COM_TYPE1": "Council", "COM_TYPE2": "Break ODay", "NAME": "Scamander Waste Transfer Station", "UFI": "{fd3ca126-d927-4897-9ba6-85b7450d2da9}", "CREATED_ON": "2016-11-23 10:54:04", "LIST_GUID": "{2115bb59-8800-4fab-8595-2016de569bfe}", "NOM_REG_NO": null }, "geometry": { "type": "Point", "coordinates": [ 148.254221151603247, -41.447422857947281 ] } },
{ "type": "Feature", "properties": { "COMFAC_ID": 13326, "PID": 7731332, "COM_TYPE1": "Accommodation", "COM_TYPE2": "Holiday Unit\/ Flat", "NAME": "Queechy Cottages", "UFI": "{c23d477f-41f4-472e-9638-aac0f923295b}", "CREATED_ON": "2016-11-23 10:54:04", "LIST_GUID": "{8e81aaf5-0086-40f6-beaf-4e521319d28a}", "NOM_REG_NO": null }, "geometry": { "type": "Point", "coordinates": [ 148.24861899336193, -41.330052712104305 ] } },
{ "type": "Feature", "properties": { "COMFAC_ID": 434, "PID": 6781784, "COM_TYPE1": "Accommodation", "COM_TYPE2": "Caravan Park", "NAME": "St Helens Caravan Park", "UFI": "{e0e312ea-0dcc-468a-bcb6-eeda4890a0e3}", "CREATED_ON": "2016-11-23 10:54:04", "LIST_GUID": "{9fa8e4fa-e641-4fb2-8936-577b79e01d22}", "NOM_REG_NO": null }, "geometry": { "type": "Point", "coordinates": [ 148.25296442819959, -41.333019651579605 ] } },
{ "type": "Feature", "properties": { "COMFAC_ID": 34656, "PID": 0, "COM_TYPE1": "Accommodation", "COM_TYPE2": "Holiday Unit\/ Flat", "NAME": "Sweetwater Villas", "UFI": "{3ccc8588-82a5-4b7e-91e1-875e5ff61f2f}", "CREATED_ON": "2016-11-23 10:54:04", "LIST_GUID": "{f016c200-d6f7-4dae-a711-9b7b25a6cad9}", "NOM_REG_NO": null }, "geometry": { "type": "Point", "coordinates": [ 148.256719750831508, -41.338233116776472 ] } },
{ "type": "Feature", "properties": { "COMFAC_ID": 56614, "PID": 1396852, "COM_TYPE1": "State Government", "COM_TYPE2": "Forestry Tasmania", "NAME": "Forestry Tasmania St Helens", "UFI": "{d37db132-a9ee-4c2c-b667-2b24afc2f69e}", "CREATED_ON": "2016-11-23 10:54:04", "LIST_GUID": "{79c73024-5db7-4e18-b567-74c234346b50}", "NOM_REG_NO": null }, "geometry": { "type": "Point", "coordinates": [ 148.226029559356249, -41.318924231639187 ] } },
{ "type": "Feature", "properties": { "COMFAC_ID": 531, "PID": 6779801, "COM_TYPE1": "Ground", "COM_TYPE2": "Burial ground", "NAME": "St Helens Cemetery", "UFI": "{333176bd-d99e-4f2b-ba18-4b8a510f4edd}", "CREATED_ON": "2016-11-23 10:54:04", "LIST_GUID": "{31102d70-73a3-40f3-8afb-de4e34c68343}", "NOM_REG_NO": null }, "geometry": { "type": "Point", "coordinates": [ 148.228372316461844, -41.31879923169793 ] } },
{ "type": "Feature", "properties": { "COMFAC_ID": 22746, "PID": 6794075, "COM_TYPE1": "State police and emergency", "COM_TYPE2": "Fire station", "NAME": "St Helens Fire Station", "UFI": "{5ec141d8-e8bb-4c87-9022-a8dd7e21da74}", "CREATED_ON": "2016-11-23 10:54:04", "LIST_GUID": "{7e1e99de-7c26-4d64-a5b7-6a7298aee710}", "NOM_REG_NO": null }, "geometry": { "type": "Point", "coordinates": [ 148.245744553147034, -41.323010204507071 ] } },
{ "type": "Feature", "properties": { "COMFAC_ID": 63045, "PID": 0, "COM_TYPE1": "Tourist feature", "COM_TYPE2": "Industrial", "NAME": "Kiss A Fish Cookery School", "UFI": "{c2857b95-5a46-407f-b743-2fc6e008a06d}", "CREATED_ON": "2016-11-23 10:54:04", "LIST_GUID": "{9fa58bc3-c45c-40df-b3d2-aca3a2c31c8b}", "NOM_REG_NO": null }, "geometry": { "type": "Point", "coordinates": [ 148.247128616644602, -41.325393980276566 ] } },
{ "type": "Feature", "properties": { "COMFAC_ID": 460, "PID": 6793179, "COM_TYPE1": "State police and emergency", "COM_TYPE2": "Ambulance station", "NAME": "St Helens Ambulance Station", "UFI": "{49e9af60-ab34-4e05-b09d-7a5675f68c62}", "CREATED_ON": "2016-11-23 10:54:04", "LIST_GUID": "{c4bfdf6c-ff2f-4507-952d-9dd6de56294d}", "NOM_REG_NO": null }, "geometry": { "type": "Point", "coordinates": [ 148.247942968016133, -41.322736646188154 ] } },
{ "type": "Feature", "properties": { "COMFAC_ID": 60224, "PID": 7424594, "COM_TYPE1": "Education and training", "COM_TYPE2": "University", "NAME": "Rural Health Teaching Site St Helens", "UFI": "{86b439b6-8cb6-43b9-b91d-56b95ae94401}", "CREATED_ON": "2016-11-23 10:54:04", "LIST_GUID": "{f2332a62-2fa7-42bf-8e4e-bbcfeab807cf}", "NOM_REG_NO": null }, "geometry": { "type": "Point", "coordinates": [ 148.247966283469111, -41.32038730271983 ] } },
{ "type": "Feature", "properties": { "COMFAC_ID": 13325, "PID": 6793515, "COM_TYPE1": "Accommodation", "COM_TYPE2": "Guest House\/ Bed and Breakfast", "NAME": "Artnor Lodge", "UFI": "{8f9ef6de-c12c-4b6e-bfe7-011ce0a75f96}", "CREATED_ON": "2016-11-23 10:54:04", "LIST_GUID": "{ef32c1ee-2dd8-49dd-b2ca-de5feaf010e6}", "NOM_REG_NO": null }, "geometry": { "type": "Point", "coordinates": [ 148.248797922887121, -41.320187368644795 ] } },
{ "type": "Feature", "properties": { "COMFAC_ID": 62081, "PID": 2160438, "COM_TYPE1": "State Government", "COM_TYPE2": "Service Tasmania", "NAME": "Service Tasmania St Helens", "UFI": "{32403b99-6bf8-4fe3-a0ed-f50d4dcf46fb}", "CREATED_ON": "2016-11-23 10:54:04", "LIST_GUID": "{fa6fea26-4258-4ec9-a498-9d88c09895fe}", "NOM_REG_NO": null }, "geometry": { "type": "Point", "coordinates": [ 148.248911113959736, -41.320745926852204 ] } },
{ "type": "Feature", "properties": { "COMFAC_ID": 463, "PID": 6793494, "COM_TYPE1": "Cultural", "COM_TYPE2": "Museum", "NAME": "St Helens History Room", "UFI": "{75ef867f-e965-4beb-9abd-dcde9e481a46}", "CREATED_ON": "2016-11-23 10:54:04", "LIST_GUID": "{984d46b3-2b67-4e74-9554-111f9483a364}", "NOM_REG_NO": null }, "geometry": { "type": "Point", "coordinates": [ 148.249074005871108, -41.320816786184352 ] } },
{ "type": "Feature", "properties": { "COMFAC_ID": 53356, "PID": 2023839, "COM_TYPE1": "Financial institution", "COM_TYPE2": "Westpac", "NAME": "Westpac Bank St Helens", "UFI": "{190b1ddf-f030-4fa1-bca4-a09211d178b4}", "CREATED_ON": "2016-11-23 10:54:04", "LIST_GUID": "{a0868b32-7013-4c06-938b-aefc5a9a99b4}", "NOM_REG_NO": null }, "geometry": { "type": "Point", "coordinates": [ 148.24935965047473, -41.322072837948227 ] } },
{ "type": "Feature", "properties": { "COMFAC_ID": 63847, "PID": 0, "COM_TYPE1": "Ground", "COM_TYPE2": "Picnic Area", "NAME": null, "UFI": "{88c4a51e-b167-48ec-a473-f371b1684b1b}", "CREATED_ON": "2016-12-02 11:56:19", "LIST_GUID": "{a418c19b-8eb9-43a4-9b4c-4a7122dd3fce}", "NOM_REG_NO": null }, "geometry": { "type": "Point", "coordinates": [ 148.278172968388532, -41.415191962602421 ] } },
{ "type": "Feature", "properties": { "COMFAC_ID": 13224, "PID": 7560035, "COM_TYPE1": "Accommodation", "COM_TYPE2": "Guest House\/ Bed and Breakfast", "NAME": "Bayview House B&B", "UFI": "{e6acd749-ea80-44fa-9376-4eb3d478e069}", "CREATED_ON": "2016-11-23 10:54:04", "LIST_GUID": "{7aecafbf-4b04-40db-8c6e-af5889b6127f}", "NOM_REG_NO": null }, "geometry": { "type": "Point", "coordinates": [ 148.277523412988586, -41.283008065281336 ] } },
{ "type": "Feature", "properties": { "COMFAC_ID": 534, "PID": 7818841, "COM_TYPE1": "Club", "COM_TYPE2": "Gun and rifle", "NAME": "St Helens Gun Club", "UFI": "{0e492d7c-8eb8-4b64-9743-c3ed57911ad4}", "CREATED_ON": "2016-11-23 10:54:04", "LIST_GUID": "{ff2fdc52-2bc9-467f-a066-ee939955bd5f}", "NOM_REG_NO": null }, "geometry": { "type": "Point", "coordinates": [ 148.285595591594983, -41.272402658795428 ] } },
{ "type": "Feature", "properties": { "COMFAC_ID": 35627, "PID": 1801459, "COM_TYPE1": "State police and emergency", "COM_TYPE2": "Fire station", "NAME": "Ansons Bay Fire Station", "UFI": "{2d32e02e-9a4b-4ae8-a240-13dd98bfeb55}", "CREATED_ON": "2016-11-23 10:54:04", "LIST_GUID": "{09c2e2a4-7eb5-4cec-afdb-7a47a4c7ff84}", "NOM_REG_NO": null }, "geometry": { "type": "Point", "coordinates": [ 148.274776553364177, -41.033750897164708 ] } },
{ "type": "Feature", "properties": { "COMFAC_ID": 47050, "PID": 7845196, "COM_TYPE1": "Accommodation", "COM_TYPE2": "Camp and Camping Ground", "NAME": "Deep Creek Camping Ground", "UFI": "{563af6af-6e7a-4b22-95b2-3e42dd97f544}", "CREATED_ON": "2016-11-23 10:54:04", "LIST_GUID": "{d18f03d5-97e5-448a-8edb-ace5645d0ae0}", "NOM_REG_NO": null }, "geometry": { "type": "Point", "coordinates": [ 148.31178333679631, -40.970275122734826 ] } },
{ "type": "Feature", "properties": { "COMFAC_ID": 35805, "PID": 6413463, "COM_TYPE1": "Church", "COM_TYPE2": "Catholic Church", "NAME": "Our Lady of the Sacred Heart Catholic Church", "UFI": "{e2decbee-44d3-4bf4-b7eb-36f160045798}", "CREATED_ON": "2016-11-23 10:54:04", "LIST_GUID": "{f99a5a7e-f6e9-4cd2-b8ff-f6f8df7c6e9a}", "NOM_REG_NO": null }, "geometry": { "type": "Point", "coordinates": [ 147.88602540163825, -41.608887958152351 ] } },
{ "type": "Feature", "properties": { "COMFAC_ID": 35911, "PID": 2629224, "COM_TYPE1": "Council", "COM_TYPE2": "Break ODay", "NAME": "Fingal Waste Transfer Station", "UFI": "{18898a0c-2e16-4ac7-80dc-19efb34c647b}", "CREATED_ON": "2016-11-23 10:54:04", "LIST_GUID": "{35db785f-b446-4039-a9d8-8f83d0c3f801}", "NOM_REG_NO": null }, "geometry": { "type": "Point", "coordinates": [ 147.940798146591106, -41.633113546809703 ] } },
{ "type": "Feature", "properties": { "COMFAC_ID": 402, "PID": 1551189, "COM_TYPE1": "State police and emergency", "COM_TYPE2": "Fire station", "NAME": "Fingal Fire Station", "UFI": "{23944011-0079-4249-8b2c-1fc2026aec4d}", "CREATED_ON": "2016-11-23 10:54:04", "LIST_GUID": "{f77fee1c-379e-40f0-b99e-2b8ed51509aa}", "NOM_REG_NO": null }, "geometry": { "type": "Point", "coordinates": [ 147.964777695442507, -41.639341064121865 ] } },
{ "type": "Feature", "properties": { "COMFAC_ID": 23085, "PID": 6411564, "COM_TYPE1": "State Government", "COM_TYPE2": "Forestry Tasmania", "NAME": "Forestry Tasmania Fingal Office & Workshop", "UFI": "{1020ac3e-c909-45c4-aa08-2f5d918d9060}", "CREATED_ON": "2016-11-23 10:54:04", "LIST_GUID": "{18529e8d-70c1-4e14-9aae-244944370473}", "NOM_REG_NO": null }, "geometry": { "type": "Point", "coordinates": [ 147.967015418365065, -41.643047948033541 ] } },
{ "type": "Feature", "properties": { "COMFAC_ID": 406, "PID": 6412460, "COM_TYPE1": "Ground", "COM_TYPE2": "Park or reserve", "NAME": "Fingal Reserve", "UFI": "{2fc98aba-21dc-45e3-9a4e-6e40072b0f5f}", "CREATED_ON": "2016-11-23 10:54:04", "LIST_GUID": "{65092897-ec68-4ecd-bf25-3d19ab8586fb}", "NOM_REG_NO": "23723G" }, "geometry": { "type": "Point", "coordinates": [ 147.968158205954154, -41.637838522209414 ] } },
{ "type": "Feature", "properties": { "COMFAC_ID": 403, "PID": 6410457, "COM_TYPE1": "Club", "COM_TYPE2": "Masonic", "NAME": "Fingal Masonic Hall", "UFI": "{2fd44022-9a42-4ce3-a4fc-af118d0b3007}", "CREATED_ON": "2016-11-23 10:54:04", "LIST_GUID": "{f90f2bdd-dfba-431a-9623-f4b4d00edf6f}", "NOM_REG_NO": null }, "geometry": { "type": "Point", "coordinates": [ 147.970506483295878, -41.639038007361052 ] } },
{ "type": "Feature", "properties": { "COMFAC_ID": 52150, "PID": 6411521, "COM_TYPE1": "Ground", "COM_TYPE2": "Burial ground", "NAME": "Fingal Anglican Cemetery", "UFI": "{301123e0-4d89-4506-9cd0-f5466efaa19d}", "CREATED_ON": "2016-11-23 10:54:04", "LIST_GUID": "{4f91e61d-274b-45c7-a13e-3f7c7d8c5c0c}", "NOM_REG_NO": null }, "geometry": { "type": "Point", "coordinates": [ 147.972214941658819, -41.650079462982653 ] } },
{ "type": "Feature", "properties": { "COMFAC_ID": 63845, "PID": 0, "COM_TYPE1": "Ground", "COM_TYPE2": "Picnic Area", "NAME": null, "UFI": "{7c1d574d-9f2c-44e1-accd-1f7b152a5e80}", "CREATED_ON": "2016-12-02 11:56:19", "LIST_GUID": "{ba37db26-4e7d-4e8d-b2b1-38e4b2200e90}", "NOM_REG_NO": null }, "geometry": { "type": "Point", "coordinates": [ 147.973107760795472, -41.400496489984725 ] } },
{ "type": "Feature", "properties": { "COMFAC_ID": 10964, "PID": 6806275, "COM_TYPE1": "Accommodation", "COM_TYPE2": "Hotel", "NAME": "The Pub in the Paddock", "UFI": "{e1436a1e-1517-446a-ae50-8b05e271749e}", "CREATED_ON": "2016-11-23 10:54:04", "LIST_GUID": "{08d7a8c5-b860-430d-9165-c6f95bdda7da}", "NOM_REG_NO": null }, "geometry": { "type": "Point", "coordinates": [ 147.995428605513041, -41.291099607976896 ] } },
{ "type": "Feature", "properties": { "COMFAC_ID": 35905, "PID": 2543244, "COM_TYPE1": "Council", "COM_TYPE2": "Break ODay", "NAME": "Pyengana Waste Transfer Station", "UFI": "{6036900e-b107-42d2-a7f4-aec8da7414e7}", "CREATED_ON": "2016-11-23 10:54:04", "LIST_GUID": "{36199d55-deca-4311-b02d-2b6603956bf2}", "NOM_REG_NO": null }, "geometry": { "type": "Point", "coordinates": [ 148.031087340922966, -41.265138562863704 ] } },
{ "type": "Feature", "properties": { "COMFAC_ID": 56637, "PID": 7351110, "COM_TYPE1": "State Government", "COM_TYPE2": "Other", "NAME": "TasWater - Wastewater Treatment Plant", "UFI": "{9436091a-0217-41ab-9c3c-f792c6030f9c}", "CREATED_ON": "2016-11-23 10:54:04", "LIST_GUID": "{ea994e03-84e6-47a6-b262-5da0028ff44d}", "NOM_REG_NO": null }, "geometry": { "type": "Point", "coordinates": [ 148.178399010137809, -41.580696948401986 ] } },
{ "type": "Feature", "properties": { "COMFAC_ID": 55979, "PID": 6402553, "COM_TYPE1": "Education and training", "COM_TYPE2": "University", "NAME": "Rural Health Teaching Site St Marys", "UFI": "{43f428df-266a-46e6-b3f2-a8370ab9fa94}", "CREATED_ON": "2016-11-23 10:54:04", "LIST_GUID": "{c6c65846-1328-40b3-9c1b-793ebaa968a1}", "NOM_REG_NO": null }, "geometry": { "type": "Point", "coordinates": [ 148.180729262572385, -41.575790848836014 ] } },
{ "type": "Feature", "properties": { "COMFAC_ID": 22985, "PID": 6402553, "COM_TYPE1": "Medical service", "COM_TYPE2": "Hospital", "NAME": "St Marys Community Health Centre", "UFI": "{78852546-f966-442a-83e3-1c9af9b407e7}", "CREATED_ON": "2016-11-23 10:54:04", "LIST_GUID": "{cbfa4f1f-36fc-4b36-be1a-423bd86b9b78}", "NOM_REG_NO": null }, "geometry": { "type": "Point", "coordinates": [ 148.181347517918539, -41.575921450481935 ] } },
{ "type": "Feature", "properties": { "COMFAC_ID": 55264, "PID": 6402553, "COM_TYPE1": "State police and emergency", "COM_TYPE2": "Ambulance station", "NAME": "St Marys Ambulance Station", "UFI": "{34662acd-f9a6-47e3-a749-81ade1780a0a}", "CREATED_ON": "2016-11-23 10:54:04", "LIST_GUID": "{781acdd4-6372-4dd2-a6e8-e80cd0319a37}", "NOM_REG_NO": null }, "geometry": { "type": "Point", "coordinates": [ 148.181440219211567, -41.575618877013923 ] } },
{ "type": "Feature", "properties": { "COMFAC_ID": 57797, "PID": 6402553, "COM_TYPE1": "Community care", "COM_TYPE2": "Creche", "NAME": "St Marys Child Care Centre", "UFI": "{4c9950ea-9540-4203-8867-466e299fd317}", "CREATED_ON": "2016-11-23 10:54:04", "LIST_GUID": "{9e7f8b41-a692-49e7-ae9a-6610eb1cb89d}", "NOM_REG_NO": null }, "geometry": { "type": "Point", "coordinates": [ 148.181467650172351, -41.575959694104739 ] } },
{ "type": "Feature", "properties": { "COMFAC_ID": 482, "PID": 6404751, "COM_TYPE1": "Church", "COM_TYPE2": "Anglican Church", "NAME": "Holy Trinity Anglican Church", "UFI": "{0b0cdcd9-5e38-4909-8888-45375380ba37}", "CREATED_ON": "2016-11-23 10:54:04", "LIST_GUID": "{d245b59f-f039-438c-8df6-c49656818f17}", "NOM_REG_NO": null }, "geometry": { "type": "Point", "coordinates": [ 148.18299104175108, -41.579968328283442 ] } },
{ "type": "Feature", "properties": { "COMFAC_ID": 63433, "PID": 6403839, "COM_TYPE1": "Tourist feature", "COM_TYPE2": "Cultural", "NAME": "A Man's Cave Giftware and The Bank Teahouse", "UFI": "{ba4233a9-dd33-4c53-afc5-79585b18603c}", "CREATED_ON": "2016-11-23 10:54:04", "LIST_GUID": "{d2c27346-0fcf-4b3b-9bcb-e1061eda7ef9}", "NOM_REG_NO": null }, "geometry": { "type": "Point", "coordinates": [ 148.183556662669304, -41.580469146657052 ] } },
{ "type": "Feature", "properties": { "COMFAC_ID": 62599, "PID": 6405252, "COM_TYPE1": "Tourist feature", "COM_TYPE2": "Industrial", "NAME": "Purple Possum Wholefoods and Cafe", "UFI": "{fde9f2ff-dd0a-4f87-a721-08b7db18340d}", "CREATED_ON": "2016-11-23 10:54:04", "LIST_GUID": "{42a01053-63c8-4bbe-87ac-eeadbb00f3ab}", "NOM_REG_NO": null }, "geometry": { "type": "Point", "coordinates": [ 148.186030560760116, -41.58022589540802 ] } },
{ "type": "Feature", "properties": { "COMFAC_ID": 35486, "PID": 1526442, "COM_TYPE1": "Sports complex", "COM_TYPE2": "Golf", "NAME": "Cerise Brook Family Golf Course", "UFI": "{290f3d73-ffe4-4abe-8074-db7009082b80}", "CREATED_ON": "2016-11-23 10:54:04", "LIST_GUID": "{85cd6066-e41a-4fd9-a37d-c8eba9121441}", "NOM_REG_NO": null }, "geometry": { "type": "Point", "coordinates": [ 148.216984635801879, -41.327027545600451 ] } },
{ "type": "Feature", "properties": { "COMFAC_ID": 37487, "PID": 6792010, "COM_TYPE1": "Club", "COM_TYPE2": "Golf", "NAME": "St Helens Golf Club", "UFI": "{af838d97-c3b3-489e-b02c-5a78fe9ded5b}", "CREATED_ON": "2016-11-23 10:54:04", "LIST_GUID": "{e61cd02e-1d70-4145-8fc4-a5b25dfb882a}", "NOM_REG_NO": null }, "geometry": { "type": "Point", "coordinates": [ 148.218632092854222, -41.318529104255653 ] } },
{ "type": "Feature", "properties": { "COMFAC_ID": 63829, "PID": 0, "COM_TYPE1": "Ground", "COM_TYPE2": "Picnic Area", "NAME": null, "UFI": "{99d70b77-c6b0-4a10-90b8-bf9a5d4a9e1d}", "CREATED_ON": "2016-12-01 15:59:16", "LIST_GUID": "{1b6acdb7-471a-4a2c-b2a2-f661a5e8a354}", "NOM_REG_NO": null }, "geometry": { "type": "Point", "coordinates": [ 148.263189349759131, -41.813757976714449 ] } },
{ "type": "Feature", "properties": { "COMFAC_ID": 418, "PID": 7320752, "COM_TYPE1": "Church", "COM_TYPE2": "Jehovahs Witnesses", "NAME": "Scamander Kingdom Hall", "UFI": "{8d1e277f-6422-4781-83fa-d5629d3a0f87}", "CREATED_ON": "2016-11-23 10:54:04", "LIST_GUID": "{1092ecaf-3d5a-4811-beb2-3a22c7d2e111}", "NOM_REG_NO": null }, "geometry": { "type": "Point", "coordinates": [ 148.259455439087191, -41.46380013256109 ] } },
{ "type": "Feature", "properties": { "COMFAC_ID": 12984, "PID": 6406300, "COM_TYPE1": "Accommodation", "COM_TYPE2": "Holiday Unit\/ Flat", "NAME": "Carmens Inn", "UFI": "{8c42d996-8be7-4ad1-9d0a-2ecbcdb9ddfa}", "CREATED_ON": "2016-11-23 10:54:04", "LIST_GUID": "{71a3fa06-022e-4b35-b9cf-66e8076f62ca}", "NOM_REG_NO": null }, "geometry": { "type": "Point", "coordinates": [ 148.260084191637446, -41.463496006962984 ] } },
{ "type": "Feature", "properties": { "COMFAC_ID": 423, "PID": 6405834, "COM_TYPE1": "Commonwealth government", "COM_TYPE2": "Post offices and agencies", "NAME": "Scamander Post Office", "UFI": "{7275fc88-cf8e-441d-bb9a-ebdc0b13b414}", "CREATED_ON": "2016-11-23 10:54:04", "LIST_GUID": "{1d37e3c2-5c13-4f69-9f74-82a32d7a2a62}", "NOM_REG_NO": null }, "geometry": { "type": "Point", "coordinates": [ 148.262883449425061, -41.46389280655184 ] } },
{ "type": "Feature", "properties": { "COMFAC_ID": 57520, "PID": 2160219, "COM_TYPE1": "Ground", "COM_TYPE2": "Picnic Area", "NAME": "Picnic Area", "UFI": "{dac0e2bc-bc17-4fb6-bb71-3daf52f68825}", "CREATED_ON": "2016-11-23 10:54:04", "LIST_GUID": "{1ccca612-b2ac-4673-b1c3-542d76e9910a}", "NOM_REG_NO": null }, "geometry": { "type": "Point", "coordinates": [ 148.255631322821728, -41.330718629326483 ] } },
{ "type": "Feature", "properties": { "COMFAC_ID": 35921, "PID": 2711615, "COM_TYPE1": "Council", "COM_TYPE2": "Break ODay", "NAME": "Break ODay Council St Helens Depot", "UFI": "{45378d9e-86dc-4cfb-be1b-76701a74e2c0}", "CREATED_ON": "2016-11-23 10:54:04", "LIST_GUID": "{eacde070-b7de-458c-a583-369932d4f20d}", "NOM_REG_NO": null }, "geometry": { "type": "Point", "coordinates": [ 148.223609751702298, -41.318818565149151 ] } },
{ "type": "Feature", "properties": { "COMFAC_ID": 51849, "PID": 2250716, "COM_TYPE1": "Education and training", "COM_TYPE2": "Private", "NAME": "Seabrook Christian School - St Helens Campus", "UFI": "{3c549f6b-dc1a-4be0-a8f1-39d6ce2fb264}", "CREATED_ON": "2016-11-23 10:54:04", "LIST_GUID": "{d9a0c320-cfcd-4237-bfb2-1b4299ce32d0}", "NOM_REG_NO": null }, "geometry": { "type": "Point", "coordinates": [ 148.237997499947539, -41.317558102808739 ] } },
{ "type": "Feature", "properties": { "COMFAC_ID": 22645, "PID": 1959889, "COM_TYPE1": "Community care", "COM_TYPE2": "Nursing and age home", "NAME": "Medea Park Residential Care", "UFI": "{bf321c0b-bbae-4675-a0bd-0047928bbf60}", "CREATED_ON": "2016-11-23 10:54:04", "LIST_GUID": "{33c97402-40ff-4b4c-b9ea-4c5fd72a0b7b}", "NOM_REG_NO": null }, "geometry": { "type": "Point", "coordinates": [ 148.244812964050737, -41.323392067401898 ] } },
{ "type": "Feature", "properties": { "COMFAC_ID": 61628, "PID": 2767512, "COM_TYPE1": "Tourist feature", "COM_TYPE2": "Industrial", "NAME": "Salty Seas", "UFI": "{3cbcbfc3-885f-49d9-8c83-2f714eeed9cd}", "CREATED_ON": "2016-11-23 10:54:04", "LIST_GUID": "{22985712-e2bd-494e-b053-e5e2db189076}", "NOM_REG_NO": null }, "geometry": { "type": "Point", "coordinates": [ 148.245179056930084, -41.325693979066848 ] } },
{ "type": "Feature", "properties": { "COMFAC_ID": 61334, "PID": 2874078, "COM_TYPE1": "Club", "COM_TYPE2": "Yacht and sailing", "NAME": "Australian Volunteer Coast Guard & Marine Rescue St Helens", "UFI": "{c6c52c04-a489-4b94-95f2-12cee2a9e211}", "CREATED_ON": "2016-11-23 10:54:04", "LIST_GUID": "{20adee20-c6c2-4391-9a83-19657c0a2833}", "NOM_REG_NO": null }, "geometry": { "type": "Point", "coordinates": [ 148.247909795758034, -41.327180606934618 ] } },
{ "type": "Feature", "properties": { "COMFAC_ID": 450, "PID": 7768354, "COM_TYPE1": "Council", "COM_TYPE2": "Break ODay", "NAME": "Break ODay Council Offices St Helens", "UFI": "{cbfe74d0-30cb-40d3-b58a-68bc2be802c1}", "CREATED_ON": "2016-11-23 10:54:04", "LIST_GUID": "{b12cae94-b82c-4725-8c6f-e7d296ac2e2b}", "NOM_REG_NO": null }, "geometry": { "type": "Point", "coordinates": [ 148.248091878233168, -41.32588955832491 ] } },
{ "type": "Feature", "properties": { "COMFAC_ID": 462, "PID": 6793371, "COM_TYPE1": "Medical service", "COM_TYPE2": "Hospital", "NAME": "St Helens District Hospital", "UFI": "{c9006d18-76c5-4812-9dbc-28305b69df16}", "CREATED_ON": "2016-11-23 10:54:04", "LIST_GUID": "{2c220b33-b2e8-496b-89d5-ed53e46aa3cc}", "NOM_REG_NO": null }, "geometry": { "type": "Point", "coordinates": [ 148.24861938212365, -41.323398698424889 ] } },
{ "type": "Feature", "properties": { "COMFAC_ID": 22765, "PID": 2053931, "COM_TYPE1": "Hall\/ Community centre", "COM_TYPE2": "Online Access Centre", "NAME": "St Helens Online Access Centre", "UFI": "{ff2ba875-f17d-42f8-ab00-d25dbe7539f5}", "CREATED_ON": "2016-11-23 10:54:04", "LIST_GUID": "{b389c55a-1178-402e-8fae-216f2621bf53}", "NOM_REG_NO": null }, "geometry": { "type": "Point", "coordinates": [ 148.2486227057299, -41.320789517756666 ] } },
{ "type": "Feature", "properties": { "COMFAC_ID": 57523, "PID": 1728626, "COM_TYPE1": "Ground", "COM_TYPE2": "Picnic Area", "NAME": "Picnic Area", "UFI": "{c3d0a176-c6cb-44d6-a1b9-5fa938802d08}", "CREATED_ON": "2016-11-23 10:54:04", "LIST_GUID": "{797c8bb6-e197-422e-a3f0-37e064673462}", "NOM_REG_NO": null }, "geometry": { "type": "Point", "coordinates": [ 148.251636709593868, -41.323829049653718 ] } },
{ "type": "Feature", "properties": { "COMFAC_ID": 63234, "PID": 7768397, "COM_TYPE1": "Accommodation", "COM_TYPE2": "Holiday Unit\/ Flat", "NAME": "Pelican Point Sanctuary", "UFI": "{8822d173-5447-4b66-a724-22c3a7110193}", "CREATED_ON": "2016-11-23 10:54:04", "LIST_GUID": "{c928bd64-996e-4472-82e8-c055a5a97412}", "NOM_REG_NO": null }, "geometry": { "type": "Point", "coordinates": [ 148.266398387817702, -41.315271713553145 ] } },
{ "type": "Feature", "properties": { "COMFAC_ID": 46309, "PID": 6790103, "COM_TYPE1": "Accommodation", "COM_TYPE2": "Holiday Unit\/ Flat", "NAME": "Beach House at St Helens", "UFI": "{21583586-38a2-4b4b-b2a8-f33d4a6ddfff}", "CREATED_ON": "2016-11-23 10:54:04", "LIST_GUID": "{58467343-46ee-4e2f-9a5c-2269a75b1a2f}", "NOM_REG_NO": null }, "geometry": { "type": "Point", "coordinates": [ 148.287088681616325, -41.329160263996528 ] } },
{ "type": "Feature", "properties": { "COMFAC_ID": 58484, "PID": 6788820, "COM_TYPE1": "Accommodation", "COM_TYPE2": "Holiday Unit\/ Flat", "NAME": "St Helens on the Bay", "UFI": "{5f218063-7721-4395-8d3c-cdd657445d7b}", "CREATED_ON": "2016-11-23 10:54:04", "LIST_GUID": "{2455caeb-2fa7-457c-8295-920f420b8e4c}", "NOM_REG_NO": null }, "geometry": { "type": "Point", "coordinates": [ 148.295686081484405, -41.324939422807759 ] } },
{ "type": "Feature", "properties": { "COMFAC_ID": 62592, "PID": 6809839, "COM_TYPE1": "Accommodation", "COM_TYPE2": "Holiday Unit\/ Flat", "NAME": "Arthouse Bay of Fires", "UFI": "{023ad306-bfd9-46bf-baf6-ebe2679f132e}", "CREATED_ON": "2016-11-23 10:54:04", "LIST_GUID": "{5a329dc6-0ec9-4b1b-bf82-ca69511331d4}", "NOM_REG_NO": null }, "geometry": { "type": "Point", "coordinates": [ 148.291082584006375, -41.244356477937444 ] } },
{ "type": "Feature", "properties": { "COMFAC_ID": 63589, "PID": 0, "COM_TYPE1": "Tourist feature", "COM_TYPE2": "Historical", "NAME": "Eddystone Point Lighthouse Historic Site", "UFI": "{1ab94dbc-a8eb-4505-8266-fdb27c2869c8}", "CREATED_ON": "2016-11-23 10:54:04", "LIST_GUID": "{b576056c-4e55-4922-995f-d0cf30042871}", "NOM_REG_NO": "39794F" }, "geometry": { "type": "Point", "coordinates": [ 148.346553723201197, -40.992638239289349 ] } },
{ "type": "Feature", "properties": { "COMFAC_ID": 62409, "PID": 6415573, "COM_TYPE1": "Tourist feature", "COM_TYPE2": "Cultural", "NAME": "The Golden Gate Gallery", "UFI": "{c057740a-2577-4615-83d9-937829bb5e29}", "CREATED_ON": "2016-11-23 10:54:04", "LIST_GUID": "{7e64e161-82ee-4ef2-b4a3-883e04d2e003}", "NOM_REG_NO": null }, "geometry": { "type": "Point", "coordinates": [ 147.88975654709273, -41.473768174874621 ] } },
{ "type": "Feature", "properties": { "COMFAC_ID": 35735, "PID": 1857014, "COM_TYPE1": "Hall\/ Community centre", "COM_TYPE2": "Community centre", "NAME": "Mathinna Community Centre", "UFI": "{8bb350e5-d291-46a5-8da8-de9caa160c47}", "CREATED_ON": "2016-11-23 10:54:04", "LIST_GUID": "{3a30bc47-d549-4069-9520-88cba5bd480e}", "NOM_REG_NO": null }, "geometry": { "type": "Point", "coordinates": [ 147.890348924648123, -41.471743167745487 ] } },
{ "type": "Feature", "properties": { "COMFAC_ID": 409, "PID": 6411919, "COM_TYPE1": "Education and training", "COM_TYPE2": "Primary and infant", "NAME": "St Marys District School - Fingal Campus", "UFI": "{c14b0103-aa6a-40dc-a7d6-d43e83d83174}", "CREATED_ON": "2016-11-23 10:54:04", "LIST_GUID": "{62c83473-25a9-4a7b-902b-be4e0ac238b6}", "NOM_REG_NO": null }, "geometry": { "type": "Point", "coordinates": [ 147.97375203545451, -41.639883595909247 ] } },
{ "type": "Feature", "properties": { "COMFAC_ID": 52151, "PID": 6411935, "COM_TYPE1": "Ground", "COM_TYPE2": "Burial ground", "NAME": "Fingal Catholic Cemetery", "UFI": "{ea48b7e8-8ecf-448a-9e0a-fc6b24cf96fa}", "CREATED_ON": "2016-11-23 10:54:04", "LIST_GUID": "{ef07e4f1-045f-490e-a7cf-a20c3da5a1e3}", "NOM_REG_NO": null }, "geometry": { "type": "Point", "coordinates": [ 147.981406877666302, -41.646446146591124 ] } },
{ "type": "Feature", "properties": { "COMFAC_ID": 42672, "PID": 6806259, "COM_TYPE1": "Hall\/ Community centre", "COM_TYPE2": "Community, town or city hall", "NAME": "Pyengana Hall", "UFI": "{f5ce91dd-6b79-4744-807d-3b11960cf05e}", "CREATED_ON": "2016-11-23 10:54:04", "LIST_GUID": "{68ecc7ee-bfd0-4544-ba3c-4d4e84b8dca4}", "NOM_REG_NO": null }, "geometry": { "type": "Point", "coordinates": [ 148.001518536004539, -41.293247348689491 ] } },
{ "type": "Feature", "properties": { "COMFAC_ID": 42673, "PID": 6806259, "COM_TYPE1": "Ground", "COM_TYPE2": "Sportsground", "NAME": "Pyengana Recreation Ground", "UFI": "{fb1929cb-456a-463d-b483-1af80e405e38}", "CREATED_ON": "2016-11-23 10:54:04", "LIST_GUID": "{738e7daa-61d3-4f62-beb1-13a3293261d4}", "NOM_REG_NO": null }, "geometry": { "type": "Point", "coordinates": [ 148.001938796685465, -41.292572355006044 ] } },
{ "type": "Feature", "properties": { "COMFAC_ID": 23125, "PID": 2936291, "COM_TYPE1": "Hall\/ Community centre", "COM_TYPE2": "Online Access Centre", "NAME": "St Marys Online Access Centre", "UFI": "{436d2a34-55b0-4b16-baaa-01b0dcb2906d}", "CREATED_ON": "2016-11-23 10:54:04", "LIST_GUID": "{f33795d6-db0f-4c9b-94a8-7b6648fc84ec}", "NOM_REG_NO": null }, "geometry": { "type": "Point", "coordinates": [ 148.185092044414262, -41.578957421991042 ] } },
{ "type": "Feature", "properties": { "COMFAC_ID": 496, "PID": 6405340, "COM_TYPE1": "State police and emergency", "COM_TYPE2": "Police station", "NAME": "St Marys Police Station", "UFI": "{36ba4ef0-563e-4b7f-a99c-4ecc1398ddaa}", "CREATED_ON": "2016-11-23 10:54:04", "LIST_GUID": "{eeefd000-08a1-4295-bb06-0c185e9e1879}", "NOM_REG_NO": null }, "geometry": { "type": "Point", "coordinates": [ 148.185499891587313, -41.580590824034338 ] } },
{ "type": "Feature", "properties": { "COMFAC_ID": 499, "PID": 6402799, "COM_TYPE1": "Sports complex", "COM_TYPE2": "Golf", "NAME": "St Marys Golf Course", "UFI": "{7e08da24-661a-42ac-93e1-c762b4486192}", "CREATED_ON": "2016-11-23 10:54:04", "LIST_GUID": "{ff007e9c-7bf2-41a1-9f4d-53934a1fcc23}", "NOM_REG_NO": null }, "geometry": { "type": "Point", "coordinates": [ 148.18582695065939, -41.584900919669273 ] } },
{ "type": "Feature", "properties": { "COMFAC_ID": 63804, "PID": 0, "COM_TYPE1": "Tourist feature", "COM_TYPE2": "Amusement or entertainment", "NAME": null, "UFI": "{3200d409-873e-492b-b6fb-a7c9acb117ba}", "CREATED_ON": "2016-12-01 11:19:26", "LIST_GUID": "{3d0e9d26-2b85-498b-85c1-6c69d52b1f1b}", "NOM_REG_NO": null }, "geometry": { "type": "Point", "coordinates": [ 148.186005480242301, -41.580018243386469 ] } },
{ "type": "Feature", "properties": { "COMFAC_ID": 22967, "PID": 7669882, "COM_TYPE1": "Ground", "COM_TYPE2": "Park or reserve", "NAME": "Wombat Walk Musical Playground", "UFI": "{ced442f6-741b-4cda-bda6-0f32874e2f91}", "CREATED_ON": "2016-11-23 10:54:04", "LIST_GUID": "{dd412366-2cc5-40cc-b442-2bae726f5fbf}", "NOM_REG_NO": null }, "geometry": { "type": "Point", "coordinates": [ 148.1871826236885, -41.578134157743818 ] } },
{ "type": "Feature", "properties": { "COMFAC_ID": 42467, "PID": 6402780, "COM_TYPE1": "Sports complex", "COM_TYPE2": "Indoor general", "NAME": "St Marys Sports Centre", "UFI": "{9e8a8e7f-a48a-4195-838d-9b7760f137cb}", "CREATED_ON": "2016-11-23 10:54:04", "LIST_GUID": "{20c7fef7-7615-437a-86c1-5dcaddb6fa7f}", "NOM_REG_NO": null }, "geometry": { "type": "Point", "coordinates": [ 148.187555425004888, -41.586226159932956 ] } },
{ "type": "Feature", "properties": { "COMFAC_ID": 23165, "PID": 7320664, "COM_TYPE1": "Medical service", "COM_TYPE2": "Dental clinic", "NAME": "St Marys Dental Clinic", "UFI": "{594f6a92-5a62-4ab8-a32c-9998c45b72a8}", "CREATED_ON": "2016-11-23 10:54:04", "LIST_GUID": "{114fab21-1e37-4f0f-a38a-64c3db01faff}", "NOM_REG_NO": null }, "geometry": { "type": "Point", "coordinates": [ 148.190534532221022, -41.585293638415394 ] } },
{ "type": "Feature", "properties": { "COMFAC_ID": 35847, "PID": 7097677, "COM_TYPE1": "Council", "COM_TYPE2": "Break ODay", "NAME": "St Marys Waste Transfer Station", "UFI": "{aaf18c57-27d5-4964-86c7-76536a99a359}", "CREATED_ON": "2016-11-23 10:54:04", "LIST_GUID": "{5c39aea3-31ee-4038-9eaf-fb91c17f3946}", "NOM_REG_NO": null }, "geometry": { "type": "Point", "coordinates": [ 148.200407130027145, -41.59350345873208 ] } },
{ "type": "Feature", "properties": { "COMFAC_ID": 37528, "PID": 2560298, "COM_TYPE1": "Ground", "COM_TYPE2": "Park or reserve", "NAME": "Semmens Park", "UFI": "{8a41a946-03d8-49d7-a697-8d607d434eb2}", "CREATED_ON": "2016-11-23 10:54:04", "LIST_GUID": "{256a7938-e7a2-4bf2-b84c-e28492a38821}", "NOM_REG_NO": "22557R" }, "geometry": { "type": "Point", "coordinates": [ 148.181389233709325, -41.454937123884527 ] } },
{ "type": "Feature", "properties": { "COMFAC_ID": 62856, "PID": 7513837, "COM_TYPE1": "Accommodation", "COM_TYPE2": "Guest House\/ Bed and Breakfast", "NAME": "Saltwater Sunrise", "UFI": "{494a1e65-d77c-4877-af01-87fc52dd06ed}", "CREATED_ON": "2016-11-23 10:54:04", "LIST_GUID": "{e6434cb9-283f-42e9-9bde-eb9d7a1f4825}", "NOM_REG_NO": null }, "geometry": { "type": "Point", "coordinates": [ 148.274537163025769, -41.511235481592379 ] } },
{ "type": "Feature", "properties": { "COMFAC_ID": 58087, "PID": 7513810, "COM_TYPE1": "Tourist feature", "COM_TYPE2": "Cultural", "NAME": "Lures Bookshop Licensed Cafe", "UFI": "{4a51b272-50c5-499a-a84b-15077da1f877}", "CREATED_ON": "2016-11-23 10:54:04", "LIST_GUID": "{ad3813c6-1952-4c56-bd19-52789d26b4ba}", "NOM_REG_NO": null }, "geometry": { "type": "Point", "coordinates": [ 148.258449587180252, -41.461123453757899 ] } },
{ "type": "Feature", "properties": { "COMFAC_ID": 48329, "PID": 7154782, "COM_TYPE1": "Club", "COM_TYPE2": "Other sporting", "NAME": "Scamander Sports & Community Complex", "UFI": "{20579a05-5589-432e-9962-a8671838a032}", "CREATED_ON": "2016-11-23 10:54:04", "LIST_GUID": "{44eb8b6b-7e75-4927-a24a-d2b98262b488}", "NOM_REG_NO": null }, "geometry": { "type": "Point", "coordinates": [ 148.259138636840675, -41.454456619928131 ] } },
{ "type": "Feature", "properties": { "COMFAC_ID": 34325, "PID": 2010456, "COM_TYPE1": "Accommodation", "COM_TYPE2": "Holiday Unit\/ Flat", "NAME": "Blue Seas Holiday Villas", "UFI": "{9a35c0a2-7bda-4de0-9bca-ad499e0b7782}", "CREATED_ON": "2016-11-23 10:54:04", "LIST_GUID": "{067d44ee-fb1b-4efb-8ae7-3b42f786a2d2}", "NOM_REG_NO": null }, "geometry": { "type": "Point", "coordinates": [ 148.261436859735511, -41.458527178369557 ] } },
{ "type": "Feature", "properties": { "COMFAC_ID": 416, "PID": 7286304, "COM_TYPE1": "Accommodation", "COM_TYPE2": "Hotel", "NAME": "Scamander Beach Resort Hotel", "UFI": "{66c067c6-10cd-4489-8719-d5b1038f2a6c}", "CREATED_ON": "2016-11-23 10:54:04", "LIST_GUID": "{3d4e7428-b06f-4b9a-b573-7559b169a7fe}", "NOM_REG_NO": null }, "geometry": { "type": "Point", "coordinates": [ 148.262838184716372, -41.462673363218123 ] } },
{ "type": "Feature", "properties": { "COMFAC_ID": 422, "PID": 6783325, "COM_TYPE1": "Ground", "COM_TYPE2": "Park or reserve", "NAME": "Progress Park", "UFI": "{a50cf29f-eaab-4787-8f63-49afda65da87}", "CREATED_ON": "2016-11-23 10:54:04", "LIST_GUID": "{30e54ac1-110c-4117-97dc-f9bbb6afaef0}", "NOM_REG_NO": "23553C" }, "geometry": { "type": "Point", "coordinates": [ 148.262939610649767, -41.454730390542849 ] } },
{ "type": "Feature", "properties": { "COMFAC_ID": 466, "PID": 6779836, "COM_TYPE1": "Ground", "COM_TYPE2": "Park or reserve", "NAME": "Kings Park", "UFI": "{0e6e2081-4b26-4b44-ad37-d1d98f606bf9}", "CREATED_ON": "2016-11-23 10:54:04", "LIST_GUID": "{a5fb4172-d338-4475-a3f2-7acf78c992fb}", "NOM_REG_NO": "20244N" }, "geometry": { "type": "Point", "coordinates": [ 148.247315451419354, -41.329059473218493 ] } },
{ "type": "Feature", "properties": { "COMFAC_ID": 35705, "PID": 1396860, "COM_TYPE1": "State Government", "COM_TYPE2": "DPIPWE", "NAME": "St Helens Field Centre", "UFI": "{b8fd1283-978d-4d8d-a10d-296780568b80}", "CREATED_ON": "2016-11-23 10:54:04", "LIST_GUID": "{b09009b5-cb47-4172-8ebd-75120c1631cc}", "NOM_REG_NO": null }, "geometry": { "type": "Point", "coordinates": [ 148.22597612453805, -41.318856434162591 ] } },
{ "type": "Feature", "properties": { "COMFAC_ID": 35873, "PID": 1966261, "COM_TYPE1": "Accommodation", "COM_TYPE2": "Holiday Unit\/ Flat", "NAME": "Kellraine Units", "UFI": "{3eb81076-6e94-4124-87ff-a4ae08fa0fa3}", "CREATED_ON": "2016-11-23 10:54:04", "LIST_GUID": "{f558ac11-dc7d-4694-8240-a2b19a44c8dd}", "NOM_REG_NO": null }, "geometry": { "type": "Point", "coordinates": [ 148.238780374678782, -41.316576358967481 ] } },
{ "type": "Feature", "properties": { "COMFAC_ID": 448, "PID": 1397783, "COM_TYPE1": "Club", "COM_TYPE2": "Tennis", "NAME": "St Helens Tennis Club", "UFI": "{8741a1ea-ca4e-4172-a1a2-035b26e29051}", "CREATED_ON": "2016-11-23 10:54:04", "LIST_GUID": "{0be6372b-e4ee-4c50-af91-2fef1765cade}", "NOM_REG_NO": null }, "geometry": { "type": "Point", "coordinates": [ 148.247684978579741, -41.323225945050417 ] } },
{ "type": "Feature", "properties": { "COMFAC_ID": 61617, "PID": 2666068, "COM_TYPE1": "Tourist feature", "COM_TYPE2": "Industrial", "NAME": "Choc-A-Lolly", "UFI": "{5a44c2fa-de1a-41e5-900f-eb236881b843}", "CREATED_ON": "2016-11-23 10:54:04", "LIST_GUID": "{4951d201-3d70-4e75-b8c0-267e7a4ba5a3}", "NOM_REG_NO": null }, "geometry": { "type": "Point", "coordinates": [ 148.249104351724583, -41.323127760904015 ] } },
{ "type": "Feature", "properties": { "COMFAC_ID": 62168, "PID": 1520729, "COM_TYPE1": "Tourist feature", "COM_TYPE2": "Industrial", "NAME": "Blue Shed", "UFI": "{076d0810-b1c3-4cca-ad1f-2cefd8148873}", "CREATED_ON": "2016-11-23 10:54:04", "LIST_GUID": "{095d5ed2-73ff-4edb-ae2d-c091b9e47d2d}", "NOM_REG_NO": null }, "geometry": { "type": "Point", "coordinates": [ 148.249222374444798, -41.326324638514514 ] } },
{ "type": "Feature", "properties": { "COMFAC_ID": 62026, "PID": 6793435, "COM_TYPE1": "State police and emergency", "COM_TYPE2": "Community Fire Refuge", "NAME": "Portland Memorial Hall", "UFI": "{4a0a3288-4640-43bf-a9c8-887c945f4e00}", "CREATED_ON": "2016-11-23 10:54:04", "LIST_GUID": "{bd2f9c06-3654-4bb8-bf47-bf880ee77590}", "NOM_REG_NO": null }, "geometry": { "type": "Point", "coordinates": [ 148.249415068472985, -41.322226155719598 ] } },
{ "type": "Feature", "properties": { "COMFAC_ID": 56617, "PID": 6793750, "COM_TYPE1": "Community care", "COM_TYPE2": "Charity or welfare", "NAME": "Anglicare St Helens", "UFI": "{f8577e13-5c4b-48d0-ad1a-e6188e657414}", "CREATED_ON": "2016-11-23 10:54:04", "LIST_GUID": "{b804ecd5-8ec9-4c3d-9c14-a547b4d766b9}", "NOM_REG_NO": null }, "geometry": { "type": "Point", "coordinates": [ 148.24941296854692, -41.320021450377901 ] } },
{ "type": "Feature", "properties": { "COMFAC_ID": 62079, "PID": 6793742, "COM_TYPE1": "Hall\/ Community centre", "COM_TYPE2": "Church hall", "NAME": "St Pauls Church Hall", "UFI": "{69cdb819-3237-41e5-95d2-b87c51c1d370}", "CREATED_ON": "2016-11-23 10:54:04", "LIST_GUID": "{d353610d-fec3-46db-81e7-29ebd5500bb6}", "NOM_REG_NO": null }, "geometry": { "type": "Point", "coordinates": [ 148.249820661843216, -41.319807789411172 ] } },
{ "type": "Feature", "properties": { "COMFAC_ID": 60330, "PID": 2237423, "COM_TYPE1": "Cultural", "COM_TYPE2": "Theatre\/ cinema", "NAME": "The Forum Cinema", "UFI": "{bec67415-0358-4ef5-b7b5-c0270ea70dd9}", "CREATED_ON": "2016-11-23 10:54:04", "LIST_GUID": "{3157a7e2-0f09-4ac8-8775-3af28eef0d16}", "NOM_REG_NO": null }, "geometry": { "type": "Point", "coordinates": [ 148.250903767309865, -41.322572867608528 ] } },
{ "type": "Feature", "properties": { "COMFAC_ID": 22905, "PID": 6789559, "COM_TYPE1": "Club", "COM_TYPE2": "Scout", "NAME": "St Helens Sea Scouts", "UFI": "{960404df-6ffa-498d-8f9a-daa7894ed185}", "CREATED_ON": "2016-11-23 10:54:04", "LIST_GUID": "{c645c93f-01db-43a7-a02e-6cc91fb43d0f}", "NOM_REG_NO": null }, "geometry": { "type": "Point", "coordinates": [ 148.275438470113073, -41.337549691518113 ] } },
{ "type": "Feature", "properties": { "COMFAC_ID": 63506, "PID": 6809601, "COM_TYPE1": "Accommodation", "COM_TYPE2": "Holiday Unit\/ Flat", "NAME": "Lazy Wave Beach House", "UFI": "{1c010e41-45db-4e10-8356-a3cfe40fe0fc}", "CREATED_ON": "2016-11-23 10:54:04", "LIST_GUID": "{493c34ca-37b8-4ffa-985a-7847c552b7eb}", "NOM_REG_NO": null }, "geometry": { "type": "Point", "coordinates": [ 148.303817676342106, -41.253872071782631 ] } },
{ "type": "Feature", "properties": { "COMFAC_ID": 60570, "PID": 7795950, "COM_TYPE1": "Accommodation", "COM_TYPE2": "Holiday Unit\/ Flat", "NAME": "Binalong Sands", "UFI": "{30642649-88d1-4c18-9c95-ac9c0ad83177}", "CREATED_ON": "2016-11-23 10:54:04", "LIST_GUID": "{8d69227c-d4a4-4857-9bbb-28946cc2c62e}", "NOM_REG_NO": null }, "geometry": { "type": "Point", "coordinates": [ 148.305878245115537, -41.255149205020388 ] } },
{ "type": "Feature", "properties": { "COMFAC_ID": 63774, "PID": 0, "COM_TYPE1": "Ground", "COM_TYPE2": "Picnic Area", "NAME": null, "UFI": "{86e4a780-eaf0-4847-811c-6184e7568cb2}", "CREATED_ON": "2016-11-25 07:03:40", "LIST_GUID": "{8359e0dc-8275-4a5b-bf59-7911842558d0}", "NOM_REG_NO": null }, "geometry": { "type": "Point", "coordinates": [ 148.311740206332189, -40.970023066661575 ] } },
{ "type": "Feature", "properties": { "COMFAC_ID": 16924, "PID": 2867812, "COM_TYPE1": "Accommodation", "COM_TYPE2": "Hostel", "NAME": "Fawlty Towers", "UFI": "{c4627f66-19aa-4206-a9c0-69d407c96523}", "CREATED_ON": "2016-11-23 10:54:04", "LIST_GUID": "{a785d2a8-0737-4e6f-b6e8-02c27596a50e}", "NOM_REG_NO": null }, "geometry": { "type": "Point", "coordinates": [ 147.835188048412448, -41.702749909985059 ] } },
{ "type": "Feature", "properties": { "COMFAC_ID": 393, "PID": 6412583, "COM_TYPE1": "Accommodation", "COM_TYPE2": "Hotel", "NAME": "Fingal Hotel", "UFI": "{3a70d08e-98f1-4271-b08a-93985e0df914}", "CREATED_ON": "2016-11-23 10:54:04", "LIST_GUID": "{40568045-a4f3-4a1d-9be8-4ce7e26be79e}", "NOM_REG_NO": null }, "geometry": { "type": "Point", "coordinates": [ 147.967584211912111, -41.638836044277717 ] } },
{ "type": "Feature", "properties": { "COMFAC_ID": 56639, "PID": 6412399, "COM_TYPE1": "Community care", "COM_TYPE2": "Charity or welfare", "NAME": "Family Based Care  - Fingal", "UFI": "{a2eeec9c-89f0-47dc-9ed9-8da7e9bb057d}", "CREATED_ON": "2016-11-23 10:54:04", "LIST_GUID": "{548f4b8e-4ce7-45b0-aa06-45fff3c50007}", "NOM_REG_NO": null }, "geometry": { "type": "Point", "coordinates": [ 147.970053764136907, -41.637761904511883 ] } },
{ "type": "Feature", "properties": { "COMFAC_ID": 504, "PID": 6412700, "COM_TYPE1": "Transport", "COM_TYPE2": "Service Station", "NAME": "Independent Fingal", "UFI": "{f8b542c7-6487-4c47-baba-51aa00f19128}", "CREATED_ON": "2016-11-23 10:54:04", "LIST_GUID": "{8b7cf776-51b9-4acd-840b-37b833b8ff38}", "NOM_REG_NO": null }, "geometry": { "type": "Point", "coordinates": [ 147.9718366368094, -41.63816967256588 ] } },
{ "type": "Feature", "properties": { "COMFAC_ID": 411, "PID": 6413236, "COM_TYPE1": "Transport", "COM_TYPE2": "Rail", "NAME": "Duncan Siding", "UFI": "{42f6131d-2582-4035-9089-558db7df1fff}", "CREATED_ON": "2016-11-23 10:54:04", "LIST_GUID": "{99433355-16f3-4410-a6e7-bdf28387b445}", "NOM_REG_NO": null }, "geometry": { "type": "Point", "coordinates": [ 147.980252924541077, -41.63180225171196 ] } },
{ "type": "Feature", "properties": { "COMFAC_ID": 35686, "PID": 1398831, "COM_TYPE1": "State police and emergency", "COM_TYPE2": "Fire station", "NAME": "Pyengana Fire Station", "UFI": "{4e26b20e-9e38-42d1-9adf-511ef67d5b47}", "CREATED_ON": "2016-11-23 10:54:04", "LIST_GUID": "{9c03d9c1-5df3-4e8c-abc9-30ec1c36c9b4}", "NOM_REG_NO": null }, "geometry": { "type": "Point", "coordinates": [ 148.001409958480309, -41.291630005958837 ] } },
{ "type": "Feature", "properties": { "COMFAC_ID": 491, "PID": 2280237, "COM_TYPE1": "State police and emergency", "COM_TYPE2": "Fire station", "NAME": "St Marys Fire Station", "UFI": "{0817db41-228a-46ae-a283-0793e220b9b0}", "CREATED_ON": "2016-11-23 10:54:04", "LIST_GUID": "{0008e376-e382-4b16-b98f-5fe2b4dbabe9}", "NOM_REG_NO": null }, "geometry": { "type": "Point", "coordinates": [ 148.183039062784871, -41.580573038894634 ] } },
{ "type": "Feature", "properties": { "COMFAC_ID": 486, "PID": 2114538, "COM_TYPE1": "Club", "COM_TYPE2": "Cricket", "NAME": "St Marys Cricket Club", "UFI": "{1dda1343-ff7f-40d9-9947-22a48078880c}", "CREATED_ON": "2016-11-23 10:54:04", "LIST_GUID": "{f3c660d9-dcfb-4b64-8e65-38d94d1d6e6a}", "NOM_REG_NO": null }, "geometry": { "type": "Point", "coordinates": [ 148.183336389533537, -41.586927120069276 ] } },
{ "type": "Feature", "properties": { "COMFAC_ID": 63447, "PID": 3231533, "COM_TYPE1": "Tourist feature", "COM_TYPE2": "Industrial", "NAME": "The Stables Handmade Market Tasmania", "UFI": "{c20485e2-e5df-47d1-ad45-c4590ad2a084}", "CREATED_ON": "2016-11-23 10:54:04", "LIST_GUID": "{424ca2a2-dbb7-4033-b000-be91d3c1a1d3}", "NOM_REG_NO": null }, "geometry": { "type": "Point", "coordinates": [ 148.183642536299374, -41.585345791677909 ] } },
{ "type": "Feature", "properties": { "COMFAC_ID": 23005, "PID": 7669874, "COM_TYPE1": "Cultural", "COM_TYPE2": "Library", "NAME": "St Marys Library", "UFI": "{6646c4b8-a24d-48de-8997-3fa14191a16e}", "CREATED_ON": "2016-11-23 10:54:04", "LIST_GUID": "{963c411f-fecb-4067-a365-cfd756b6dc3b}", "NOM_REG_NO": null }, "geometry": { "type": "Point", "coordinates": [ 148.186992994888158, -41.579073259164936 ] } },
{ "type": "Feature", "properties": { "COMFAC_ID": 59073, "PID": 6404612, "COM_TYPE1": "Tourist feature", "COM_TYPE2": "Cultural", "NAME": "Gone Rustic", "UFI": "{b18684a1-8cc1-4ae6-b283-884857132a2d}", "CREATED_ON": "2016-11-23 10:54:04", "LIST_GUID": "{500e7c98-bbac-466a-a2e3-18c266077e80}", "NOM_REG_NO": null }, "geometry": { "type": "Point", "coordinates": [ 148.187565889809207, -41.578943909371894 ] } },
{ "type": "Feature", "properties": { "COMFAC_ID": 29425, "PID": 6404102, "COM_TYPE1": "Church", "COM_TYPE2": "Catholic Church", "NAME": "St Mary of the Assumption Catholic Church", "UFI": "{54ac37f8-4f83-4bd3-b752-d69b5316b1df}", "CREATED_ON": "2016-11-23 10:54:04", "LIST_GUID": "{f4b1da9a-4a54-4762-87bd-ed94cd110df4}", "NOM_REG_NO": null }, "geometry": { "type": "Point", "coordinates": [ 148.192232570651754, -41.577959095358317 ] } },
{ "type": "Feature", "properties": { "COMFAC_ID": 62955, "PID": 2126838, "COM_TYPE1": "Tourist feature", "COM_TYPE2": "Industrial", "NAME": "Seaview Farm and Bandicoot Blu Farm Products", "UFI": "{6ef28cfc-313f-43e7-a160-61c12459498c}", "CREATED_ON": "2016-11-23 10:54:04", "LIST_GUID": "{8e2f0113-1610-4004-bf6f-a96acd8d37a2}", "NOM_REG_NO": null }, "geometry": { "type": "Point", "coordinates": [ 148.196004571944002, -41.531734133948 ] } },
{ "type": "Feature", "properties": { "COMFAC_ID": 63885, "PID": 7097829, "COM_TYPE1": "Tourist feature", "COM_TYPE2": "Other", "NAME": "The Shop in the Bush", "UFI": "{3d5731c8-20aa-49db-8a92-43ccd7992f7b}", "CREATED_ON": "2017-05-15 14:36:17", "LIST_GUID": "{a0ccf075-113d-4ce6-85b9-98c32ec70ac7}", "NOM_REG_NO": null }, "geometry": { "type": "Point", "coordinates": [ 148.18619237416226, -41.294062809318397 ] } },
{ "type": "Feature", "properties": { "COMFAC_ID": 63846, "PID": 0, "COM_TYPE1": "Ground", "COM_TYPE2": "Picnic Area", "NAME": null, "UFI": "{adb2d7fc-f25a-44e6-9404-73b587371ed9}", "CREATED_ON": "2016-12-02 11:56:19", "LIST_GUID": "{d961e4f4-0807-4919-baed-5c983f4f314f}", "NOM_REG_NO": null }, "geometry": { "type": "Point", "coordinates": [ 148.27035208859985, -41.503178212197732 ] } },
{ "type": "Feature", "properties": { "COMFAC_ID": 62406, "PID": 3067067, "COM_TYPE1": "Accommodation", "COM_TYPE2": "Caravan Park", "NAME": "Scamander Sanctuary Caravan Park", "UFI": "{fdbc6892-aaf3-4731-8f6a-96aa58fd684e}", "CREATED_ON": "2016-11-23 10:54:04", "LIST_GUID": "{f780ec6f-befe-4083-8af2-fb4929d51cc6}", "NOM_REG_NO": null }, "geometry": { "type": "Point", "coordinates": [ 148.261134164955507, -41.467104227844501 ] } },
{ "type": "Feature", "properties": { "COMFAC_ID": 421, "PID": 7154969, "COM_TYPE1": "State police and emergency", "COM_TYPE2": "Fire station", "NAME": "Scamander Fire Station", "UFI": "{62cd35ef-a901-4882-8340-085785a44ecd}", "CREATED_ON": "2016-11-23 10:54:04", "LIST_GUID": "{a5314c99-ea94-4532-9a3e-d789b92b6001}", "NOM_REG_NO": null }, "geometry": { "type": "Point", "coordinates": [ 148.261307966970293, -41.454146159835879 ] } },
{ "type": "Feature", "properties": { "COMFAC_ID": 417, "PID": 7220663, "COM_TYPE1": "Accommodation", "COM_TYPE2": "Caravan Park", "NAME": "Scamander Tourist Park", "UFI": "{2a2863a9-ae8a-4a73-94e7-1f14a77f4688}", "CREATED_ON": "2016-11-23 10:54:04", "LIST_GUID": "{2dbce5b1-4316-4517-9701-e51a6ccb6e28}", "NOM_REG_NO": null }, "geometry": { "type": "Point", "coordinates": [ 148.263791184441516, -41.451035665268698 ] } },
{ "type": "Feature", "properties": { "COMFAC_ID": 35915, "PID": 2098611, "COM_TYPE1": "Tourist feature", "COM_TYPE2": "Natural", "NAME": "Scamander Forest Reserve", "UFI": "{a2b29319-bc0b-409a-aaef-714fae25a47b}", "CREATED_ON": "2016-11-23 10:54:04", "LIST_GUID": "{e90209ea-9177-408a-92ff-3659db5de0dd}", "NOM_REG_NO": null }, "geometry": { "type": "Point", "coordinates": [ 148.225712195059344, -41.436192581213433 ] } },
{ "type": "Feature", "properties": { "COMFAC_ID": 55013, "PID": 6780490, "COM_TYPE1": "Tourist feature", "COM_TYPE2": "Other", "NAME": "Break ODay Tours", "UFI": "{2c055627-a86c-42fb-815a-bd5da09656a9}", "CREATED_ON": "2016-11-23 10:54:04", "LIST_GUID": "{05dc9339-f479-41c3-81a8-9c8a5f7fe563}", "NOM_REG_NO": null }, "geometry": { "type": "Point", "coordinates": [ 148.256613811460284, -41.337099607854235 ] } },
{ "type": "Feature", "properties": { "COMFAC_ID": 57519, "PID": 2160219, "COM_TYPE1": "Ground", "COM_TYPE2": "Picnic Area", "NAME": "Picnic Area", "UFI": "{96841fbf-35eb-4c60-bf1c-dfb9ea67f3e6}", "CREATED_ON": "2016-11-23 10:54:04", "LIST_GUID": "{b47df61a-ee9c-4569-80d3-adcdba4d1f43}", "NOM_REG_NO": null }, "geometry": { "type": "Point", "coordinates": [ 148.259828783484465, -41.337753335794552 ] } },
{ "type": "Feature", "properties": { "COMFAC_ID": 35923, "PID": 2711623, "COM_TYPE1": "Council", "COM_TYPE2": "Break ODay", "NAME": "St Helens Waste Transfer Station", "UFI": "{85bcee27-3a85-4d9c-b607-03f0983af90d}", "CREATED_ON": "2016-11-23 10:54:04", "LIST_GUID": "{712c8fc4-5c10-498c-8856-475d313f4b07}", "NOM_REG_NO": null }, "geometry": { "type": "Point", "coordinates": [ 148.226013056963922, -41.319757895624562 ] } },
{ "type": "Feature", "properties": { "COMFAC_ID": 56616, "PID": 6782496, "COM_TYPE1": "Club", "COM_TYPE2": "Croquet", "NAME": "St Helens Croquet Club", "UFI": "{eeb9e508-4937-4506-a445-c6da5d5ffe66}", "CREATED_ON": "2016-11-23 10:54:04", "LIST_GUID": "{3ebf72fe-1727-4598-b632-6a2ca0dff6ca}", "NOM_REG_NO": null }, "geometry": { "type": "Point", "coordinates": [ 148.23122431052218, -41.317332137003191 ] } },
{ "type": "Feature", "properties": { "COMFAC_ID": 426, "PID": 1897526, "COM_TYPE1": "Accommodation", "COM_TYPE2": "Motel", "NAME": "Anchor Wheel Motel", "UFI": "{368f821f-1fd5-41fa-84ab-94b2c70e91ff}", "CREATED_ON": "2016-11-23 10:54:04", "LIST_GUID": "{bc212a82-f541-4b00-9bf1-d79f93afc43d}", "NOM_REG_NO": null }, "geometry": { "type": "Point", "coordinates": [ 148.23913055000861, -41.316959099723384 ] } },
{ "type": "Feature", "properties": { "COMFAC_ID": 441, "PID": 6795369, "COM_TYPE1": "Church", "COM_TYPE2": "Uniting Church", "NAME": "St Helens Uniting Church", "UFI": "{9c1d0b23-02df-4758-bc60-242da6e3fcb3}", "CREATED_ON": "2016-11-23 10:54:04", "LIST_GUID": "{7f629ad1-542a-4c3b-9ae7-875fb22634b8}", "NOM_REG_NO": null }, "geometry": { "type": "Point", "coordinates": [ 148.245560924540996, -41.320921984598456 ] } },
{ "type": "Feature", "properties": { "COMFAC_ID": 465, "PID": 7146766, "COM_TYPE1": "Ground", "COM_TYPE2": "Park or reserve", "NAME": "Fishermans Memorial Park", "UFI": "{94c5ca11-176a-4f28-9d07-bdeff6bdab4f}", "CREATED_ON": "2016-11-23 10:54:04", "LIST_GUID": "{e13bade8-d989-4a7e-b4d6-d07e850cc9d9}", "NOM_REG_NO": "23724J" }, "geometry": { "type": "Point", "coordinates": [ 148.247536808434802, -41.32666064247163 ] } },
{ "type": "Feature", "properties": { "COMFAC_ID": 22485, "PID": 6793558, "COM_TYPE1": "Church", "COM_TYPE2": "Catholic Church", "NAME": "St Helena & St Stanislaus Catholic Church", "UFI": "{98bf2d50-c6bd-4117-bdfd-32a97d0ee26d}", "CREATED_ON": "2016-11-23 10:54:04", "LIST_GUID": "{fbb3b905-6c42-4bee-a117-458bc694160d}", "NOM_REG_NO": null }, "geometry": { "type": "Point", "coordinates": [ 148.248440325692428, -41.319371452450405 ] } },
{ "type": "Feature", "properties": { "COMFAC_ID": 442, "PID": 7154686, "COM_TYPE1": "Church", "COM_TYPE2": "Other Church", "NAME": "St Helens Christian Fellowship", "UFI": "{0a1f74b8-f529-44bb-956d-8f3e762b7acd}", "CREATED_ON": "2016-11-23 10:54:04", "LIST_GUID": "{89440797-acdf-476e-9192-aedeeae22bd0}", "NOM_REG_NO": null }, "geometry": { "type": "Point", "coordinates": [ 148.249642740976327, -41.320251618335611 ] } },
{ "type": "Feature", "properties": { "COMFAC_ID": 37466, "PID": 7431364, "COM_TYPE1": "Financial institution", "COM_TYPE2": "Commonwealth", "NAME": "Commonwealth Bank St Helens", "UFI": "{710a8748-7089-4d11-bf25-ffe7dc61fe22}", "CREATED_ON": "2016-11-23 10:54:04", "LIST_GUID": "{5027eb4b-1383-4927-bb30-e6c3af6afd4a}", "NOM_REG_NO": null }, "geometry": { "type": "Point", "coordinates": [ 148.249943781038297, -41.322515408771253 ] } },
{ "type": "Feature", "properties": { "COMFAC_ID": 62080, "PID": 6811402, "COM_TYPE1": "Sports complex", "COM_TYPE2": "Squash", "NAME": "St Helens Squash Centre", "UFI": "{e24b74d1-238a-4c9c-bcfe-43f1d9eaa03b}", "CREATED_ON": "2016-11-23 10:54:04", "LIST_GUID": "{7221a508-0253-4ff2-ab6f-3eccece0b50b}", "NOM_REG_NO": null }, "geometry": { "type": "Point", "coordinates": [ 148.251454536155109, -41.323024575555586 ] } },
{ "type": "Feature", "properties": { "COMFAC_ID": 54386, "PID": 2508609, "COM_TYPE1": "Accommodation", "COM_TYPE2": "Hotel", "NAME": "Tidal Waters Resort", "UFI": "{f369750d-8137-4636-b1b8-3d18c868c91c}", "CREATED_ON": "2016-11-23 10:54:04", "LIST_GUID": "{3a9f766f-9d69-4f76-9f64-095685507792}", "NOM_REG_NO": null }, "geometry": { "type": "Point", "coordinates": [ 148.25345356211696, -41.323091201741519 ] } },
{ "type": "Feature", "properties": { "COMFAC_ID": 62269, "PID": 2200823, "COM_TYPE1": "Accommodation", "COM_TYPE2": "Guest House\/ Bed and Breakfast", "NAME": "Whalers Watch B and B", "UFI": "{0c14f619-6d8b-4fca-a888-63ffaa3d82b8}", "CREATED_ON": "2016-11-23 10:54:04", "LIST_GUID": "{1ec365a7-d616-405a-99f9-15d918590a55}", "NOM_REG_NO": null }, "geometry": { "type": "Point", "coordinates": [ 148.267096541637471, -41.311168372966421 ] } },
{ "type": "Feature", "properties": { "COMFAC_ID": 13204, "PID": 6406618, "COM_TYPE1": "Accommodation", "COM_TYPE2": "Holiday Unit\/ Flat", "NAME": "Aurora Beach Cottage", "UFI": "{61897bb3-b039-4177-b34a-d36a9f576e87}", "CREATED_ON": "2016-11-23 10:54:04", "LIST_GUID": "{04d44531-712c-4485-ac0e-4c65fc8d9e28}", "NOM_REG_NO": null }, "geometry": { "type": "Point", "coordinates": [ 148.296607783208458, -41.741393521213325 ] } },
{ "type": "Feature", "properties": { "COMFAC_ID": 55782, "PID": 6787625, "COM_TYPE1": "Accommodation", "COM_TYPE2": "Holiday Unit\/ Flat", "NAME": "Sun Surf Anchor", "UFI": "{0cd96ea3-4ccd-4e00-9bd2-c7778111e584}", "CREATED_ON": "2016-11-23 10:54:04", "LIST_GUID": "{66a90079-6627-4805-be68-afd66eaec3e3}", "NOM_REG_NO": null }, "geometry": { "type": "Point", "coordinates": [ 148.27814562094602, -41.410802321410117 ] } },
{ "type": "Feature", "properties": { "COMFAC_ID": 34573, "PID": 1946949, "COM_TYPE1": "Accommodation", "COM_TYPE2": "Holiday Cabin", "NAME": "Binalong Bungalows", "UFI": "{a2a99dfd-fbd3-40ff-b083-3b8a76179297}", "CREATED_ON": "2016-11-23 10:54:04", "LIST_GUID": "{e52c109a-3f11-4a95-ac9e-06e90009c0e6}", "NOM_REG_NO": null }, "geometry": { "type": "Point", "coordinates": [ 148.299557684189693, -41.254591139669934 ] } },
{ "type": "Feature", "properties": { "COMFAC_ID": 35734, "PID": 6415418, "COM_TYPE1": "Commonwealth government", "COM_TYPE2": "Post offices and agencies", "NAME": "Mathinna Post Office", "UFI": "{94b7f7a8-4c52-4698-90ac-ece5f96136fd}", "CREATED_ON": "2016-11-23 10:54:04", "LIST_GUID": "{049a6337-3d41-45f4-82bf-998882196f7c}", "NOM_REG_NO": null }, "geometry": { "type": "Point", "coordinates": [ 147.888872947255095, -41.476801541961997 ] } },
{ "type": "Feature", "properties": { "COMFAC_ID": 35912, "PID": 6413332, "COM_TYPE1": "Sports complex", "COM_TYPE2": "Golf", "NAME": "Malahide Golf Course", "UFI": "{b769a6d3-753f-4c85-a86e-51ff2dd1cc46}", "CREATED_ON": "2016-11-23 10:54:04", "LIST_GUID": "{7b3bbc2c-f65c-4f6b-a0ec-6e55f587a396}", "NOM_REG_NO": "22317E" }, "geometry": { "type": "Point", "coordinates": [ 147.953157819762168, -41.634021470051472 ] } },
{ "type": "Feature", "properties": { "COMFAC_ID": 35946, "PID": 6413332, "COM_TYPE1": "Club", "COM_TYPE2": "Golf", "NAME": "Malahide Golf Club", "UFI": "{12583a10-2d43-4623-85f1-39f53782ecb2}", "CREATED_ON": "2016-11-23 10:54:04", "LIST_GUID": "{c7e56647-893f-4c68-ab36-b613fdc5e3bb}", "NOM_REG_NO": null }, "geometry": { "type": "Point", "coordinates": [ 147.956783066856588, -41.633399251545455 ] } },
{ "type": "Feature", "properties": { "COMFAC_ID": 63210, "PID": 2543201, "COM_TYPE1": "Council", "COM_TYPE2": "Break ODay", "NAME": "Weldborough Waste Transfer Station", "UFI": "{5b60b3d0-12bb-4b8a-b86b-c644b4d7dae4}", "CREATED_ON": "2016-11-23 10:54:04", "LIST_GUID": "{b0f9c5f4-d9c0-4746-a9ba-c65ac42a6e1a}", "NOM_REG_NO": null }, "geometry": { "type": "Point", "coordinates": [ 147.901671956747066, -41.176643649230527 ] } },
{ "type": "Feature", "properties": { "COMFAC_ID": 56638, "PID": 6412073, "COM_TYPE1": "State Government", "COM_TYPE2": "Other", "NAME": "TasWater - Wastewater Treatment Plant", "UFI": "{2caef2b8-676f-4ae4-a25a-008890cc62b2}", "CREATED_ON": "2016-11-23 10:54:04", "LIST_GUID": "{da18fb9c-a108-43a4-a347-c37771afc1b7}", "NOM_REG_NO": null }, "geometry": { "type": "Point", "coordinates": [ 147.963264120911532, -41.640479391766235 ] } },
{ "type": "Feature", "properties": { "COMFAC_ID": 407, "PID": 6412161, "COM_TYPE1": "State police and emergency", "COM_TYPE2": "Police station", "NAME": "Fingal Police Station", "UFI": "{6b34af6b-52ed-434c-8d60-91f6058c1be8}", "CREATED_ON": "2016-11-23 10:54:04", "LIST_GUID": "{a7b9c5a1-0289-4f96-8738-af9f64e232f2}", "NOM_REG_NO": null }, "geometry": { "type": "Point", "coordinates": [ 147.963953655113045, -41.641757822579187 ] } },
{ "type": "Feature", "properties": { "COMFAC_ID": 51829, "PID": 6806259, "COM_TYPE1": "Club", "COM_TYPE2": "Cricket", "NAME": "Pyengana Cricket Club", "UFI": "{4d2978e0-af83-4731-a50a-79faa6c88032}", "CREATED_ON": "2016-11-23 10:54:04", "LIST_GUID": "{a75a3c1b-f190-4e26-bf7c-696be99d2a0b}", "NOM_REG_NO": null }, "geometry": { "type": "Point", "coordinates": [ 148.001412745887535, -41.293314709136716 ] } },
{ "type": "Feature", "properties": { "COMFAC_ID": 63511, "PID": 0, "COM_TYPE1": "Tourist feature", "COM_TYPE2": "Natural", "NAME": "Goblin Forest Walk", "UFI": "{08c9e1b7-a616-4e46-b26c-cbe1228cd5e6}", "CREATED_ON": "2016-11-23 10:54:04", "LIST_GUID": "{3931be72-b013-4842-acff-accc872e7b39}", "NOM_REG_NO": null }, "geometry": { "type": "Point", "coordinates": [ 148.004066806436242, -41.199453827335311 ] } },
{ "type": "Feature", "properties": { "COMFAC_ID": 46969, "PID": 0, "COM_TYPE1": "Accommodation", "COM_TYPE2": "Camp and Camping Ground", "NAME": "Douglas Apsley Camping Ground", "UFI": "{4c31430e-9833-45ca-a1ea-1d36dac5a2b3}", "CREATED_ON": "2016-11-23 10:54:04", "LIST_GUID": "{e8b76d84-1ac2-4a02-8855-f7441c0180b0}", "NOM_REG_NO": null }, "geometry": { "type": "Point", "coordinates": [ 148.188049313720938, -41.861976678917593 ] } },
{ "type": "Feature", "properties": { "COMFAC_ID": 45608, "PID": 6401868, "COM_TYPE1": "State Government", "COM_TYPE2": "Aurora Energy", "NAME": "Aurora Energy St Marys", "UFI": "{45601db7-2dc8-45af-9929-4aa3a35fc1c5}", "CREATED_ON": "2016-11-23 10:54:04", "LIST_GUID": "{692b012c-4a97-42d5-860e-9305d92cddf1}", "NOM_REG_NO": null }, "geometry": { "type": "Point", "coordinates": [ 148.182445640536258, -41.579334579516704 ] } },
{ "type": "Feature", "properties": { "COMFAC_ID": 500, "PID": 6402772, "COM_TYPE1": "Sports complex", "COM_TYPE2": "Racecourses", "NAME": "St Marys Racecourse", "UFI": "{17435e75-2464-4be0-bfb6-f7c0b69e9caf}", "CREATED_ON": "2016-11-23 10:54:04", "LIST_GUID": "{f4f0a5cf-425f-4a2c-8748-c5b13f08eef2}", "NOM_REG_NO": null }, "geometry": { "type": "Point", "coordinates": [ 148.185318690325659, -41.587685369614761 ] } },
{ "type": "Feature", "properties": { "COMFAC_ID": 57516, "PID": 0, "COM_TYPE1": "Ground", "COM_TYPE2": "Picnic Area", "NAME": "Picnic Area", "UFI": "{32114bda-9a82-4a9c-a232-39e57831de83}", "CREATED_ON": "2016-11-23 10:54:04", "LIST_GUID": "{f10b3f79-853d-4b4a-ada8-efdea2e7ff74}", "NOM_REG_NO": null }, "geometry": { "type": "Point", "coordinates": [ 148.186797858329527, -41.57902200581389 ] } },
{ "type": "Feature", "properties": { "COMFAC_ID": 487, "PID": 2114546, "COM_TYPE1": "Club", "COM_TYPE2": "Bowls", "NAME": "St Marys Bowls Club", "UFI": "{27e9754e-ba5e-4026-b2df-54ab4a339020}", "CREATED_ON": "2016-11-23 10:54:04", "LIST_GUID": "{286b0ca1-2220-4396-8951-972eec28b14d}", "NOM_REG_NO": null }, "geometry": { "type": "Point", "coordinates": [ 148.187535506749555, -41.586280318128239 ] } },
{ "type": "Feature", "properties": { "COMFAC_ID": 13164, "PID": 7774965, "COM_TYPE1": "Accommodation", "COM_TYPE2": "Guest House\/ Bed and Breakfast", "NAME": "Addlestone House B&B", "UFI": "{259946b9-34f2-4082-afc1-45763e4c2a26}", "CREATED_ON": "2016-11-23 10:54:04", "LIST_GUID": "{894d4f52-a4c0-4385-b6f4-629d93ffae5f}", "NOM_REG_NO": null }, "geometry": { "type": "Point", "coordinates": [ 148.188289995528322, -41.586335733502843 ] } },
{ "type": "Feature", "properties": { "COMFAC_ID": 498, "PID": 7320664, "COM_TYPE1": "Education and training", "COM_TYPE2": "District High School", "NAME": "St Marys District School - St Marys Campus", "UFI": "{c0ec68c8-7f21-4e4d-bde6-9433a5ceadd7}", "CREATED_ON": "2016-11-23 10:54:04", "LIST_GUID": "{d523d774-82b9-4d96-80dd-04a255419094}", "NOM_REG_NO": null }, "geometry": { "type": "Point", "coordinates": [ 148.189440530019283, -41.584837476982344 ] } },
{ "type": "Feature", "properties": { "COMFAC_ID": 62225, "PID": 0, "COM_TYPE1": "Accommodation", "COM_TYPE2": "Holiday Unit\/ Flat", "NAME": "Lumera Eco Lodge and Chalets", "UFI": "{31dd9ad8-d99c-4ecf-9bf6-8c556975746c}", "CREATED_ON": "2016-11-23 10:54:04", "LIST_GUID": "{666014d7-1d00-45ef-a554-09eb30f6ef5b}", "NOM_REG_NO": null }, "geometry": { "type": "Point", "coordinates": [ 148.225628671497361, -41.567882773611501 ] } },
{ "type": "Feature", "properties": { "COMFAC_ID": 471, "PID": 6782496, "COM_TYPE1": "Sports complex", "COM_TYPE2": "Indoor general", "NAME": "St Helens Sporting Complex", "UFI": "{98606697-c328-4742-8afe-8e93f0b936f3}", "CREATED_ON": "2016-11-23 10:54:04", "LIST_GUID": "{9fecf11d-c2df-4182-9d04-8363db881e01}", "NOM_REG_NO": null }, "geometry": { "type": "Point", "coordinates": [ 148.234254739716278, -41.316980759186428 ] } },
{ "type": "Feature", "properties": { "COMFAC_ID": 22745, "PID": 6794075, "COM_TYPE1": "State police and emergency", "COM_TYPE2": "State Emergency Service unit", "NAME": "SES Break ODay", "UFI": "{291327be-86c7-4b20-ae9a-414ccf7b7529}", "CREATED_ON": "2016-11-23 10:54:04", "LIST_GUID": "{833d5ea2-cade-497c-b49b-9d1cd0c8bda8}", "NOM_REG_NO": null }, "geometry": { "type": "Point", "coordinates": [ 148.245534647869732, -41.323014953474619 ] } },
{ "type": "Feature", "properties": { "COMFAC_ID": 56456, "PID": 6794323, "COM_TYPE1": "Community care", "COM_TYPE2": "Creche", "NAME": "Poss'M'agic Child Care Centre", "UFI": "{ffc4f73f-eb88-473d-9d13-1666fc2ef1b9}", "CREATED_ON": "2016-11-23 10:54:04", "LIST_GUID": "{7e3b9431-b2b8-4578-a16b-912a737c6752}", "NOM_REG_NO": null }, "geometry": { "type": "Point", "coordinates": [ 148.248017635844008, -41.324699119053797 ] } },
{ "type": "Feature", "properties": { "COMFAC_ID": 35871, "PID": 7768354, "COM_TYPE1": "State Government", "COM_TYPE2": "Justice", "NAME": "St Helens Court House", "UFI": "{d2804e4d-bd6c-4a06-b467-7cb55cf30fbe}", "CREATED_ON": "2016-11-23 10:54:04", "LIST_GUID": "{b8a4160e-711b-4945-acab-3b8747233304}", "NOM_REG_NO": null }, "geometry": { "type": "Point", "coordinates": [ 148.248073565628516, -41.325862914722045 ] } },
{ "type": "Feature", "properties": { "COMFAC_ID": 22705, "PID": 6793494, "COM_TYPE1": "Cultural", "COM_TYPE2": "Library", "NAME": "St Helens Library", "UFI": "{6ef649b0-b457-4baf-810b-b3fbce62f3b1}", "CREATED_ON": "2016-11-23 10:54:04", "LIST_GUID": "{b2f00053-fded-428e-87c9-cc89b25cee4c}", "NOM_REG_NO": null }, "geometry": { "type": "Point", "coordinates": [ 148.248813592488602, -41.320764657732099 ] } },
{ "type": "Feature", "properties": { "COMFAC_ID": 446, "PID": 1828192, "COM_TYPE1": "Club", "COM_TYPE2": "RSL and ex service", "NAME": "St Helens RSL & Ex-Servicemens", "UFI": "{b01e37f0-da3e-465a-ba84-652ee29898fc}", "CREATED_ON": "2016-11-23 10:54:04", "LIST_GUID": "{7ddc2656-1743-4171-84ff-bb9b5d10a70e}", "NOM_REG_NO": null }, "geometry": { "type": "Point", "coordinates": [ 148.249048162836829, -41.321885477103898 ] } },
{ "type": "Feature", "properties": { "COMFAC_ID": 62078, "PID": 2023847, "COM_TYPE1": "Community care", "COM_TYPE2": "Charity or welfare", "NAME": "Veterans Information Centre", "UFI": "{e526012d-07eb-4f75-a10a-867b2b537844}", "CREATED_ON": "2016-11-23 10:54:04", "LIST_GUID": "{40e49cb8-5bbe-4125-bc7c-a15e19d9e577}", "NOM_REG_NO": null }, "geometry": { "type": "Point", "coordinates": [ 148.2494087713753, -41.321891507045898 ] } },
{ "type": "Feature", "properties": { "COMFAC_ID": 469, "PID": 7484837, "COM_TYPE1": "Commonwealth government", "COM_TYPE2": "Post offices and agencies", "NAME": "St Helens Post Office", "UFI": "{095ce452-360b-4409-b161-9e95ecb0ceea}", "CREATED_ON": "2016-11-23 10:54:04", "LIST_GUID": "{ac9e3fbc-6608-4be0-b5e9-00d4b6580cb1}", "NOM_REG_NO": null }, "geometry": { "type": "Point", "coordinates": [ 148.249732011748023, -41.320924848152508 ] } },
{ "type": "Feature", "properties": { "COMFAC_ID": 57524, "PID": 1728626, "COM_TYPE1": "Ground", "COM_TYPE2": "Picnic Area", "NAME": "Picnic Area", "UFI": "{4a0879fc-11a1-4699-8adb-c55922455681}", "CREATED_ON": "2016-11-23 10:54:04", "LIST_GUID": "{5de636d0-3c9c-49db-a2b4-b905e94b2ae0}", "NOM_REG_NO": null }, "geometry": { "type": "Point", "coordinates": [ 148.250087491859802, -41.324866225136681 ] } },
{ "type": "Feature", "properties": { "COMFAC_ID": 510, "PID": 6803840, "COM_TYPE1": "State Government", "COM_TYPE2": "Other", "NAME": "TasWater - Wastewater Treatment Plant", "UFI": "{0adb086e-2a51-48d8-aa32-4fd01f099669}", "CREATED_ON": "2016-11-23 10:54:04", "LIST_GUID": "{4bc8e312-d117-4b27-a2c4-eef68fdd6bb6}", "NOM_REG_NO": null }, "geometry": { "type": "Point", "coordinates": [ 148.25998136167604, -41.321978775200762 ] } },
{ "type": "Feature", "properties": { "COMFAC_ID": 62646, "PID": 2077984, "COM_TYPE1": "Accommodation", "COM_TYPE2": "Holiday Unit\/ Flat", "NAME": "Seymour Waves", "UFI": "{c60f431c-685f-44d7-97a1-e6c109cc99e2}", "CREATED_ON": "2016-11-23 10:54:04", "LIST_GUID": "{6081e2d1-33d0-4561-bb25-6933cc073e48}", "NOM_REG_NO": null }, "geometry": { "type": "Point", "coordinates": [ 148.30011495806437, -41.746003233585604 ] } },
{ "type": "Feature", "properties": { "COMFAC_ID": 53774, "PID": 1768636, "COM_TYPE1": "Accommodation", "COM_TYPE2": "Hotel", "NAME": "White Sands Resort", "UFI": "{65c001e5-9d4b-4a13-9c7f-8804d21c1cca}", "CREATED_ON": "2016-11-23 10:54:04", "LIST_GUID": "{830ebd9c-03b2-46b9-9fec-cab216fa402a}", "NOM_REG_NO": null }, "geometry": { "type": "Point", "coordinates": [ 148.310837064023389, -41.573146125089785 ] } },
{ "type": "Feature", "properties": { "COMFAC_ID": 537, "PID": 7097634, "COM_TYPE1": "State Government", "COM_TYPE2": "Other", "NAME": "TasWater - Wastewater Treatment Plant", "UFI": "{63bf54e9-db5c-4996-a051-c2a34acc6506}", "CREATED_ON": "2016-11-23 10:54:04", "LIST_GUID": "{a58b23f3-08c0-4269-88dc-d8f38b00a578}", "NOM_REG_NO": null }, "geometry": { "type": "Point", "coordinates": [ 148.30659562159704, -41.329210502858786 ] } },
{ "type": "Feature", "properties": { "COMFAC_ID": 60180, "PID": 6809396, "COM_TYPE1": "Accommodation", "COM_TYPE2": "Holiday Unit\/ Flat", "NAME": "Binalong Coastal Waters", "UFI": "{24a7f823-74b0-40ba-add5-99481b73e7b9}", "CREATED_ON": "2016-11-23 10:54:04", "LIST_GUID": "{ad7ac9d1-67be-4d70-83da-9722ea711ab0}", "NOM_REG_NO": null }, "geometry": { "type": "Point", "coordinates": [ 148.304195423661241, -41.254284283131817 ] } },
{ "type": "Feature", "properties": { "COMFAC_ID": 57355, "PID": 6797938, "COM_TYPE1": "Ground", "COM_TYPE2": "Picnic Area", "NAME": "Picnic Area", "UFI": "{5a09caa4-c983-43e9-a9a1-fed9d2df1bde}", "CREATED_ON": "2016-11-23 10:54:04", "LIST_GUID": "{96bfa3a3-9bcf-4b77-8f6d-f255ae59a7e2}", "NOM_REG_NO": null }, "geometry": { "type": "Point", "coordinates": [ 148.308393784971088, -41.25043439262685 ] } },
{ "type": "Feature", "properties": { "COMFAC_ID": 60571, "PID": 6796599, "COM_TYPE1": "Accommodation", "COM_TYPE2": "Holiday Unit\/ Flat", "NAME": "Binalong Bay Holiday Home", "UFI": "{f61f213a-6ff6-4274-98a8-fe67e68b19b4}", "CREATED_ON": "2016-11-23 10:54:04", "LIST_GUID": "{b5b847af-4c82-46d2-a922-3b9f583b4deb}", "NOM_REG_NO": null }, "geometry": { "type": "Point", "coordinates": [ 148.312994506151796, -41.254792900029699 ] } },
{ "type": "Feature", "properties": { "COMFAC_ID": 13344, "PID": 7845196, "COM_TYPE1": "Accommodation", "COM_TYPE2": "Camp and Camping Ground", "NAME": "Bay of Fires Beach Camping Ground", "UFI": "{bb827284-adfb-483e-bc70-8529fcdc2d96}", "CREATED_ON": "2016-11-23 10:54:04", "LIST_GUID": "{1d8a8341-5b15-417e-a9be-10af513727e8}", "NOM_REG_NO": null }, "geometry": { "type": "Point", "coordinates": [ 148.292660786090977, -41.0625572249538 ] } },
{ "type": "Feature", "properties": { "COMFAC_ID": 539, "PID": 7632166, "COM_TYPE1": "Ground", "COM_TYPE2": "Park or reserve", "NAME": "E J Groves Reserve", "UFI": "{74f3cb5c-eb59-4455-bbb2-c5c2d341f68b}", "CREATED_ON": "2016-11-23 10:54:04", "LIST_GUID": "{70818c05-501b-4e9b-a0ef-ce1e1a4ef71d}", "NOM_REG_NO": "19587C" }, "geometry": { "type": "Point", "coordinates": [ 148.26960401149293, -41.036825476249938 ] } },
{ "type": "Feature", "properties": { "COMFAC_ID": 13184, "PID": 7206108, "COM_TYPE1": "Accommodation", "COM_TYPE2": "Holiday Cabin", "NAME": "Bay of Fires Walk", "UFI": "{e80ac857-3ce1-4fdc-ab9c-633a7c4e5134}", "CREATED_ON": "2016-11-23 10:54:04", "LIST_GUID": "{cc99ee71-2bb7-455f-909f-3744a6b04d0c}", "NOM_REG_NO": null }, "geometry": { "type": "Point", "coordinates": [ 148.303073227951728, -41.026777145692854 ] } },
{ "type": "Feature", "properties": { "COMFAC_ID": 37465, "PID": 6412890, "COM_TYPE1": "Church", "COM_TYPE2": "Catholic Church", "NAME": "St Josephs Catholic Church", "UFI": "{bb105704-a659-4d0b-bfcf-e930afa0764d}", "CREATED_ON": "2016-11-23 10:54:04", "LIST_GUID": "{d5d00a95-cbc1-4b89-aa8e-2b28639f4362}", "NOM_REG_NO": null }, "geometry": { "type": "Point", "coordinates": [ 147.971086381617823, -41.641142171349856 ] } },
{ "type": "Feature", "properties": { "COMFAC_ID": 394, "PID": 6412006, "COM_TYPE1": "Church", "COM_TYPE2": "Uniting Church", "NAME": "Fingal Uniting Church", "UFI": "{e9cc2d2b-8a31-4fe0-99e1-aa5fb5559c61}", "CREATED_ON": "2016-11-23 10:54:04", "LIST_GUID": "{8e99c9f6-1efc-4fd9-ba02-660a9cf9f3d1}", "NOM_REG_NO": null }, "geometry": { "type": "Point", "coordinates": [ 147.973320956148939, -41.638365041451536 ] } },
{ "type": "Feature", "properties": { "COMFAC_ID": 52149, "PID": 6411943, "COM_TYPE1": "Ground", "COM_TYPE2": "Burial ground", "NAME": "Fingal Cemetery", "UFI": "{57d383ef-5ad7-4922-bbea-81c9e9fe7335}", "CREATED_ON": "2016-11-23 10:54:04", "LIST_GUID": "{8d5b072f-f7c1-426e-aa04-efcc22040a80}", "NOM_REG_NO": null }, "geometry": { "type": "Point", "coordinates": [ 147.978543683112889, -41.644736715857746 ] } },
{ "type": "Feature", "properties": { "COMFAC_ID": 51830, "PID": 6806259, "COM_TYPE1": "Sports complex", "COM_TYPE2": "Other", "NAME": "Pyengana Chopping Arena", "UFI": "{3237c1a3-26e3-439e-9b50-ec75ce37cd70}", "CREATED_ON": "2016-11-23 10:54:04", "LIST_GUID": "{07dd9329-57f6-4265-b049-75a682552863}", "NOM_REG_NO": null }, "geometry": { "type": "Point", "coordinates": [ 148.001095795320737, -41.293460749973157 ] } },
{ "type": "Feature", "properties": { "COMFAC_ID": 37527, "PID": 2101198, "COM_TYPE1": "Ground", "COM_TYPE2": "Picnic Area", "NAME": "Huntsmans Picnic Ground", "UFI": "{1e31888a-0953-4014-8dca-e083ce1ce8c7}", "CREATED_ON": "2016-11-23 10:54:04", "LIST_GUID": "{ee941dd1-1e83-4b60-8e62-02d51364cca6}", "NOM_REG_NO": "22520L" }, "geometry": { "type": "Point", "coordinates": [ 148.113921091070353, -41.505363171263127 ] } },
{ "type": "Feature", "properties": { "COMFAC_ID": 62025, "PID": 2936304, "COM_TYPE1": "State police and emergency", "COM_TYPE2": "Community Fire Refuge", "NAME": "St Marys Hall", "UFI": "{009f34a1-05c5-483c-a9cb-816474572542}", "CREATED_ON": "2016-11-23 10:54:04", "LIST_GUID": "{e3eb0c75-24f9-4647-bba1-06e9c75ba50e}", "NOM_REG_NO": null }, "geometry": { "type": "Point", "coordinates": [ 148.185038651387458, -41.579402895919976 ] } },
{ "type": "Feature", "properties": { "COMFAC_ID": 63803, "PID": 6405260, "COM_TYPE1": "Tourist feature", "COM_TYPE2": "Industrial", "NAME": "Mt Elephant Fudge", "UFI": "{5922184a-d599-40ec-94f8-43f764434c87}", "CREATED_ON": "2016-12-01 11:19:26", "LIST_GUID": "{d9a577e6-bf65-49aa-baa1-686cc6588e00}", "NOM_REG_NO": null }, "geometry": { "type": "Point", "coordinates": [ 148.185981338762844, -41.580311619324 ] } },
{ "type": "Feature", "properties": { "COMFAC_ID": 481, "PID": 6403943, "COM_TYPE1": "Accommodation", "COM_TYPE2": "Hotel", "NAME": "St Marys Hotel", "UFI": "{b9f9a1a0-5bd6-4f3c-aa68-961a256e7db4}", "CREATED_ON": "2016-11-23 10:54:04", "LIST_GUID": "{2676bea3-f0bc-4831-91e9-af15ba5f1264}", "NOM_REG_NO": null }, "geometry": { "type": "Point", "coordinates": [ 148.186181339941498, -41.579809175755564 ] } },
{ "type": "Feature", "properties": { "COMFAC_ID": 62192, "PID": 6403951, "COM_TYPE1": "Accommodation", "COM_TYPE2": "Guest House\/ Bed and Breakfast", "NAME": "Oakdene Heritage Accommodation", "UFI": "{c08969f3-5941-43a0-8336-16b23b79eb99}", "CREATED_ON": "2016-11-23 10:54:04", "LIST_GUID": "{074e0eb1-5825-4561-843e-e90ecf8ddef2}", "NOM_REG_NO": null }, "geometry": { "type": "Point", "coordinates": [ 148.187180535442963, -41.579504852178061 ] } },
{ "type": "Feature", "properties": { "COMFAC_ID": 488, "PID": 6402799, "COM_TYPE1": "Club", "COM_TYPE2": "Golf", "NAME": "St Marys Golf Club", "UFI": "{1e2b10d9-6450-48a4-8f97-69b37c46bee2}", "CREATED_ON": "2016-11-23 10:54:04", "LIST_GUID": "{b4663423-0649-404b-bd01-8b8a403f8416}", "NOM_REG_NO": null }, "geometry": { "type": "Point", "coordinates": [ 148.187497377109707, -41.586163619897583 ] } },
{ "type": "Feature", "properties": { "COMFAC_ID": 530, "PID": 6792010, "COM_TYPE1": "Sports complex", "COM_TYPE2": "Golf", "NAME": "St Helens Golf Course", "UFI": "{c0f55cfd-7672-4a52-8552-265e35461bb8}", "CREATED_ON": "2016-11-23 10:54:04", "LIST_GUID": "{c7245d77-f5bd-4126-a7ea-b47f2bac3908}", "NOM_REG_NO": "22405E" }, "geometry": { "type": "Point", "coordinates": [ 148.217196244947189, -41.317218380457675 ] } },
{ "type": "Feature", "properties": { "COMFAC_ID": 54841, "PID": 7154782, "COM_TYPE1": "Club", "COM_TYPE2": "Bowls", "NAME": "Scamander Bowls Club", "UFI": "{0313cd4d-7fe4-482b-b510-c68f89069fa6}", "CREATED_ON": "2016-11-23 10:54:04", "LIST_GUID": "{2fc43ffe-dd09-4cb2-96e5-c02be26f33c7}", "NOM_REG_NO": null }, "geometry": { "type": "Point", "coordinates": [ 148.259232054853214, -41.454429151942549 ] } },
{ "type": "Feature", "properties": { "COMFAC_ID": 57521, "PID": 2160219, "COM_TYPE1": "Ground", "COM_TYPE2": "Picnic Area", "NAME": "Picnic Area", "UFI": "{53588ec8-9eca-4c70-ba55-c6fc183988ae}", "CREATED_ON": "2016-11-23 10:54:04", "LIST_GUID": "{d484df62-6e4c-4e51-88f2-0e23b3e49bcc}", "NOM_REG_NO": null }, "geometry": { "type": "Point", "coordinates": [ 148.255836677633539, -41.332250130121146 ] } },
{ "type": "Feature", "properties": { "COMFAC_ID": 57518, "PID": 2160219, "COM_TYPE1": "Ground", "COM_TYPE2": "Picnic Area", "NAME": "Picnic Area", "UFI": "{8c98f079-048a-459a-956d-0154a01844d4}", "CREATED_ON": "2016-11-23 10:54:04", "LIST_GUID": "{f98a8173-f5aa-476c-a7fe-16214019f7c1}", "NOM_REG_NO": null }, "geometry": { "type": "Point", "coordinates": [ 148.263759768831875, -41.340944177974727 ] } },
{ "type": "Feature", "properties": { "COMFAC_ID": 62006, "PID": 6782496, "COM_TYPE1": "State police and emergency", "COM_TYPE2": "Community Fire Refuge", "NAME": "St Helens Football Club", "UFI": "{79d5498d-ad3a-4636-bb23-97a2df1d4b02}", "CREATED_ON": "2016-11-23 10:54:04", "LIST_GUID": "{b6b0544e-ae0a-42b1-a00e-1b6b761631a8}", "NOM_REG_NO": null }, "geometry": { "type": "Point", "coordinates": [ 148.231701421809618, -41.316896159539482 ] } },
{ "type": "Feature", "properties": { "COMFAC_ID": 472, "PID": 6782496, "COM_TYPE1": "Sports complex", "COM_TYPE2": "Racecourses", "NAME": "St Helens Trotting Track", "UFI": "{80fb5a82-cd0e-4bf7-bceb-c8702c4172eb}", "CREATED_ON": "2016-11-23 10:54:04", "LIST_GUID": "{a7f7c5c2-d104-4e19-bb78-c75ed6577159}", "NOM_REG_NO": null }, "geometry": { "type": "Point", "coordinates": [ 148.2339378402541, -41.318835020868718 ] } },
{ "type": "Feature", "properties": { "COMFAC_ID": 449, "PID": 1927086, "COM_TYPE1": "Sports complex", "COM_TYPE2": "Other", "NAME": "St Helens Little Athletics Centre", "UFI": "{8d95afff-f0ac-495e-898a-d9e5b953bde8}", "CREATED_ON": "2016-11-23 10:54:04", "LIST_GUID": "{e954c66d-84b3-4adf-9ffd-140da60c775d}", "NOM_REG_NO": null }, "geometry": { "type": "Point", "coordinates": [ 148.234120774970251, -41.317391242982261 ] } },
{ "type": "Feature", "properties": { "COMFAC_ID": 56615, "PID": 6782496, "COM_TYPE1": "Sports complex", "COM_TYPE2": "Other", "NAME": "St Helens Woodchopping Arena", "UFI": "{21192a67-6187-4afd-90d7-a1bd3be75999}", "CREATED_ON": "2016-11-23 10:54:04", "LIST_GUID": "{0dccd418-c9b3-4eed-bf98-e40820070664}", "NOM_REG_NO": null }, "geometry": { "type": "Point", "coordinates": [ 148.23585844201267, -41.317279036021205 ] } },
{ "type": "Feature", "properties": { "COMFAC_ID": 53234, "PID": 6795238, "COM_TYPE1": "Accommodation", "COM_TYPE2": "Holiday Unit\/ Flat", "NAME": "Kellraine Units No. 2", "UFI": "{1188f3a1-e22b-4046-af3b-eab3142bd3ac}", "CREATED_ON": "2016-11-23 10:54:04", "LIST_GUID": "{67d8e30c-4c42-42df-921f-167b12b4a969}", "NOM_REG_NO": null }, "geometry": { "type": "Point", "coordinates": [ 148.243390725081554, -41.321092615536202 ] } },
{ "type": "Feature", "properties": { "COMFAC_ID": 461, "PID": 6794008, "COM_TYPE1": "Medical service", "COM_TYPE2": "Family & child health centre", "NAME": "St Helens Child Health Centre", "UFI": "{ccebe673-d203-42ec-8fcd-fbfa9db44571}", "CREATED_ON": "2016-11-23 10:54:04", "LIST_GUID": "{53a6e7e3-48c6-4742-a58a-8d9cf3224967}", "NOM_REG_NO": null }, "geometry": { "type": "Point", "coordinates": [ 148.243654835454606, -41.323225087737576 ] } },
{ "type": "Feature", "properties": { "COMFAC_ID": 444, "PID": 1397775, "COM_TYPE1": "Club", "COM_TYPE2": "Bowls", "NAME": "St Helens Bowls Club", "UFI": "{f7572955-55ae-49e0-a61b-569e51376527}", "CREATED_ON": "2016-11-23 10:54:04", "LIST_GUID": "{f5fa1b9f-609e-460f-9bdd-607ab776822f}", "NOM_REG_NO": null }, "geometry": { "type": "Point", "coordinates": [ 148.247552025278196, -41.323146319274016 ] } },
{ "type": "Feature", "properties": { "COMFAC_ID": 57522, "PID": 7768362, "COM_TYPE1": "Ground", "COM_TYPE2": "Picnic Area", "NAME": "Picnic Area", "UFI": "{4d3cd7bd-d22a-487e-9f5d-796518b545cf}", "CREATED_ON": "2016-11-23 10:54:04", "LIST_GUID": "{fc2e0229-8e5e-4727-b57a-04c9df2a44be}", "NOM_REG_NO": null }, "geometry": { "type": "Point", "coordinates": [ 148.247868178665556, -41.32646686659276 ] } },
{ "type": "Feature", "properties": { "COMFAC_ID": 22767, "PID": 2874078, "COM_TYPE1": "State Government", "COM_TYPE2": "Other", "NAME": "Marine & Safety Tasmania St Helens", "UFI": "{56d784e5-b6eb-4059-ad7e-32298a17f007}", "CREATED_ON": "2016-11-23 10:54:04", "LIST_GUID": "{8120ff52-9c10-4ad4-85c0-592673a2bf42}", "NOM_REG_NO": null }, "geometry": { "type": "Point", "coordinates": [ 148.247966398467128, -41.327096016710755 ] } },
{ "type": "Feature", "properties": { "COMFAC_ID": 59974, "PID": 0, "COM_TYPE1": "Transport", "COM_TYPE2": "Sea", "NAME": "St Helens Berthing Piers & Wharf MAST", "UFI": "{4d97657f-7459-4a6c-b47d-387a662bd6cb}", "CREATED_ON": "2016-11-23 10:54:04", "LIST_GUID": "{5d45b08d-d89e-4e67-a891-a179dd81b92a}", "NOM_REG_NO": null }, "geometry": { "type": "Point", "coordinates": [ 148.248835353295107, -41.326753873400328 ] } },
{ "type": "Feature", "properties": { "COMFAC_ID": 51869, "PID": 6793881, "COM_TYPE1": "Transport", "COM_TYPE2": "Service Station", "NAME": "BP St Helens", "UFI": "{46eb030c-2f65-439d-9daf-aa19f566d8e1}", "CREATED_ON": "2016-11-23 10:54:04", "LIST_GUID": "{a15f1230-fbbb-4bd6-b31b-39c5eec42f14}", "NOM_REG_NO": null }, "geometry": { "type": "Point", "coordinates": [ 148.249691352528657, -41.323585686483092 ] } },
{ "type": "Feature", "properties": { "COMFAC_ID": 63888, "PID": 6793830, "COM_TYPE1": "Tourist feature", "COM_TYPE2": "Industrial", "NAME": "k.mueller Design", "UFI": "{411d598c-6a95-462d-b84a-ef91d0c3f86e}", "CREATED_ON": "2017-05-15 14:36:17", "LIST_GUID": "{ab7b24bc-39dd-48c3-a157-38d393072a18}", "NOM_REG_NO": null }, "geometry": { "type": "Point", "coordinates": [ 148.249934154578028, -41.322097972763387 ] } },
{ "type": "Feature", "properties": { "COMFAC_ID": 453, "PID": 6795481, "COM_TYPE1": "Financial institution", "COM_TYPE2": "ANZ", "NAME": "ANZ Bank St Helens", "UFI": "{e991c7c2-4202-4ba6-b80c-db101d7dd28c}", "CREATED_ON": "2016-11-23 10:54:04", "LIST_GUID": "{5ea3dd6f-629b-4156-a56f-e0ba8f459d6d}", "NOM_REG_NO": null }, "geometry": { "type": "Point", "coordinates": [ 148.250192426747645, -41.321631445618095 ] } },
{ "type": "Feature", "properties": { "COMFAC_ID": 51490, "PID": 7950797, "COM_TYPE1": "Accommodation", "COM_TYPE2": "Guest House\/ Bed and Breakfast", "NAME": "Bed in the Treetops", "UFI": "{15338b8d-961b-4066-a903-87f8ac448903}", "CREATED_ON": "2016-11-23 10:54:04", "LIST_GUID": "{409ac153-4783-4669-808b-0164825a00ea}", "NOM_REG_NO": null }, "geometry": { "type": "Point", "coordinates": [ 148.269692058492268, -41.273002529317054 ] } },
{ "type": "Feature", "properties": { "COMFAC_ID": 60436, "PID": 2623260, "COM_TYPE1": "Accommodation", "COM_TYPE2": "Hotel", "NAME": "Surfside Motor Inn", "UFI": "{0d02f919-2cd6-4787-99f8-2f48346af2f3}", "CREATED_ON": "2016-11-23 10:54:04", "LIST_GUID": "{5be8ad0c-4c54-4ba0-91c9-67e2fb78999a}", "NOM_REG_NO": null }, "geometry": { "type": "Point", "coordinates": [ 148.276999070498704, -41.415495800294266 ] } },
{ "type": "Feature", "properties": { "COMFAC_ID": 478, "PID": 6791720, "COM_TYPE1": "Transport", "COM_TYPE2": "Air", "NAME": "St Helens Aerodrome", "UFI": "{885fd627-87ba-4bab-b3b8-72f3585c32a4}", "CREATED_ON": "2016-11-23 10:54:04", "LIST_GUID": "{3bf58409-ba59-45f2-b6bf-1b3d06415147}", "NOM_REG_NO": null }, "geometry": { "type": "Point", "coordinates": [ 148.281274059807572, -41.336115828605415 ] } },
{ "type": "Feature", "properties": { "COMFAC_ID": 480, "PID": 6788804, "COM_TYPE1": "Accommodation", "COM_TYPE2": "Caravan Park", "NAME": "Hillcrest Caravan Park", "UFI": "{7a0c0d89-88d8-47ff-b626-e6ae774739c4}", "CREATED_ON": "2016-11-23 10:54:04", "LIST_GUID": "{d2f52092-f2c6-4e11-9ca6-caec66460899}", "NOM_REG_NO": null }, "geometry": { "type": "Point", "coordinates": [ 148.296325029564315, -41.324904169204807 ] } },
{ "type": "Feature", "properties": { "COMFAC_ID": 55778, "PID": 7625134, "COM_TYPE1": "Accommodation", "COM_TYPE2": "Holiday Unit\/ Flat", "NAME": "Waterfront on Georges Bay", "UFI": "{0c58163b-e982-480c-91de-4577a4c23756}", "CREATED_ON": "2016-11-23 10:54:04", "LIST_GUID": "{05b5e28d-62f7-438b-a964-0c7996562bd7}", "NOM_REG_NO": null }, "geometry": { "type": "Point", "coordinates": [ 148.312412856106363, -41.30731283329208 ] } },
{ "type": "Feature", "properties": { "COMFAC_ID": 60772, "PID": 7854658, "COM_TYPE1": "Accommodation", "COM_TYPE2": "Holiday Unit\/ Flat", "NAME": "Villa Vista", "UFI": "{4b3c7393-e33b-47e3-a8ce-41762e135f63}", "CREATED_ON": "2016-11-23 10:54:04", "LIST_GUID": "{83f3594f-91ea-4b04-a7a9-4ab8db69c91a}", "NOM_REG_NO": null }, "geometry": { "type": "Point", "coordinates": [ 148.303051447153251, -41.253387819134851 ] } },
{ "type": "Feature", "properties": { "COMFAC_ID": 59959, "PID": 0, "COM_TYPE1": "Transport", "COM_TYPE2": "Sea", "NAME": "Binalong Bay Jetty MAST", "UFI": "{e37b6b33-e7be-4f39-9e43-a93be6058468}", "CREATED_ON": "2016-11-23 10:54:04", "LIST_GUID": "{b32f52cb-d162-4bc2-844e-92870fa839ed}", "NOM_REG_NO": null }, "geometry": { "type": "Point", "coordinates": [ 148.308385612660885, -41.249594172513738 ] } },
{ "type": "Feature", "properties": { "COMFAC_ID": 392, "PID": 7742103, "COM_TYPE1": "State police and emergency", "COM_TYPE2": "Fire station", "NAME": "Binalong Bay Fire Station", "UFI": "{3eeca7b2-ae45-41c8-9cc0-edf1b6e70ec3}", "CREATED_ON": "2016-11-23 10:54:04", "LIST_GUID": "{6fe1cdde-f3d2-4edf-a23d-8a5fbcc2ce29}", "NOM_REG_NO": null }, "geometry": { "type": "Point", "coordinates": [ 148.31096422471461, -41.25108749765738 ] } },
{ "type": "Feature", "properties": { "COMFAC_ID": 58493, "PID": 2098638, "COM_TYPE1": "Tourist feature", "COM_TYPE2": "Other", "NAME": "Keen Angler Charters", "UFI": "{d16f024f-c3a5-416d-9890-a1826a35c776}", "CREATED_ON": "2016-11-23 10:54:04", "LIST_GUID": "{e7f98900-6733-4a2b-a5dd-35bf90617024}", "NOM_REG_NO": null }, "geometry": { "type": "Point", "coordinates": [ 148.348243547472066, -41.276866431904352 ] } },
{ "type": "Feature", "properties": { "COMFAC_ID": 35732, "PID": 1711680, "COM_TYPE1": "State police and emergency", "COM_TYPE2": "Fire station", "NAME": "Mathinna Fire Station", "UFI": "{e8dd3ab7-496e-49cd-b0f8-2fd272f43a6f}", "CREATED_ON": "2016-11-23 10:54:04", "LIST_GUID": "{772724fa-7ee0-4385-81a0-cd874c35407c}", "NOM_REG_NO": null }, "geometry": { "type": "Point", "coordinates": [ 147.888215419123071, -41.475683512210715 ] } },
{ "type": "Feature", "properties": { "COMFAC_ID": 35733, "PID": 6414634, "COM_TYPE1": "Church", "COM_TYPE2": "Anglican Church", "NAME": "St Georges Anglican Church", "UFI": "{07eaa8b4-886f-47cc-a69b-c9b1f5dece43}", "CREATED_ON": "2016-11-23 10:54:04", "LIST_GUID": "{a98a395c-56d2-41f2-9d51-f77d9f515af5}", "NOM_REG_NO": null }, "geometry": { "type": "Point", "coordinates": [ 147.889925828289421, -41.47870229288425 ] } },
{ "type": "Feature", "properties": { "COMFAC_ID": 62164, "PID": 0, "COM_TYPE1": "Ground", "COM_TYPE2": "Burial ground", "NAME": "Weldborough Cemetery", "UFI": "{4137e7e9-6c95-4cac-828b-84694ef241fb}", "CREATED_ON": "2016-11-23 10:54:04", "LIST_GUID": "{9b4e6f1f-78d7-4580-b5d5-60d3596a59ea}", "NOM_REG_NO": null }, "geometry": { "type": "Point", "coordinates": [ 147.902789258125324, -41.198784980752535 ] } },
{ "type": "Feature", "properties": { "COMFAC_ID": 404, "PID": 6412022, "COM_TYPE1": "Hall\/ Community centre", "COM_TYPE2": "Community, town or city hall", "NAME": "Fingal Town Hall", "UFI": "{a4bb3767-55c3-4254-bf2e-aae75503345e}", "CREATED_ON": "2016-11-23 10:54:04", "LIST_GUID": "{289d39c8-e9c1-4cae-8f6f-a7ea3447fbb2}", "NOM_REG_NO": null }, "geometry": { "type": "Point", "coordinates": [ 147.965173680399744, -41.638932799213812 ] } },
{ "type": "Feature", "properties": { "COMFAC_ID": 397, "PID": 6410414, "COM_TYPE1": "Club", "COM_TYPE2": "Football", "NAME": "Fingal Valley Football Club", "UFI": "{36e9ce82-0131-4ca3-8fca-cc084bbb2fdb}", "CREATED_ON": "2016-11-23 10:54:04", "LIST_GUID": "{ef025029-791a-4141-9b38-26a7165c35d2}", "NOM_REG_NO": null }, "geometry": { "type": "Point", "coordinates": [ 147.96756807762722, -41.636152068729253 ] } },
{ "type": "Feature", "properties": { "COMFAC_ID": 57422, "PID": 6412460, "COM_TYPE1": "Ground", "COM_TYPE2": "Picnic Area", "NAME": "Picnic Area", "UFI": "{813ceea3-2369-4b9b-8bc3-c1ce68e973cf}", "CREATED_ON": "2016-11-23 10:54:04", "LIST_GUID": "{d47f4ec1-056a-4dde-ad77-46b33efa2819}", "NOM_REG_NO": null }, "geometry": { "type": "Point", "coordinates": [ 147.967935492536498, -41.63789137801718 ] } },
{ "type": "Feature", "properties": { "COMFAC_ID": 23225, "PID": 6412663, "COM_TYPE1": "Hall\/ Community centre", "COM_TYPE2": "Community centre", "NAME": "Old Tasmanian Hotel Community Centre", "UFI": "{b2fb9c5c-74e9-41b3-8464-60eb61e9373a}", "CREATED_ON": "2016-11-23 10:54:04", "LIST_GUID": "{db95cf99-5a7a-4924-8e93-8ce37290be4b}", "NOM_REG_NO": null }, "geometry": { "type": "Point", "coordinates": [ 147.970793264189581, -41.638250546279167 ] } },
{ "type": "Feature", "properties": { "COMFAC_ID": 35913, "PID": 0, "COM_TYPE1": "Tourist feature", "COM_TYPE2": "Natural", "NAME": "Evercreech Forest Reserve", "UFI": "{e6e56def-c0b5-4005-bd31-850ba772d0dc}", "CREATED_ON": "2016-11-23 10:54:04", "LIST_GUID": "{2c5628fc-32ed-4fd8-a56d-fb5a554e3828}", "NOM_REG_NO": null }, "geometry": { "type": "Point", "coordinates": [ 147.97368099896471, -41.401065558561626 ] } },
{ "type": "Feature", "properties": { "COMFAC_ID": 62024, "PID": 6806259, "COM_TYPE1": "State police and emergency", "COM_TYPE2": "Community Fire Refuge", "NAME": "Pyengana Hall", "UFI": "{d462b0d4-594a-42c3-b7e9-4817f91c20fd}", "CREATED_ON": "2016-11-23 10:54:04", "LIST_GUID": "{5f643179-868b-4958-8f79-e1675ef35739}", "NOM_REG_NO": null }, "geometry": { "type": "Point", "coordinates": [ 148.001607117795686, -41.293193397069125 ] } },
{ "type": "Feature", "properties": { "COMFAC_ID": 35788, "PID": 6806961, "COM_TYPE1": "Church", "COM_TYPE2": "Anglican Church", "NAME": "St Michael & All Angels Anglican Church", "UFI": "{8a30e2bc-d26d-41af-9a52-2a930c4171fb}", "CREATED_ON": "2016-11-23 10:54:04", "LIST_GUID": "{888980b5-be04-4b8a-8f6c-a31642196206}", "NOM_REG_NO": null }, "geometry": { "type": "Point", "coordinates": [ 147.990693629858129, -41.277869320691877 ] } },
{ "type": "Feature", "properties": { "COMFAC_ID": 42325, "PID": 6806232, "COM_TYPE1": "Tourist feature", "COM_TYPE2": "Industrial", "NAME": "Pyengana Dairy Company", "UFI": "{5817e766-60d0-49f4-987a-7a920057ffae}", "CREATED_ON": "2016-11-23 10:54:04", "LIST_GUID": "{ac985d5c-3019-43d6-9c9c-7e57a1e1bd7e}", "NOM_REG_NO": null }, "geometry": { "type": "Point", "coordinates": [ 148.005235572767816, -41.289170219979091 ] } },
{ "type": "Feature", "properties": { "COMFAC_ID": 13284, "PID": 2126838, "COM_TYPE1": "Accommodation", "COM_TYPE2": "Hostel", "NAME": "St Marys Seaview Farm", "UFI": "{50dda13a-808a-439c-96e4-2da286310584}", "CREATED_ON": "2016-11-23 10:54:04", "LIST_GUID": "{d02ffa52-018d-4297-8fce-fffaafab69a7}", "NOM_REG_NO": null }, "geometry": { "type": "Point", "coordinates": [ 148.196355006064323, -41.531553749859711 ] } },
{ "type": "Feature", "properties": { "COMFAC_ID": 10985, "PID": 6408939, "COM_TYPE1": "Accommodation", "COM_TYPE2": "Holiday Unit\/ Flat", "NAME": "Douglas River Cabin", "UFI": "{8308fc96-56b5-4310-b84f-1cf8e4686d43}", "CREATED_ON": "2016-11-23 10:54:04", "LIST_GUID": "{ad8dd433-e7b3-4613-95c9-74821be52ca8}", "NOM_REG_NO": null }, "geometry": { "type": "Point", "coordinates": [ 148.252141185970743, -41.782116725014504 ] } },
{ "type": "Feature", "properties": { "COMFAC_ID": 62893, "PID": 0, "COM_TYPE1": "Tourist feature", "COM_TYPE2": "Natural", "NAME": "Douglas-Apsley National Park", "UFI": "{5f8dab92-85e7-4630-99c2-025543de5e3a}", "CREATED_ON": "2016-11-23 10:54:04", "LIST_GUID": "{8e09bf14-61e3-43c5-976f-2b58d1de542e}", "NOM_REG_NO": null }, "geometry": { "type": "Point", "coordinates": [ 148.231354164723939, -41.700467452954619 ] } },