{
"type": "FeatureCollection",
"crs": { "type": "name", "properties": { "name": "urn:ogc:def:crs:OGC:1.3:CRS84" } },
"features": [
{ "type": "Feature", "properties": { "COMFAC_ID": 57094, "PID": 6092620, "COM_TYPE1": "Transport", "COM_TYPE2": "Service Station", "NAME": "Service Station Greens Beach", "UFI": "{f31f56b2-0e62-4d91-88a1-cbce26618690}", "CREATED_ON": "2016-11-23 10:54:04", "LIST_GUID": "{606f6600-199a-4fa3-9db0-e474682a5988}", "NOM_REG_NO": null }, "geometry": { "type": "Point", "coordinates": [ 146.744627346310608, -41.085605396594865 ] } },
{ "type": "Feature", "properties": { "COMFAC_ID": 1238, "PID": 1927625, "COM_TYPE1": "State police and emergency", "COM_TYPE2": "Ambulance station", "NAME": "Beaconsfield Ambulance Station", "UFI": "{2a0b4985-cb8c-4c8a-9745-b7bef6374f7a}", "CREATED_ON": "2016-11-23 10:54:04", "LIST_GUID": "{08c9a4d7-a061-4b89-899b-5391a767b93d}", "NOM_REG_NO": null }, "geometry": { "type": "Point", "coordinates": [ 146.806025470120346, -41.193072193986836 ] } },
{ "type": "Feature", "properties": { "COMFAC_ID": 60026, "PID": 6078984, "COM_TYPE1": "Community care", "COM_TYPE2": "Nursing and age home", "NAME": "Beaconsfield District Health Service", "UFI": "{3631891e-df6a-4970-afdd-8eae8a33be07}", "CREATED_ON": "2016-11-23 10:54:04", "LIST_GUID": "{744a6b6e-26c4-4029-844a-db3bde8e11d4}", "NOM_REG_NO": null }, "geometry": { "type": "Point", "coordinates": [ 146.806831899672744, -41.193763007244357 ] } },
{ "type": "Feature", "properties": { "COMFAC_ID": 52413, "PID": 7144007, "COM_TYPE1": "Ground", "COM_TYPE2": "Burial ground", "NAME": "Beaconsfield Cemetery", "UFI": "{a5d7ab26-8187-44ab-98bd-213d68185be6}", "CREATED_ON": "2016-11-23 10:54:04", "LIST_GUID": "{88437bee-035a-42b0-b655-0cd15a20b4e6}", "NOM_REG_NO": null }, "geometry": { "type": "Point", "coordinates": [ 146.80798425882972, -41.184722975812342 ] } },
{ "type": "Feature", "properties": { "COMFAC_ID": 1235, "PID": 6084081, "COM_TYPE1": "Hall\/ Community centre", "COM_TYPE2": "Church hall", "NAME": "St Francis Xavier Church Hall", "UFI": "{3251d2eb-6c68-4805-bdc5-05f34091d262}", "CREATED_ON": "2016-11-23 10:54:04", "LIST_GUID": "{909f0fc8-c376-4b18-b3f3-30bb784e3d2a}", "NOM_REG_NO": null }, "geometry": { "type": "Point", "coordinates": [ 146.812914097674565, -41.196060007432855 ] } },
{ "type": "Feature", "properties": { "COMFAC_ID": 30766, "PID": 7898327, "COM_TYPE1": "Council", "COM_TYPE2": "West Tamar", "NAME": "West Tamar Council Chambers Beaconsfield", "UFI": "{5272b92f-48ae-4700-b11d-5a579b72eff1}", "CREATED_ON": "2016-11-23 10:54:04", "LIST_GUID": "{ecf90058-111b-4967-a060-6c9589c4c105}", "NOM_REG_NO": null }, "geometry": { "type": "Point", "coordinates": [ 146.814199720199099, -41.200876678561301 ] } },
{ "type": "Feature", "properties": { "COMFAC_ID": 20224, "PID": 2866473, "COM_TYPE1": "Accommodation", "COM_TYPE2": "Hotel", "NAME": "Club Hotel Beaconsfield", "UFI": "{b88731fa-343f-4aa1-9293-c998c18ec08d}", "CREATED_ON": "2016-11-23 10:54:04", "LIST_GUID": "{3e464304-9bc0-41be-9821-7bee40413918}", "NOM_REG_NO": null }, "geometry": { "type": "Point", "coordinates": [ 146.814960576223768, -41.199350007364757 ] } },
{ "type": "Feature", "properties": { "COMFAC_ID": 55509, "PID": 6082465, "COM_TYPE1": "Ground", "COM_TYPE2": "Park or reserve", "NAME": "Jubilee Park", "UFI": "{7171db83-22ff-4da9-9bd6-16eb2ee0704a}", "CREATED_ON": "2016-11-23 10:54:04", "LIST_GUID": "{7921691a-a1d3-4bb0-a62a-6face7ffa6d8}", "NOM_REG_NO": "19656T" }, "geometry": { "type": "Point", "coordinates": [ 146.816732909483136, -41.201645725895013 ] } },
{ "type": "Feature", "properties": { "COMFAC_ID": 1228, "PID": 6082334, "COM_TYPE1": "Club", "COM_TYPE2": "Tennis", "NAME": "Beaconsfield Tennis Club", "UFI": "{cd683200-9c74-4420-a609-d92c85903ac0}", "CREATED_ON": "2016-11-23 10:54:04", "LIST_GUID": "{e93fd6a6-b4ae-44dc-b439-4b3b5f1c4923}", "NOM_REG_NO": null }, "geometry": { "type": "Point", "coordinates": [ 146.816814594151992, -41.198566768961236 ] } },
{ "type": "Feature", "properties": { "COMFAC_ID": 53354, "PID": 6079768, "COM_TYPE1": "State Government", "COM_TYPE2": "Other", "NAME": "TasWater - Sewage Treatment Lagoons", "UFI": "{c8caafda-bf42-4b55-a15f-f6e955f3163e}", "CREATED_ON": "2016-11-23 10:54:04", "LIST_GUID": "{191d631a-365f-4952-8dcf-4c2007740661}", "NOM_REG_NO": null }, "geometry": { "type": "Point", "coordinates": [ 146.820860506580146, -41.191014689290277 ] } },
{ "type": "Feature", "properties": { "COMFAC_ID": 53333, "PID": 7504439, "COM_TYPE1": "State Government", "COM_TYPE2": "Other", "NAME": "TasWater - Sewage Treatment Lagoons", "UFI": "{f72fd53e-bc9d-4d70-84de-836013c7f9e4}", "CREATED_ON": "2016-11-23 10:54:04", "LIST_GUID": "{6ab27c37-5004-4452-957d-516dc5bd871d}", "NOM_REG_NO": null }, "geometry": { "type": "Point", "coordinates": [ 146.802949320759922, -41.147928197000674 ] } },
{ "type": "Feature", "properties": { "COMFAC_ID": 1260, "PID": 1927668, "COM_TYPE1": "Hall\/ Community centre", "COM_TYPE2": "Community, town or city hall", "NAME": "Ilfraville Hall", "UFI": "{ce6b1d77-b1cb-46b4-9ad2-e5ec843a9cca}", "CREATED_ON": "2016-11-23 10:54:04", "LIST_GUID": "{a77e6fb7-1842-43f1-a41a-0bd0c7628338}", "NOM_REG_NO": null }, "geometry": { "type": "Point", "coordinates": [ 146.81456042361097, -41.147586676181554 ] } },
{ "type": "Feature", "properties": { "COMFAC_ID": 41165, "PID": 6085535, "COM_TYPE1": "Church", "COM_TYPE2": "Uniting Church", "NAME": "Beauty Point Uniting Church", "UFI": "{af362d5f-e9a9-4818-bd9b-794791211e64}", "CREATED_ON": "2016-11-23 10:54:04", "LIST_GUID": "{978721a9-25de-4b15-a6c1-1e45636f3d9a}", "NOM_REG_NO": null }, "geometry": { "type": "Point", "coordinates": [ 146.81749664552953, -41.148900597246588 ] } },
{ "type": "Feature", "properties": { "COMFAC_ID": 20164, "PID": 6106842, "COM_TYPE1": "Accommodation", "COM_TYPE2": "Motel", "NAME": "Tamar Cove Motel", "UFI": "{a7895176-6630-43d9-a9e0-8785f4b43b2a}", "CREATED_ON": "2016-11-23 10:54:04", "LIST_GUID": "{8dcba5f9-0fed-4fc9-a74d-55e5839aba98}", "NOM_REG_NO": null }, "geometry": { "type": "Point", "coordinates": [ 146.817528922778337, -41.168805355919602 ] } },
{ "type": "Feature", "properties": { "COMFAC_ID": 1365, "PID": 6088277, "COM_TYPE1": "Transport", "COM_TYPE2": "Service Station", "NAME": "Shell Beauty Point", "UFI": "{97fc67a1-0e90-4065-aa86-c726bac681ea}", "CREATED_ON": "2016-11-23 10:54:04", "LIST_GUID": "{af142d3f-64f6-4180-8dc7-30697d249d70}", "NOM_REG_NO": null }, "geometry": { "type": "Point", "coordinates": [ 146.818776799941077, -41.148440246672145 ] } },
{ "type": "Feature", "properties": { "COMFAC_ID": 1261, "PID": 1518565, "COM_TYPE1": "Club", "COM_TYPE2": "Yacht and sailing", "NAME": "Tamar Sea Rescue Services", "UFI": "{64a8604d-96aa-421a-97cc-79e625a28f68}", "CREATED_ON": "2016-11-23 10:54:04", "LIST_GUID": "{5cc6be63-f39e-45af-85e7-584cc1a4bdb9}", "NOM_REG_NO": null }, "geometry": { "type": "Point", "coordinates": [ 146.823103905858403, -41.152174446126445 ] } },
{ "type": "Feature", "properties": { "COMFAC_ID": 1257, "PID": 1284383, "COM_TYPE1": "Club", "COM_TYPE2": "Yacht and sailing", "NAME": "Port Dalrymple Yacht Club", "UFI": "{e87010c6-ef05-47f1-8ecf-45651d7ce9bb}", "CREATED_ON": "2016-11-23 10:54:04", "LIST_GUID": "{b637efa1-13a7-424c-88d1-ecfdf3aa0107}", "NOM_REG_NO": null }, "geometry": { "type": "Point", "coordinates": [ 146.823483782617245, -41.160608550471345 ] } },
{ "type": "Feature", "properties": { "COMFAC_ID": 63656, "PID": 6104257, "COM_TYPE1": "Accommodation", "COM_TYPE2": "Camp and Camping Ground", "NAME": "Wingtons Glamping Clarence Point", "UFI": "{c1d83efe-a8e1-457f-8440-98bc6a7d779e}", "CREATED_ON": "2016-11-23 10:54:04", "LIST_GUID": "{3ac7e28c-3c9b-4bea-88a0-13d94dbbd2a0}", "NOM_REG_NO": null }, "geometry": { "type": "Point", "coordinates": [ 146.809399713244858, -41.129790567449739 ] } },
{ "type": "Feature", "properties": { "COMFAC_ID": 31126, "PID": 1283372, "COM_TYPE1": "Hall\/ Community centre", "COM_TYPE2": "Community, town or city hall", "NAME": "Glengarry Hall", "UFI": "{e665cfc4-817f-43a6-8318-219fda686149}", "CREATED_ON": "2016-11-23 10:54:04", "LIST_GUID": "{f52bf195-205d-4901-aca9-85441dfaeac7}", "NOM_REG_NO": null }, "geometry": { "type": "Point", "coordinates": [ 146.871466968346795, -41.338190107666293 ] } },
{ "type": "Feature", "properties": { "COMFAC_ID": 31186, "PID": 7143258, "COM_TYPE1": "Ground", "COM_TYPE2": "Burial ground", "NAME": "Winkleigh Cemetery", "UFI": "{cde0bc53-bcea-497e-9a09-a2904666bb7a}", "CREATED_ON": "2016-11-23 10:54:04", "LIST_GUID": "{4035c838-32b0-47de-8b9b-df67d812ab90}", "NOM_REG_NO": null }, "geometry": { "type": "Point", "coordinates": [ 146.854194759050159, -41.298327063786012 ] } },
{ "type": "Feature", "properties": { "COMFAC_ID": 63642, "PID": 7685671, "COM_TYPE1": "Accommodation", "COM_TYPE2": "Guest House\/ Bed and Breakfast", "NAME": "Langdale Farm Accommodation", "UFI": "{ff24ebdd-aa8b-4705-8568-18bc27527f9e}", "CREATED_ON": "2016-11-23 10:54:04", "LIST_GUID": "{c2bce93c-f836-4101-bc41-c14f87d8233f}", "NOM_REG_NO": null }, "geometry": { "type": "Point", "coordinates": [ 146.865151257158686, -41.319325030303531 ] } },
{ "type": "Feature", "properties": { "COMFAC_ID": 61914, "PID": 6100635, "COM_TYPE1": "Tourist feature", "COM_TYPE2": "Industrial", "NAME": "Winter Brook Vineyard", "UFI": "{91fd540a-2cad-4ea9-8c05-1f90fe4c12e2}", "CREATED_ON": "2016-11-23 10:54:04", "LIST_GUID": "{0c9deed2-8b84-4d75-8e5a-c3a44bfedda6}", "NOM_REG_NO": null }, "geometry": { "type": "Point", "coordinates": [ 146.892522484996903, -41.263313001724555 ] } },
{ "type": "Feature", "properties": { "COMFAC_ID": 12704, "PID": 7885681, "COM_TYPE1": "Accommodation", "COM_TYPE2": "Guest House\/ Bed and Breakfast", "NAME": "Tamar River Retreat", "UFI": "{ff748634-e865-4b2a-aee0-561f88089296}", "CREATED_ON": "2016-11-23 10:54:04", "LIST_GUID": "{f1546fcb-e0dc-4239-860c-34cd8efe017d}", "NOM_REG_NO": null }, "geometry": { "type": "Point", "coordinates": [ 146.905768078378003, -41.202720776954735 ] } },
{ "type": "Feature", "properties": { "COMFAC_ID": 30705, "PID": 1282804, "COM_TYPE1": "Accommodation", "COM_TYPE2": "Hotel", "NAME": "Tamar Valley Resort", "UFI": "{7118a5ce-cf2a-45bf-b5b8-e615b603f756}", "CREATED_ON": "2016-11-23 10:54:04", "LIST_GUID": "{00bcd370-15a3-4cc9-92e4-4b0b6f48fb39}", "NOM_REG_NO": null }, "geometry": { "type": "Point", "coordinates": [ 147.002417365849027, -41.352233834777905 ] } },
{ "type": "Feature", "properties": { "COMFAC_ID": 1288, "PID": 6058297, "COM_TYPE1": "Commonwealth government", "COM_TYPE2": "Post offices and agencies", "NAME": "Exeter Post Office", "UFI": "{c3e1a351-e5dd-482d-850f-83558540cf41}", "CREATED_ON": "2016-11-23 10:54:04", "LIST_GUID": "{b497ff78-6890-4bf1-88f9-490cb0ab65b5}", "NOM_REG_NO": null }, "geometry": { "type": "Point", "coordinates": [ 146.952180271607943, -41.298986047317861 ] } },
{ "type": "Feature", "properties": { "COMFAC_ID": 35347, "PID": 1980442, "COM_TYPE1": "Club", "COM_TYPE2": "Tennis", "NAME": "Exeter Tennis Club", "UFI": "{52b17e91-0147-4300-80d3-ce996842294a}", "CREATED_ON": "2016-11-23 10:54:04", "LIST_GUID": "{958073bc-c2f9-43b0-a32c-b217a637c920}", "NOM_REG_NO": null }, "geometry": { "type": "Point", "coordinates": [ 146.953177682250413, -41.298659331152528 ] } },
{ "type": "Feature", "properties": { "COMFAC_ID": 35345, "PID": 1980442, "COM_TYPE1": "Club", "COM_TYPE2": "Bowls", "NAME": "Exeter Bowls Club", "UFI": "{bfbf2bd0-7675-4050-af7f-76a87bba3d58}", "CREATED_ON": "2016-11-23 10:54:04", "LIST_GUID": "{efff83a4-125e-408c-b8b5-b010b805d34f}", "NOM_REG_NO": null }, "geometry": { "type": "Point", "coordinates": [ 146.954062084643567, -41.298559881380704 ] } },
{ "type": "Feature", "properties": { "COMFAC_ID": 1292, "PID": 6058019, "COM_TYPE1": "Education and training", "COM_TYPE2": "Primary and infant", "NAME": "Exeter Primary School", "UFI": "{f54df471-5cc0-4e52-bb87-ffa2462ab466}", "CREATED_ON": "2016-11-23 10:54:04", "LIST_GUID": "{192e356a-dafb-4724-b104-8f4a8c69056a}", "NOM_REG_NO": null }, "geometry": { "type": "Point", "coordinates": [ 146.957253864371751, -41.298840964230088 ] } },
{ "type": "Feature", "properties": { "COMFAC_ID": 55005, "PID": 7491279, "COM_TYPE1": "Tourist feature", "COM_TYPE2": "Other", "NAME": "Tiger Wilderness Tours", "UFI": "{18e205b6-da9d-40b1-b67f-a46bcb9dd62f}", "CREATED_ON": "2016-11-23 10:54:04", "LIST_GUID": "{96613b98-2365-49df-8465-7e69a014ed64}", "NOM_REG_NO": null }, "geometry": { "type": "Point", "coordinates": [ 146.968039542429239, -41.300170398581407 ] } },
{ "type": "Feature", "properties": { "COMFAC_ID": 57800, "PID": 7487907, "COM_TYPE1": "Hall\/ Community centre", "COM_TYPE2": "Community, town or city hall", "NAME": "Gravelly Beach Hall", "UFI": "{6699145d-f436-4662-9314-eaa730993085}", "CREATED_ON": "2016-11-23 10:54:04", "LIST_GUID": "{996d1ca0-8318-4e68-b50d-06cbe0c4a894}", "NOM_REG_NO": null }, "geometry": { "type": "Point", "coordinates": [ 146.971388103569296, -41.283315270726789 ] } },
{ "type": "Feature", "properties": { "COMFAC_ID": 57420, "PID": 6060661, "COM_TYPE1": "Ground", "COM_TYPE2": "Picnic Area", "NAME": "Picnic Area", "UFI": "{31ee2d6e-bae9-4d01-ada1-18f6e916bcb7}", "CREATED_ON": "2016-11-23 10:54:04", "LIST_GUID": "{3e73449f-6d66-4b5b-a348-5c85925595f2}", "NOM_REG_NO": null }, "geometry": { "type": "Point", "coordinates": [ 146.976825039088851, -41.287735625800821 ] } },
{ "type": "Feature", "properties": { "COMFAC_ID": 1388, "PID": 7799484, "COM_TYPE1": "Church", "COM_TYPE2": "Other Church", "NAME": "Chapel On The Lake", "UFI": "{b32cbd8f-6218-4c02-99a1-2845fa6feefa}", "CREATED_ON": "2016-11-23 10:54:04", "LIST_GUID": "{29d41e87-879f-4773-834c-834c309d0cfc}", "NOM_REG_NO": null }, "geometry": { "type": "Point", "coordinates": [ 147.006170378074842, -41.345748237948115 ] } },
{ "type": "Feature", "properties": { "COMFAC_ID": 62732, "PID": 0, "COM_TYPE1": "Accommodation", "COM_TYPE2": "Holiday Unit\/ Flat", "NAME": "Tamar Ridge Retreat", "UFI": "{7b2002a1-6ef3-4d86-9391-222bf9436d65}", "CREATED_ON": "2016-11-23 10:54:04", "LIST_GUID": "{bc45f7a9-d966-459b-ba82-86e997d16318}", "NOM_REG_NO": null }, "geometry": { "type": "Point", "coordinates": [ 147.008428205136397, -41.33981274925825 ] } },
{ "type": "Feature", "properties": { "COMFAC_ID": 62034, "PID": 6068284, "COM_TYPE1": "State police and emergency", "COM_TYPE2": "Community Fire Refuge", "NAME": "Legana War Memorial Hall", "UFI": "{a529c732-8400-4265-9a65-287b59ae7b83}", "CREATED_ON": "2016-11-23 10:54:04", "LIST_GUID": "{5d764c93-053e-423e-9db3-63bd5b1a8ae9}", "NOM_REG_NO": null }, "geometry": { "type": "Point", "coordinates": [ 147.046565292424901, -41.363149527729433 ] } },
{ "type": "Feature", "properties": { "COMFAC_ID": 1356, "PID": 6077391, "COM_TYPE1": "Transport", "COM_TYPE2": "Service Station", "NAME": "Liberty Legana", "UFI": "{64a90b7b-89d6-4361-bd65-e65c17b6f109}", "CREATED_ON": "2016-11-23 10:54:04", "LIST_GUID": "{8fd81e0b-b402-42d2-b6d1-73026898d5eb}", "NOM_REG_NO": null }, "geometry": { "type": "Point", "coordinates": [ 147.047482713989439, -41.369243513194768 ] } },
{ "type": "Feature", "properties": { "COMFAC_ID": 20244, "PID": 6077236, "COM_TYPE1": "Accommodation", "COM_TYPE2": "Caravan Park", "NAME": "Launceston Holiday Park", "UFI": "{f9535ca1-23c4-4c57-b2c9-943c6bd18603}", "CREATED_ON": "2016-11-23 10:54:04", "LIST_GUID": "{379368f8-784a-4d53-8de0-1b4f300dbcec}", "NOM_REG_NO": null }, "geometry": { "type": "Point", "coordinates": [ 147.052188220547208, -41.373606117092883 ] } },
{ "type": "Feature", "properties": { "COMFAC_ID": 57595, "PID": 1846200, "COM_TYPE1": "Ground", "COM_TYPE2": "Picnic Area", "NAME": "Picnic Area", "UFI": "{de14c767-ae80-429f-9851-d6f517b8a750}", "CREATED_ON": "2016-11-23 10:54:04", "LIST_GUID": "{a14e65c9-22d2-4f95-9e27-8f902c1c4aff}", "NOM_REG_NO": null }, "geometry": { "type": "Point", "coordinates": [ 147.088654877089368, -41.447506698064082 ] } },
{ "type": "Feature", "properties": { "COMFAC_ID": 36688, "PID": 1281684, "COM_TYPE1": "State Government", "COM_TYPE2": "State Growth", "NAME": "Motor Cycle Training", "UFI": "{62591d92-00c9-4a0c-a415-ccf34675a56c}", "CREATED_ON": "2016-11-23 10:54:04", "LIST_GUID": "{88a467de-dfaf-4429-bc5e-d96b6318f684}", "NOM_REG_NO": null }, "geometry": { "type": "Point", "coordinates": [ 147.095534250717634, -41.447417610027919 ] } },
{ "type": "Feature", "properties": { "COMFAC_ID": 46371, "PID": 2127347, "COM_TYPE1": "Transport", "COM_TYPE2": "Service Station", "NAME": "BP Riverside", "UFI": "{235e2391-6630-43df-bf6d-b85427d985c1}", "CREATED_ON": "2016-11-23 10:54:04", "LIST_GUID": "{eaf6ea61-0270-4bd7-b457-7f8e562ee4bc}", "NOM_REG_NO": null }, "geometry": { "type": "Point", "coordinates": [ 147.109229624446385, -41.420094466113007 ] } },
{ "type": "Feature", "properties": { "COMFAC_ID": 1317, "PID": 1280710, "COM_TYPE1": "Hall\/ Community centre", "COM_TYPE2": "Community centre", "NAME": "Riverside Community Centre", "UFI": "{520eefd0-d6d5-4e12-8c07-fadf6778e8b8}", "CREATED_ON": "2016-11-23 10:54:04", "LIST_GUID": "{19a70404-844b-4085-9aed-a719321fe859}", "NOM_REG_NO": null }, "geometry": { "type": "Point", "coordinates": [ 147.09899489776916, -41.408659011467329 ] } },
{ "type": "Feature", "properties": { "COMFAC_ID": 45585, "PID": 2135523, "COM_TYPE1": "State Government", "COM_TYPE2": "Transend Networks", "NAME": "Trevallyn Transend Sub Station", "UFI": "{264ffd29-11fc-4ed3-9808-3941fbdadbb5}", "CREATED_ON": "2016-11-23 10:54:04", "LIST_GUID": "{b3faf182-2b90-45e4-a4c9-68831d1f8521}", "NOM_REG_NO": null }, "geometry": { "type": "Point", "coordinates": [ 147.11290249211703, -41.423178041818126 ] } },
{ "type": "Feature", "properties": { "COMFAC_ID": 61786, "PID": 0, "COM_TYPE1": "Ground", "COM_TYPE2": "Picnic Area", "NAME": null, "UFI": "{51f93f5a-4d90-4740-b616-77537a353804}", "CREATED_ON": "2016-11-23 10:54:04", "LIST_GUID": "{c9f0b30d-e721-4e07-8dee-ef8b871d7b74}", "NOM_REG_NO": null }, "geometry": { "type": "Point", "coordinates": [ 146.672749907436639, -41.101128777399325 ] } },
{ "type": "Feature", "properties": { "COMFAC_ID": 1369, "PID": 1518506, "COM_TYPE1": "State police and emergency", "COM_TYPE2": "Fire station", "NAME": "Kelso Fire Station", "UFI": "{c6583b13-792b-45e0-9455-459a26a0fcb3}", "CREATED_ON": "2016-11-23 10:54:04", "LIST_GUID": "{f8042354-a2d8-4209-b2f6-b1c78a7caf0e}", "NOM_REG_NO": null }, "geometry": { "type": "Point", "coordinates": [ 146.792196140386153, -41.107787415821015 ] } },
{ "type": "Feature", "properties": { "COMFAC_ID": 59706, "PID": 2255445, "COM_TYPE1": "Accommodation", "COM_TYPE2": "Holiday Unit\/ Flat", "NAME": "Beachs 'N Greens", "UFI": "{d6998462-b650-44e0-87bf-8fa0ebdbabea}", "CREATED_ON": "2016-11-23 10:54:04", "LIST_GUID": "{18f57485-c191-4510-9aa5-6bc50211619e}", "NOM_REG_NO": null }, "geometry": { "type": "Point", "coordinates": [ 146.743497086630271, -41.089725158883219 ] } },
{ "type": "Feature", "properties": { "COMFAC_ID": 57428, "PID": 1957904, "COM_TYPE1": "Ground", "COM_TYPE2": "Picnic Area", "NAME": "Picnic Area", "UFI": "{4e08e5cf-3ab6-4e3d-973b-9a2bc3b35fee}", "CREATED_ON": "2016-11-23 10:54:04", "LIST_GUID": "{0c7fb3ca-5196-4617-8159-d1676ff62bf6}", "NOM_REG_NO": null }, "geometry": { "type": "Point", "coordinates": [ 146.745193223736379, -41.085295347656213 ] } },
{ "type": "Feature", "properties": { "COMFAC_ID": 31145, "PID": 6108020, "COM_TYPE1": "Hall\/ Community centre", "COM_TYPE2": "Community, town or city hall", "NAME": "Winkleigh Hall", "UFI": "{137316f4-bf9f-41d5-9a39-479a82cfbd75}", "CREATED_ON": "2016-11-23 10:54:04", "LIST_GUID": "{5c3a21d5-317c-4b40-ad89-8e9eda9dfe98}", "NOM_REG_NO": null }, "geometry": { "type": "Point", "coordinates": [ 146.837950868948155, -41.290524924983977 ] } },
{ "type": "Feature", "properties": { "COMFAC_ID": 31165, "PID": 6108012, "COM_TYPE1": "Church", "COM_TYPE2": "Presbyterian Church", "NAME": "Winkleigh Presbyterian Church", "UFI": "{2dd6c030-b49d-407a-89c7-2d08179e15df}", "CREATED_ON": "2016-11-23 10:54:04", "LIST_GUID": "{49b3352c-4a24-44a9-ae6e-086b66e99803}", "NOM_REG_NO": null }, "geometry": { "type": "Point", "coordinates": [ 146.839091371204461, -41.292500137728055 ] } },
{ "type": "Feature", "properties": { "COMFAC_ID": 1223, "PID": 6083169, "COM_TYPE1": "Church", "COM_TYPE2": "Anglican Church", "NAME": "Holy Trinity Anglican Church", "UFI": "{d3458cda-603d-4907-9bca-a86be370ff2e}", "CREATED_ON": "2016-11-23 10:54:04", "LIST_GUID": "{e961ba2e-2b55-42e0-b35c-2bb88c8ff19a}", "NOM_REG_NO": null }, "geometry": { "type": "Point", "coordinates": [ 146.812893538631982, -41.196989384650166 ] } },
{ "type": "Feature", "properties": { "COMFAC_ID": 41586, "PID": 2112532, "COM_TYPE1": "State Government", "COM_TYPE2": "Service Tasmania", "NAME": "Service Tasmania Beaconsfield", "UFI": "{d1759a49-d335-4b13-a3f2-59ab60dfce6a}", "CREATED_ON": "2016-11-23 10:54:04", "LIST_GUID": "{e661fbc5-9ba3-49d6-869e-726e21506e0a}", "NOM_REG_NO": null }, "geometry": { "type": "Point", "coordinates": [ 146.814124309821494, -41.20098559771828 ] } },
{ "type": "Feature", "properties": { "COMFAC_ID": 1245, "PID": 7509969, "COM_TYPE1": "Commonwealth government", "COM_TYPE2": "Post offices and agencies", "NAME": "Beaconsfield Post Office", "UFI": "{0c5294f2-c860-439b-86d3-e98f04dadbbe}", "CREATED_ON": "2016-11-23 10:54:04", "LIST_GUID": "{54bb96e2-dc80-4306-acf3-0f656a0b6303}", "NOM_REG_NO": null }, "geometry": { "type": "Point", "coordinates": [ 146.817136160695895, -41.201142274845793 ] } },
{ "type": "Feature", "properties": { "COMFAC_ID": 1230, "PID": 2634138, "COM_TYPE1": "Hall\/ Community centre", "COM_TYPE2": "Community centre", "NAME": "Beaconsfield Community Centre", "UFI": "{6c7ece98-a8ba-4e2a-b7db-df4517153f5a}", "CREATED_ON": "2016-11-23 10:54:04", "LIST_GUID": "{e11d91db-5f7c-4454-b74f-e177cc8f232a}", "NOM_REG_NO": null }, "geometry": { "type": "Point", "coordinates": [ 146.818547755184767, -41.202939875316169 ] } },
{ "type": "Feature", "properties": { "COMFAC_ID": 62012, "PID": 2634138, "COM_TYPE1": "State police and emergency", "COM_TYPE2": "Community Fire Refuge", "NAME": "Beaconsfield Community Centre", "UFI": "{fc85e1f4-75a4-4bcc-8dc6-a116bb056e73}", "CREATED_ON": "2016-11-23 10:54:04", "LIST_GUID": "{c84a27e5-df0f-4bba-a13b-9479f794d8bb}", "NOM_REG_NO": null }, "geometry": { "type": "Point", "coordinates": [ 146.818645154988815, -41.202865127924113 ] } },
{ "type": "Feature", "properties": { "COMFAC_ID": 1243, "PID": 2634138, "COM_TYPE1": "Ground", "COM_TYPE2": "Park or reserve", "NAME": "RSL Park", "UFI": "{27c935e4-d214-4b5b-8e4e-f223faff295c}", "CREATED_ON": "2016-11-23 10:54:04", "LIST_GUID": "{8ad8196d-f847-4b61-8fde-4609fe408b51}", "NOM_REG_NO": null }, "geometry": { "type": "Point", "coordinates": [ 146.819745115314248, -41.203377207214977 ] } },
{ "type": "Feature", "properties": { "COMFAC_ID": 57956, "PID": 6096656, "COM_TYPE1": "Council", "COM_TYPE2": "West Tamar", "NAME": "Beaconsfield Waste Transfer Station", "UFI": "{44980c63-e75d-486d-ac17-812eadb7235c}", "CREATED_ON": "2016-11-23 10:54:04", "LIST_GUID": "{c2279a4e-04a9-4eca-8432-9aec61756101}", "NOM_REG_NO": null }, "geometry": { "type": "Point", "coordinates": [ 146.822575145858508, -41.19102014495796 ] } },
{ "type": "Feature", "properties": { "COMFAC_ID": 58684, "PID": 6107642, "COM_TYPE1": "Accommodation", "COM_TYPE2": "Guest House\/ Bed and Breakfast", "NAME": "Kateland Manor Estate", "UFI": "{7dad5bd8-5270-44a6-933a-ef5ae55c8743}", "CREATED_ON": "2016-11-23 10:54:04", "LIST_GUID": "{2145126f-1a2c-4371-9039-4b0672a5abe2}", "NOM_REG_NO": null }, "geometry": { "type": "Point", "coordinates": [ 146.79559547592271, -41.149625416166536 ] } },
{ "type": "Feature", "properties": { "COMFAC_ID": 54334, "PID": 2122570, "COM_TYPE1": "Accommodation", "COM_TYPE2": "Guest House\/ Bed and Breakfast", "NAME": "Beauty Point Cottages", "UFI": "{d540fd95-74e6-4501-aade-fce0e139c201}", "CREATED_ON": "2016-11-23 10:54:04", "LIST_GUID": "{10331744-d1e8-4570-a234-7f298d13cc26}", "NOM_REG_NO": null }, "geometry": { "type": "Point", "coordinates": [ 146.821272344061725, -41.16719064653612 ] } },
{ "type": "Feature", "properties": { "COMFAC_ID": 63796, "PID": 3363392, "COM_TYPE1": "Accommodation", "COM_TYPE2": "Guest House\/ Bed and Breakfast", "NAME": "Jensens Bed and Breakfast", "UFI": "{124eb2d8-2109-4754-81b7-74ff43ed2426}", "CREATED_ON": "2016-12-01 11:19:26", "LIST_GUID": "{697cbb10-df45-4598-b16f-3261e0634cc5}", "NOM_REG_NO": null }, "geometry": { "type": "Point", "coordinates": [ 146.822002150445172, -41.162285466032536 ] } },
{ "type": "Feature", "properties": { "COMFAC_ID": 57095, "PID": 7217931, "COM_TYPE1": "Hall\/ Community centre", "COM_TYPE2": "Community centre", "NAME": "Kelso Community Centre", "UFI": "{6ef1bb3f-47d6-4709-ba6f-271c6f986ec8}", "CREATED_ON": "2016-11-23 10:54:04", "LIST_GUID": "{dcff97d1-fd45-4b13-8e9a-45de045a2079}", "NOM_REG_NO": null }, "geometry": { "type": "Point", "coordinates": [ 146.793659843635055, -41.10359083771224 ] } },
{ "type": "Feature", "properties": { "COMFAC_ID": 58904, "PID": 6065841, "COM_TYPE1": "Tourist feature", "COM_TYPE2": "Cultural", "NAME": "Zaadstra White Church Art Gallery", "UFI": "{d549f4aa-6d77-4d26-a588-bcc2b7f09f8c}", "CREATED_ON": "2016-12-01 11:19:26", "LIST_GUID": "{976afc86-9a1d-4f66-906a-d6c52b5f1296}", "NOM_REG_NO": null }, "geometry": { "type": "Point", "coordinates": [ 146.867580588917377, -41.343200829817143 ] } },
{ "type": "Feature", "properties": { "COMFAC_ID": 63818, "PID": 2761823, "COM_TYPE1": "Accommodation", "COM_TYPE2": "Holiday Unit\/ Flat", "NAME": "Wines for Joanie Cottage", "UFI": "{5a6eecec-91ff-4c30-a7a3-8071429c0c0b}", "CREATED_ON": "2016-12-01 11:19:26", "LIST_GUID": "{0273891c-8def-4e96-bc9b-b5abd4a6735b}", "NOM_REG_NO": null }, "geometry": { "type": "Point", "coordinates": [ 146.883020623580251, -41.253990588413799 ] } },
{ "type": "Feature", "properties": { "COMFAC_ID": 57774, "PID": 6103553, "COM_TYPE1": "Transport", "COM_TYPE2": "Service Station", "NAME": "Caltex Sidmouth", "UFI": "{0ae3bb67-3d8a-4011-b13d-20e414d8506d}", "CREATED_ON": "2016-11-23 10:54:04", "LIST_GUID": "{e9f875b9-63ac-4dec-b808-ba2d56782c36}", "NOM_REG_NO": null }, "geometry": { "type": "Point", "coordinates": [ 146.887929198951213, -41.222245175829592 ] } },
{ "type": "Feature", "properties": { "COMFAC_ID": 60931, "PID": 6095215, "COM_TYPE1": "Tourist feature", "COM_TYPE2": "Industrial", "NAME": "Goaty Hills Wines", "UFI": "{6adec773-bdea-4ace-be9c-228cff2984f1}", "CREATED_ON": "2016-11-23 10:54:04", "LIST_GUID": "{c80306ef-0d6b-4e2d-97b2-1863f494e16c}", "NOM_REG_NO": null }, "geometry": { "type": "Point", "coordinates": [ 146.881892643195869, -41.200016135760691 ] } },
{ "type": "Feature", "properties": { "COMFAC_ID": 31465, "PID": 7153544, "COM_TYPE1": "Council", "COM_TYPE2": "West Tamar", "NAME": "Exeter Waste Transfer Station", "UFI": "{afc95ec5-16b8-405a-9711-8efaf36b87b2}", "CREATED_ON": "2016-11-23 10:54:04", "LIST_GUID": "{a60f4634-362f-4705-acf5-75efbc1f6847}", "NOM_REG_NO": null }, "geometry": { "type": "Point", "coordinates": [ 146.946975404513836, -41.303296145498386 ] } },
{ "type": "Feature", "properties": { "COMFAC_ID": 1293, "PID": 1927596, "COM_TYPE1": "Sports complex", "COM_TYPE2": "Golf", "NAME": "Exeter Golf Course", "UFI": "{1a673da1-a39f-4e34-b20b-9246a4bd50a8}", "CREATED_ON": "2016-11-23 10:54:04", "LIST_GUID": "{ecb95f40-6404-42ee-a31c-1befa899a2df}", "NOM_REG_NO": "19589G" }, "geometry": { "type": "Point", "coordinates": [ 146.948605830529203, -41.306919427689309 ] } },
{ "type": "Feature", "properties": { "COMFAC_ID": 61317, "PID": 6058211, "COM_TYPE1": "Cultural", "COM_TYPE2": "Gallery", "NAME": "John Temple Gallery - Exeter", "UFI": "{b3d77ac0-cd98-4a46-b314-3c9965c8d7b5}", "CREATED_ON": "2016-11-23 10:54:04", "LIST_GUID": "{b8ef5b39-9500-425c-add0-115c5943f077}", "NOM_REG_NO": null }, "geometry": { "type": "Point", "coordinates": [ 146.949206965221435, -41.296033602537975 ] } },
{ "type": "Feature", "properties": { "COMFAC_ID": 34507, "PID": 6058713, "COM_TYPE1": "Church", "COM_TYPE2": "Anglican Church", "NAME": "All Saints Anglican Church", "UFI": "{e28eee85-4d42-46e4-90a9-33abf71a9835}", "CREATED_ON": "2016-11-23 10:54:04", "LIST_GUID": "{4397a767-bdcb-4daf-ba35-7ea599066826}", "NOM_REG_NO": null }, "geometry": { "type": "Point", "coordinates": [ 146.949225552473052, -41.296739000483988 ] } },
{ "type": "Feature", "properties": { "COMFAC_ID": 41307, "PID": 1503865, "COM_TYPE1": "Hall\/ Community centre", "COM_TYPE2": "Community centre", "NAME": "Tresca Community Centre", "UFI": "{7b99b0cb-e0ac-46ee-bccc-393967170efd}", "CREATED_ON": "2016-11-23 10:54:04", "LIST_GUID": "{2cb7cfbe-2afc-4ec0-95a9-f46b88d74f6b}", "NOM_REG_NO": null }, "geometry": { "type": "Point", "coordinates": [ 146.951180843912596, -41.305239646776258 ] } },
{ "type": "Feature", "properties": { "COMFAC_ID": 41306, "PID": 1503865, "COM_TYPE1": "Medical service", "COM_TYPE2": "Family & child health centre", "NAME": "Exeter Child Health Centre", "UFI": "{d881368b-c5a8-43f5-a3a0-78261e0789fe}", "CREATED_ON": "2016-11-23 10:54:04", "LIST_GUID": "{0151d68f-5dbd-42d8-9e8b-8530b96794f4}", "NOM_REG_NO": null }, "geometry": { "type": "Point", "coordinates": [ 146.951216667481731, -41.305257677482849 ] } },
{ "type": "Feature", "properties": { "COMFAC_ID": 31425, "PID": 6097632, "COM_TYPE1": "Club", "COM_TYPE2": "Girl Guide", "NAME": "Nindethana Guide Camphouse", "UFI": "{e3753cc3-4614-4a48-8eab-1fea635185a0}", "CREATED_ON": "2016-11-23 10:54:04", "LIST_GUID": "{f41aaa50-1cf4-4e86-81b7-fc2918128ba2}", "NOM_REG_NO": null }, "geometry": { "type": "Point", "coordinates": [ 146.941020399540776, -41.252072422344 ] } },
{ "type": "Feature", "properties": { "COMFAC_ID": 31305, "PID": 1899417, "COM_TYPE1": "Church", "COM_TYPE2": "Presbyterian Church", "NAME": "Auld Kirk Presbyterian Church", "UFI": "{eb530d97-9ca4-4c72-b156-5b245a59c396}", "CREATED_ON": "2016-11-23 10:54:04", "LIST_GUID": "{7640379c-9155-4131-951b-b9cb3fe79bdf}", "NOM_REG_NO": null }, "geometry": { "type": "Point", "coordinates": [ 146.905570939407227, -41.213064688375553 ] } },
{ "type": "Feature", "properties": { "COMFAC_ID": 31065, "PID": 7607868, "COM_TYPE1": "Tourist feature", "COM_TYPE2": "Industrial", "NAME": "Holm Oak Vineyard", "UFI": "{251a2b5e-42d4-49b9-ba45-d38ef1071b2a}", "CREATED_ON": "2016-11-23 10:54:04", "LIST_GUID": "{a68488e1-9708-48e4-93ee-553ccc35343e}", "NOM_REG_NO": null }, "geometry": { "type": "Point", "coordinates": [ 146.919668931764704, -41.175638415592672 ] } },
{ "type": "Feature", "properties": { "COMFAC_ID": 31565, "PID": 6063731, "COM_TYPE1": "State police and emergency", "COM_TYPE2": "Fire station", "NAME": "Bridgenorth Fire Station", "UFI": "{deda5480-b2e8-4b35-99a6-dc3312a750d0}", "CREATED_ON": "2016-11-23 10:54:04", "LIST_GUID": "{98b17a99-e418-4b5b-bc01-44da319ff011}", "NOM_REG_NO": null }, "geometry": { "type": "Point", "coordinates": [ 146.98254620916299, -41.380028982417571 ] } },
{ "type": "Feature", "properties": { "COMFAC_ID": 1353, "PID": 6058334, "COM_TYPE1": "Transport", "COM_TYPE2": "Service Station", "NAME": "United Exeter", "UFI": "{30ba3b6b-358e-4de2-a4a3-28293060fdf5}", "CREATED_ON": "2016-11-23 10:54:04", "LIST_GUID": "{5fa7bab5-f3d4-4b56-9e6a-aec203b16102}", "NOM_REG_NO": null }, "geometry": { "type": "Point", "coordinates": [ 146.9530758479398, -41.29963666869606 ] } },
{ "type": "Feature", "properties": { "COMFAC_ID": 35346, "PID": 1980442, "COM_TYPE1": "Club", "COM_TYPE2": "RSL and ex service", "NAME": "Exeter RSLA", "UFI": "{8d912e6f-7502-43dc-9a5f-9e6505dbd5d0}", "CREATED_ON": "2016-11-23 10:54:04", "LIST_GUID": "{0e8f7475-5661-4731-a931-1c062c0d8ebc}", "NOM_REG_NO": null }, "geometry": { "type": "Point", "coordinates": [ 146.95411771847705, -41.298615886860453 ] } },
{ "type": "Feature", "properties": { "COMFAC_ID": 41425, "PID": 6058158, "COM_TYPE1": "Community care", "COM_TYPE2": "Creche", "NAME": "Exeter Child Care Centre", "UFI": "{48eee069-a6df-4e01-b268-125a9b6be2b4}", "CREATED_ON": "2016-11-23 10:54:04", "LIST_GUID": "{43bbe83a-ede1-44f0-ace8-b3c632a85eee}", "NOM_REG_NO": null }, "geometry": { "type": "Point", "coordinates": [ 146.95615366250405, -41.300080163565951 ] } },
{ "type": "Feature", "properties": { "COMFAC_ID": 55178, "PID": 6058019, "COM_TYPE1": "Medical service", "COM_TYPE2": "Dental clinic", "NAME": "Exeter Dental Clinic", "UFI": "{887d4407-6e12-4867-a377-df5d7172812c}", "CREATED_ON": "2016-11-23 10:54:04", "LIST_GUID": "{95aa7385-23b4-48c9-a332-2894445d7c19}", "NOM_REG_NO": null }, "geometry": { "type": "Point", "coordinates": [ 146.956905662491238, -41.299070433449018 ] } },
{ "type": "Feature", "properties": { "COMFAC_ID": 62858, "PID": 6074182, "COM_TYPE1": "Accommodation", "COM_TYPE2": "Guest House\/ Bed and Breakfast", "NAME": "B&B Accommodation - Viewenmore Villa", "UFI": "{836e57e4-f298-4d92-b953-f7e22b3f4733}", "CREATED_ON": "2016-11-23 10:54:04", "LIST_GUID": "{4e03ce0b-2072-446e-8c87-ec6e6108f185}", "NOM_REG_NO": null }, "geometry": { "type": "Point", "coordinates": [ 146.981511848669982, -41.32031300932033 ] } },
{ "type": "Feature", "properties": { "COMFAC_ID": 41366, "PID": 1794789, "COM_TYPE1": "Community care", "COM_TYPE2": "Nursing and age home", "NAME": "Presbyterian Homes Legana", "UFI": "{61130ed4-c902-4b15-8d0f-8fa4aa436ab8}", "CREATED_ON": "2016-11-23 10:54:04", "LIST_GUID": "{e9cbe825-dfa7-438c-afaa-18929fa89f35}", "NOM_REG_NO": null }, "geometry": { "type": "Point", "coordinates": [ 147.040001943851024, -41.364068679605047 ] } },
{ "type": "Feature", "properties": { "COMFAC_ID": 29928, "PID": 6068110, "COM_TYPE1": "Ground", "COM_TYPE2": "Sportsground", "NAME": "Legana Recreation Area", "UFI": "{0eb8061b-055f-4827-9777-f9c2730db89f}", "CREATED_ON": "2016-11-23 10:54:04", "LIST_GUID": "{86031519-d8c5-44b6-8909-e03651a8d8f8}", "NOM_REG_NO": null }, "geometry": { "type": "Point", "coordinates": [ 147.045212781069836, -41.364312560634318 ] } },
{ "type": "Feature", "properties": { "COMFAC_ID": 1337, "PID": 6047889, "COM_TYPE1": "Church", "COM_TYPE2": "Other Church", "NAME": "Launceston Christian Fellowship", "UFI": "{d5ba3568-5da4-4eb1-b45b-b4223a21c62d}", "CREATED_ON": "2016-11-23 10:54:04", "LIST_GUID": "{aed67efe-c414-4d98-93dc-a1461e11df70}", "NOM_REG_NO": null }, "geometry": { "type": "Point", "coordinates": [ 147.106085551132395, -41.430576319108191 ] } },
{ "type": "Feature", "properties": { "COMFAC_ID": 36534, "PID": 1928564, "COM_TYPE1": "Church", "COM_TYPE2": "Anglican Church", "NAME": "St Davids Anglican Church", "UFI": "{05aeccd3-0180-40c1-bfef-6f9c25a37392}", "CREATED_ON": "2016-11-23 10:54:04", "LIST_GUID": "{9b0506ac-e0bf-4d9b-8332-7ca94cccb32e}", "NOM_REG_NO": null }, "geometry": { "type": "Point", "coordinates": [ 147.093166227831773, -41.407218780757248 ] } },
{ "type": "Feature", "properties": { "COMFAC_ID": 60631, "PID": 1280710, "COM_TYPE1": "Church", "COM_TYPE2": "Australian Christian Churches", "NAME": "Gateway Launceston", "UFI": "{35f943bd-345e-46cf-ade5-ce5d1192899d}", "CREATED_ON": "2016-11-23 10:54:04", "LIST_GUID": "{bd49b628-08b1-43d0-9c0c-56783aac3dd6}", "NOM_REG_NO": null }, "geometry": { "type": "Point", "coordinates": [ 147.098851392190539, -41.408404922462687 ] } },
{ "type": "Feature", "properties": { "COMFAC_ID": 1357, "PID": 6066406, "COM_TYPE1": "State Government", "COM_TYPE2": "Other", "NAME": "TasWater - Sewage Treatment Ponds", "UFI": "{9b189ab4-a71c-40ff-8741-fb00daa8fbc3}", "CREATED_ON": "2016-11-23 10:54:04", "LIST_GUID": "{1b15b050-367d-4769-9cf8-23bd9cc0b7a4}", "NOM_REG_NO": null }, "geometry": { "type": "Point", "coordinates": [ 147.058260317716417, -41.360338987562393 ] } },
{ "type": "Feature", "properties": { "COMFAC_ID": 62466, "PID": 0, "COM_TYPE1": "Ground", "COM_TYPE2": "Picnic Area", "NAME": null, "UFI": "{97823c64-bcf7-4277-94a3-255fa848209f}", "CREATED_ON": "2016-11-23 10:54:04", "LIST_GUID": "{2eabeb19-c4e5-4b08-8145-0bf32fc0ed80}", "NOM_REG_NO": null }, "geometry": { "type": "Point", "coordinates": [ 146.765642914153972, -41.151672054514009 ] } },
{ "type": "Feature", "properties": { "COMFAC_ID": 1367, "PID": 6102411, "COM_TYPE1": "Accommodation", "COM_TYPE2": "Caravan Park", "NAME": "Kelso Sands Holiday & Native Wildlife Park", "UFI": "{91e6bb2c-44cb-4616-a51d-f2515f4465c7}", "CREATED_ON": "2016-11-23 10:54:04", "LIST_GUID": "{6ce2ba1e-d9a6-4485-a5b2-d035ab00062b}", "NOM_REG_NO": null }, "geometry": { "type": "Point", "coordinates": [ 146.781216795071401, -41.09281486952149 ] } },
{ "type": "Feature", "properties": { "COMFAC_ID": 58286, "PID": 6089261, "COM_TYPE1": "Community care", "COM_TYPE2": "Creche", "NAME": "Beauty Point Early Learning Centre", "UFI": "{63a07cdf-4bfa-4c6b-8df8-4e9c02db98ef}", "CREATED_ON": "2016-11-23 10:54:04", "LIST_GUID": "{f0de5762-1bac-4125-8a68-1f36576e5600}", "NOM_REG_NO": null }, "geometry": { "type": "Point", "coordinates": [ 146.815412054416328, -41.146777161662975 ] } },
{ "type": "Feature", "properties": { "COMFAC_ID": 57349, "PID": 7143100, "COM_TYPE1": "Ground", "COM_TYPE2": "Picnic Area", "NAME": "Picnic Area", "UFI": "{7ca01825-df20-4a61-9544-7426b602d02f}", "CREATED_ON": "2016-11-23 10:54:04", "LIST_GUID": "{11efddbd-f9e9-4438-b8f3-5e245fb5d12d}", "NOM_REG_NO": null }, "geometry": { "type": "Point", "coordinates": [ 146.818148275571929, -41.146922533943055 ] } },
{ "type": "Feature", "properties": { "COMFAC_ID": 31127, "PID": 6065761, "COM_TYPE1": "State police and emergency", "COM_TYPE2": "Fire station", "NAME": "Glengarry Fire Station", "UFI": "{6ac1d48c-053d-4bc9-9dd0-d9c337b12c2c}", "CREATED_ON": "2016-11-23 10:54:04", "LIST_GUID": "{cb37cdd0-0d05-47d7-be6c-16be193cfd75}", "NOM_REG_NO": null }, "geometry": { "type": "Point", "coordinates": [ 146.871736812811093, -41.338184355518067 ] } },
{ "type": "Feature", "properties": { "COMFAC_ID": 62667, "PID": 1707542, "COM_TYPE1": "Tourist feature", "COM_TYPE2": "Industrial", "NAME": "Loira Vines", "UFI": "{53ebe99f-a5ec-43ec-868a-850dd99b6444}", "CREATED_ON": "2016-11-23 10:54:04", "LIST_GUID": "{a10e0d29-323b-4535-8168-7b1e5a4a0565}", "NOM_REG_NO": null }, "geometry": { "type": "Point", "coordinates": [ 146.893366608766229, -41.246344165167102 ] } },
{ "type": "Feature", "properties": { "COMFAC_ID": 31005, "PID": 6071694, "COM_TYPE1": "Tourist feature", "COM_TYPE2": "Natural", "NAME": "Notley Gorge State Reserve", "UFI": "{4c5cb8fc-2867-4a4e-ba27-9f289b3779ef}", "CREATED_ON": "2016-11-23 10:54:04", "LIST_GUID": "{8e4d762b-8ca0-4c85-a45f-2dcdb5bd30a1}", "NOM_REG_NO": "38511P" }, "geometry": { "type": "Point", "coordinates": [ 146.916022300612269, -41.354444126559798 ] } },
{ "type": "Feature", "properties": { "COMFAC_ID": 57995, "PID": 2251161, "COM_TYPE1": "Accommodation", "COM_TYPE2": "Holiday Unit\/ Flat", "NAME": "Hazelcreek Cottages", "UFI": "{f1e6a3b9-a615-4a5b-8447-e395288b513b}", "CREATED_ON": "2016-11-23 10:54:04", "LIST_GUID": "{df2d1884-1a1c-4b65-aac3-99d1f9f24769}", "NOM_REG_NO": null }, "geometry": { "type": "Point", "coordinates": [ 146.924298905261224, -41.298435063541 ] } },
{ "type": "Feature", "properties": { "COMFAC_ID": 1393, "PID": 6058668, "COM_TYPE1": "Ground", "COM_TYPE2": "Showground", "NAME": "Exeter Showground", "UFI": "{65f4e171-4566-4ca1-b225-30ab8e7aa862}", "CREATED_ON": "2016-11-23 10:54:04", "LIST_GUID": "{8f80924a-d9c5-444c-b043-7fafb783224a}", "NOM_REG_NO": "19650F" }, "geometry": { "type": "Point", "coordinates": [ 146.947611515983056, -41.298639673727394 ] } },
{ "type": "Feature", "properties": { "COMFAC_ID": 1272, "PID": 1927588, "COM_TYPE1": "Club", "COM_TYPE2": "Golf", "NAME": "Exeter Golf Club", "UFI": "{615f3173-ef81-4f6f-a0ae-a177f0c7ebef}", "CREATED_ON": "2016-11-23 10:54:04", "LIST_GUID": "{58518ac9-5774-4a58-836e-d79ea6920435}", "NOM_REG_NO": null }, "geometry": { "type": "Point", "coordinates": [ 146.947916585411122, -41.30561106531313 ] } },
{ "type": "Feature", "properties": { "COMFAC_ID": 1374, "PID": 7509483, "COM_TYPE1": "Hall\/ Community centre", "COM_TYPE2": "Community, town or city hall", "NAME": "Deviot Community Hall", "UFI": "{06224cec-50dc-42de-863d-f24487498daf}", "CREATED_ON": "2016-11-23 10:54:04", "LIST_GUID": "{90a16ddc-df10-4505-a300-ad4eb37d5569}", "NOM_REG_NO": null }, "geometry": { "type": "Point", "coordinates": [ 146.934002189284371, -41.23460961282094 ] } },
{ "type": "Feature", "properties": { "COMFAC_ID": 35426, "PID": 2096915, "COM_TYPE1": "State police and emergency", "COM_TYPE2": "Fire station", "NAME": "Rowella Fire Station", "UFI": "{0e52fb52-abe7-4fae-b587-48a5c739093c}", "CREATED_ON": "2016-11-23 10:54:04", "LIST_GUID": "{3be8e486-9b1c-4ccc-bab1-673e8e7fbae3}", "NOM_REG_NO": null }, "geometry": { "type": "Point", "coordinates": [ 146.899803324190174, -41.185693739896656 ] } },
{ "type": "Feature", "properties": { "COMFAC_ID": 15704, "PID": 6058289, "COM_TYPE1": "Accommodation", "COM_TYPE2": "Hotel", "NAME": "Exeter Hotel", "UFI": "{e0bae571-521b-4a63-8d9d-0d6e77c2b16d}", "CREATED_ON": "2016-11-23 10:54:04", "LIST_GUID": "{07567b24-ba46-4e6c-872c-5b7c519518a8}", "NOM_REG_NO": null }, "geometry": { "type": "Point", "coordinates": [ 146.951852191127841, -41.298190380328862 ] } },
{ "type": "Feature", "properties": { "COMFAC_ID": 41305, "PID": 6058545, "COM_TYPE1": "Financial institution", "COM_TYPE2": "Commonwealth", "NAME": "Commonwealth Bank Exeter", "UFI": "{33a83f2e-936d-4adb-8980-80d10dd0aaf1}", "CREATED_ON": "2016-11-23 10:54:04", "LIST_GUID": "{31e8ce18-f398-4064-8b4c-3fbc0c3c01f6}", "NOM_REG_NO": null }, "geometry": { "type": "Point", "coordinates": [ 146.952598454640281, -41.299902832820585 ] } },
{ "type": "Feature", "properties": { "COMFAC_ID": 1291, "PID": 6078087, "COM_TYPE1": "Education and training", "COM_TYPE2": "High School", "NAME": "Exeter High School Farm", "UFI": "{eb9a04de-70c6-46f9-b65a-ec32dfe294f6}", "CREATED_ON": "2016-11-23 10:54:04", "LIST_GUID": "{17723e9c-318a-4a96-a581-03e0b025504c}", "NOM_REG_NO": null }, "geometry": { "type": "Point", "coordinates": [ 146.954261293099307, -41.303433882997609 ] } },
{ "type": "Feature", "properties": { "COMFAC_ID": 63415, "PID": 2719772, "COM_TYPE1": "Accommodation", "COM_TYPE2": "Guest House\/ Bed and Breakfast", "NAME": "Brady's View Bed and Breakfast", "UFI": "{367cbac8-44c1-41cb-a837-e84cdc60614f}", "CREATED_ON": "2016-11-23 10:54:04", "LIST_GUID": "{14d78051-42d4-43ff-b394-9450fd137233}", "NOM_REG_NO": null }, "geometry": { "type": "Point", "coordinates": [ 146.991830401783574, -41.322483996346428 ] } },
{ "type": "Feature", "properties": { "COMFAC_ID": 53233, "PID": 6071969, "COM_TYPE1": "Accommodation", "COM_TYPE2": "Hostel", "NAME": "Carnacoo Camp", "UFI": "{acc1ad91-1dac-409a-b045-217e4ae4aa51}", "CREATED_ON": "2016-11-23 10:54:04", "LIST_GUID": "{ea9057bd-5940-4671-ba71-a1e38469be3b}", "NOM_REG_NO": null }, "geometry": { "type": "Point", "coordinates": [ 146.958786162389458, -41.258565399285807 ] } },
{ "type": "Feature", "properties": { "COMFAC_ID": 31445, "PID": 6071969, "COM_TYPE1": "Club", "COM_TYPE2": "Scout", "NAME": "Carnacoo Campsite", "UFI": "{4296cd41-08d1-41b9-bd56-ce8e9ba51b60}", "CREATED_ON": "2016-11-23 10:54:04", "LIST_GUID": "{305b06db-a97c-46b5-bbb7-9cddc33cbaad}", "NOM_REG_NO": null }, "geometry": { "type": "Point", "coordinates": [ 146.959174850337803, -41.258657967137616 ] } },
{ "type": "Feature", "properties": { "COMFAC_ID": 62733, "PID": 2208059, "COM_TYPE1": "Tourist feature", "COM_TYPE2": "Industrial", "NAME": "Tamar Ridge Wines", "UFI": "{551c7ace-a9ba-4e3f-9d5f-be7b84f35d7e}", "CREATED_ON": "2016-11-23 10:54:04", "LIST_GUID": "{becdf0cb-0ff8-4453-ae7c-1ad5c7e88d7b}", "NOM_REG_NO": null }, "geometry": { "type": "Point", "coordinates": [ 147.007109482487408, -41.33936955103016 ] } },
{ "type": "Feature", "properties": { "COMFAC_ID": 53393, "PID": 7708554, "COM_TYPE1": "Church", "COM_TYPE2": "Australian Christian Churches", "NAME": "Legana Christian Church", "UFI": "{e1dba468-0a87-44b6-94ae-e3c627952ce1}", "CREATED_ON": "2016-11-23 10:54:04", "LIST_GUID": "{7d24b69a-eb00-447e-93dd-24c6e8e3b6d1}", "NOM_REG_NO": null }, "geometry": { "type": "Point", "coordinates": [ 147.040244895345552, -41.370215009583518 ] } },
{ "type": "Feature", "properties": { "COMFAC_ID": 31225, "PID": 1574882, "COM_TYPE1": "State police and emergency", "COM_TYPE2": "Fire station", "NAME": "Legana Fire Station", "UFI": "{9c82e709-0c1e-49a3-b4ae-1c8b6af560ab}", "CREATED_ON": "2016-11-23 10:54:04", "LIST_GUID": "{f58cfd76-605c-4499-90c3-c029df50f90b}", "NOM_REG_NO": null }, "geometry": { "type": "Point", "coordinates": [ 147.044057286145176, -41.362223634988972 ] } },
{ "type": "Feature", "properties": { "COMFAC_ID": 29927, "PID": 1282994, "COM_TYPE1": "Club", "COM_TYPE2": "Cricket", "NAME": "Legana Cricket Club", "UFI": "{81a15fe6-a1de-4994-9422-1c22f77b035a}", "CREATED_ON": "2016-11-23 10:54:04", "LIST_GUID": "{d111a671-6c80-4930-8a89-31e7bde77194}", "NOM_REG_NO": null }, "geometry": { "type": "Point", "coordinates": [ 147.045049055042881, -41.363731576238393 ] } },
{ "type": "Feature", "properties": { "COMFAC_ID": 54183, "PID": 1673696, "COM_TYPE1": "Accommodation", "COM_TYPE2": "Guest House\/ Bed and Breakfast", "NAME": "Protea Hill", "UFI": "{24932b31-28fd-4077-9592-8f1f49c59bb3}", "CREATED_ON": "2016-11-23 10:54:04", "LIST_GUID": "{71ff2d74-4afd-4914-952a-0f63e83daa10}", "NOM_REG_NO": null }, "geometry": { "type": "Point", "coordinates": [ 147.107257380007439, -41.423816747263402 ] } },
{ "type": "Feature", "properties": { "COMFAC_ID": 62705, "PID": 0, "COM_TYPE1": "Hall\/ Community centre", "COM_TYPE2": "Community centre", "NAME": "Windsor Community Centre", "UFI": "{4c612305-8060-4a65-9950-0afa9acdf730}", "CREATED_ON": "2016-11-23 10:54:04", "LIST_GUID": "{0c281562-31f6-4fca-a3bc-70416a1478d9}", "NOM_REG_NO": null }, "geometry": { "type": "Point", "coordinates": [ 147.093405123174392, -41.404322400212735 ] } },
{ "type": "Feature", "properties": { "COMFAC_ID": 61644, "PID": 2733574, "COM_TYPE1": "Tourist feature", "COM_TYPE2": "Amusement or entertainment", "NAME": "Kids Paradise", "UFI": "{44531210-8871-4069-a0b4-899b7360c755}", "CREATED_ON": "2016-11-23 10:54:04", "LIST_GUID": "{94c8cecd-1e14-476f-a62d-9fd566cf4d90}", "NOM_REG_NO": null }, "geometry": { "type": "Point", "coordinates": [ 147.111899106797949, -41.42059708180512 ] } },
{ "type": "Feature", "properties": { "COMFAC_ID": 1227, "PID": 6080507, "COM_TYPE1": "Club", "COM_TYPE2": "Cricket", "NAME": "Beaconsfield Cricket Club", "UFI": "{8b501dfe-85b3-40a0-aeb0-179dc9a6a453}", "CREATED_ON": "2016-11-23 10:54:04", "LIST_GUID": "{00833f01-2250-4c4d-a425-d5cd4b54c2c8}", "NOM_REG_NO": null }, "geometry": { "type": "Point", "coordinates": [ 146.817518331637871, -41.200187879555322 ] } },
{ "type": "Feature", "properties": { "COMFAC_ID": 1234, "PID": 6081200, "COM_TYPE1": "State police and emergency", "COM_TYPE2": "Fire station", "NAME": "Beaconsfield Fire Station", "UFI": "{da043f83-a6d1-4c72-b214-518ac63740c1}", "CREATED_ON": "2016-11-23 10:54:04", "LIST_GUID": "{1f7561c3-c2e9-416e-941b-eca5785bf75b}", "NOM_REG_NO": null }, "geometry": { "type": "Point", "coordinates": [ 146.817999376795683, -41.201406196007007 ] } },
{ "type": "Feature", "properties": { "COMFAC_ID": 57075, "PID": 1852571, "COM_TYPE1": "Ground", "COM_TYPE2": "Sportsground", "NAME": "Beaconsfield Recreation Ground", "UFI": "{3efeb247-9b28-4a97-8697-f47140e00971}", "CREATED_ON": "2016-11-23 10:54:04", "LIST_GUID": "{348a4b9a-995f-4233-8725-02e967f214a4}", "NOM_REG_NO": null }, "geometry": { "type": "Point", "coordinates": [ 146.821952427468545, -41.198014236530412 ] } },
{ "type": "Feature", "properties": { "COMFAC_ID": 1242, "PID": 6084882, "COM_TYPE1": "Ground", "COM_TYPE2": "Park or reserve", "NAME": "Middle Arm Park", "UFI": "{19f6b386-fa98-42e5-9fb8-10729f6e12b7}", "CREATED_ON": "2016-11-23 10:54:04", "LIST_GUID": "{7a26d3e1-706e-4a9f-86ce-be732ea731c8}", "NOM_REG_NO": null }, "geometry": { "type": "Point", "coordinates": [ 146.83116531614624, -41.208706066213381 ] } },
{ "type": "Feature", "properties": { "COMFAC_ID": 35305, "PID": 7504447, "COM_TYPE1": "Club", "COM_TYPE2": "Cricket", "NAME": "Beauty Point Cricket Club", "UFI": "{6155da4b-a2a1-4b1c-83c7-047a951dfe0c}", "CREATED_ON": "2016-11-23 10:54:04", "LIST_GUID": "{b702ca5d-5ff0-4d73-a788-aeec4be1cca2}", "NOM_REG_NO": null }, "geometry": { "type": "Point", "coordinates": [ 146.805808964229215, -41.146752482585306 ] } },
{ "type": "Feature", "properties": { "COMFAC_ID": 30965, "PID": 2569305, "COM_TYPE1": "Tourist feature", "COM_TYPE2": "Industrial", "NAME": "Tamar Ridge Wines", "UFI": "{35aafdb0-3d85-45f2-b51d-96ec8f6f5682}", "CREATED_ON": "2016-11-23 10:54:04", "LIST_GUID": "{cf918089-d208-48f6-8c10-5e8c2791483e}", "NOM_REG_NO": null }, "geometry": { "type": "Point", "coordinates": [ 146.888716537833488, -41.191286500746322 ] } },
{ "type": "Feature", "properties": { "COMFAC_ID": 30845, "PID": 6097704, "COM_TYPE1": "Tourist feature", "COM_TYPE2": "Industrial", "NAME": "Marions Vineyard", "UFI": "{09661e56-cc79-4ebd-9023-82272f23cc6b}", "CREATED_ON": "2016-11-23 10:54:04", "LIST_GUID": "{59e84680-13a7-4471-a1c7-c43afc0ec0e0}", "NOM_REG_NO": null }, "geometry": { "type": "Point", "coordinates": [ 146.937183938064379, -41.248171266018929 ] } },
{ "type": "Feature", "properties": { "COMFAC_ID": 31066, "PID": 7474647, "COM_TYPE1": "Tourist feature", "COM_TYPE2": "Industrial", "NAME": "Lavender House", "UFI": "{8a9f3992-90d2-4b68-9f24-1c162fd32c60}", "CREATED_ON": "2016-11-23 10:54:04", "LIST_GUID": "{f797f82c-0732-4ee6-8074-2df80823b10d}", "NOM_REG_NO": null }, "geometry": { "type": "Point", "coordinates": [ 146.912828466133277, -41.178451690064648 ] } },
{ "type": "Feature", "properties": { "COMFAC_ID": 1386, "PID": 6063731, "COM_TYPE1": "Ground", "COM_TYPE2": "Sportsground", "NAME": "Bridgenorth Recreation Ground", "UFI": "{f1090525-bc33-4675-86e4-a5dc9ef57f13}", "CREATED_ON": "2016-11-23 10:54:04", "LIST_GUID": "{78d8ca89-52eb-46aa-a1e8-b5dd0a6743cb}", "NOM_REG_NO": "22722K" }, "geometry": { "type": "Point", "coordinates": [ 146.983560730892123, -41.380557159811367 ] } },
{ "type": "Feature", "properties": { "COMFAC_ID": 1287, "PID": 7830007, "COM_TYPE1": "State police and emergency", "COM_TYPE2": "Police station", "NAME": "Exeter Police Station", "UFI": "{e38e03d3-468e-4605-a2ce-1f5aaab40e98}", "CREATED_ON": "2016-11-23 10:54:04", "LIST_GUID": "{1e808aa1-33fc-4a62-b73f-86bf9ccf0c46}", "NOM_REG_NO": null }, "geometry": { "type": "Point", "coordinates": [ 146.951745231706695, -41.299272727202904 ] } },
{ "type": "Feature", "properties": { "COMFAC_ID": 31485, "PID": 7153544, "COM_TYPE1": "Cultural", "COM_TYPE2": "Library", "NAME": "Exeter Library", "UFI": "{296f03ed-ce88-4059-a0a9-33188ade8d8d}", "CREATED_ON": "2016-11-23 10:54:04", "LIST_GUID": "{ff44e7f6-c2a6-4868-bb51-fdae34bf4128}", "NOM_REG_NO": null }, "geometry": { "type": "Point", "coordinates": [ 146.953024177140406, -41.300233511346917 ] } },
{ "type": "Feature", "properties": { "COMFAC_ID": 53373, "PID": 7331005, "COM_TYPE1": "State Government", "COM_TYPE2": "Other", "NAME": "TasWater - Sewage Treatment Lagoons", "UFI": "{8ff46f14-41ad-45fc-b53e-49d5a71eb78a}", "CREATED_ON": "2016-11-23 10:54:04", "LIST_GUID": "{da1201f3-a2ba-48e1-9986-c88041d1f43f}", "NOM_REG_NO": null }, "geometry": { "type": "Point", "coordinates": [ 146.961780601136979, -41.303366769882736 ] } },
{ "type": "Feature", "properties": { "COMFAC_ID": 62655, "PID": 6070341, "COM_TYPE1": "Accommodation", "COM_TYPE2": "Guest House\/ Bed and Breakfast", "NAME": "River Walk B&B", "UFI": "{6c78a622-12f1-44d3-99d8-632505eaae73}", "CREATED_ON": "2016-11-23 10:54:04", "LIST_GUID": "{7df2f74c-6d7d-4857-85fe-e2e139aed85d}", "NOM_REG_NO": null }, "geometry": { "type": "Point", "coordinates": [ 146.952534506939998, -41.262452464669067 ] } },
{ "type": "Feature", "properties": { "COMFAC_ID": 31006, "PID": 6070405, "COM_TYPE1": "Cultural", "COM_TYPE2": "Gallery", "NAME": "Artisan Gallery & Wine Centre", "UFI": "{7a9f0152-b88c-486d-addd-a65eea6f8adb}", "CREATED_ON": "2016-11-23 10:54:04", "LIST_GUID": "{9089d253-2f74-436c-b9c0-a96707e949c8}", "NOM_REG_NO": null }, "geometry": { "type": "Point", "coordinates": [ 146.958164787055239, -41.268158788732514 ] } },
{ "type": "Feature", "properties": { "COMFAC_ID": 46075, "PID": 2777462, "COM_TYPE1": "State police and emergency", "COM_TYPE2": "Fire station", "NAME": "Gravelly Beach Fire Station", "UFI": "{05ed38b6-9915-4517-bf81-854e5b04d1dc}", "CREATED_ON": "2016-11-23 10:54:04", "LIST_GUID": "{bb26acfb-ff41-4dc0-852e-30e968999b4f}", "NOM_REG_NO": null }, "geometry": { "type": "Point", "coordinates": [ 146.969508612496497, -41.292557543612396 ] } },
{ "type": "Feature", "properties": { "COMFAC_ID": 57419, "PID": 6060661, "COM_TYPE1": "Ground", "COM_TYPE2": "Picnic Area", "NAME": "Picnic Area", "UFI": "{2efe6f69-a4db-4a04-af3b-338f061e96c4}", "CREATED_ON": "2016-11-23 10:54:04", "LIST_GUID": "{3dcb7c0c-b176-4332-a24f-74bd132f7e93}", "NOM_REG_NO": null }, "geometry": { "type": "Point", "coordinates": [ 146.971562023827431, -41.29379021624537 ] } },
{ "type": "Feature", "properties": { "COMFAC_ID": 1286, "PID": 7487907, "COM_TYPE1": "Ground", "COM_TYPE2": "Park or reserve", "NAME": "Anzac Park", "UFI": "{bfa3e275-47cb-436a-860c-f73b8fdd4934}", "CREATED_ON": "2016-11-23 10:54:04", "LIST_GUID": "{f490379a-1e8d-4d29-a1d1-bbfdde976eb1}", "NOM_REG_NO": null }, "geometry": { "type": "Point", "coordinates": [ 146.976952133256759, -41.287864741918206 ] } },
{ "type": "Feature", "properties": { "COMFAC_ID": 63409, "PID": 6060848, "COM_TYPE1": "Accommodation", "COM_TYPE2": "Guest House\/ Bed and Breakfast", "NAME": "The Blue House", "UFI": "{668e9780-4eb6-4105-922f-a08223d2b1d6}", "CREATED_ON": "2016-11-23 10:54:04", "LIST_GUID": "{4918556f-6ab5-4404-b401-749d8e59d849}", "NOM_REG_NO": null }, "geometry": { "type": "Point", "coordinates": [ 146.964977343452261, -41.253924098226939 ] } },
{ "type": "Feature", "properties": { "COMFAC_ID": 31087, "PID": 2674113, "COM_TYPE1": "Tourist feature", "COM_TYPE2": "Industrial", "NAME": "Daniel Alps at Strathlynn", "UFI": "{d0ef51f0-3c57-421f-93bf-99f23088fb34}", "CREATED_ON": "2016-11-23 10:54:04", "LIST_GUID": "{b91fae83-6fdb-47c0-a0fa-106567148156}", "NOM_REG_NO": null }, "geometry": { "type": "Point", "coordinates": [ 147.021998051093277, -41.34217039757683 ] } },
{ "type": "Feature", "properties": { "COMFAC_ID": 12664, "PID": 7416009, "COM_TYPE1": "Accommodation", "COM_TYPE2": "Guest House\/ Bed and Breakfast", "NAME": "Tamar House", "UFI": "{2a75260e-0926-45a8-b77f-0b11c14e0909}", "CREATED_ON": "2016-11-23 10:54:04", "LIST_GUID": "{c64a6b73-a8b1-410a-9d5f-50d6368a473a}", "NOM_REG_NO": null }, "geometry": { "type": "Point", "coordinates": [ 147.025944053259451, -41.343635272801265 ] } },
{ "type": "Feature", "properties": { "COMFAC_ID": 1342, "PID": 7227371, "COM_TYPE1": "Church", "COM_TYPE2": "Uniting Church", "NAME": "Legana Uniting Church", "UFI": "{71486110-afd9-4bfa-8bfd-d8fde0f040e0}", "CREATED_ON": "2016-11-23 10:54:04", "LIST_GUID": "{fbbb8d70-2f7a-4a6e-acc3-ec5ef24754e1}", "NOM_REG_NO": null }, "geometry": { "type": "Point", "coordinates": [ 147.042757089363477, -41.365480163117326 ] } },
{ "type": "Feature", "properties": { "COMFAC_ID": 1392, "PID": 6077228, "COM_TYPE1": "Community care", "COM_TYPE2": "Nursing and age home", "NAME": "Tamar Park Nursing Home", "UFI": "{60a295b6-0334-4e9b-be79-ffd12b19b537}", "CREATED_ON": "2016-11-23 10:54:04", "LIST_GUID": "{94ae505f-eb29-41a2-ac9d-c573a9cd17c1}", "NOM_REG_NO": null }, "geometry": { "type": "Point", "coordinates": [ 147.052571587395676, -41.374452643841771 ] } },
{ "type": "Feature", "properties": { "COMFAC_ID": 56216, "PID": 6075839, "COM_TYPE1": "Ground", "COM_TYPE2": "Park or reserve", "NAME": "Tanner Drive Playground", "UFI": "{7ab9b104-9c12-4de2-9452-d94d7fd7b9cd}", "CREATED_ON": "2016-11-23 10:54:04", "LIST_GUID": "{cf8a7aea-f0d6-4022-849a-8832b3a854a6}", "NOM_REG_NO": null }, "geometry": { "type": "Point", "coordinates": [ 147.054502209686717, -41.341475694492402 ] } },
{ "type": "Feature", "properties": { "COMFAC_ID": 63942, "PID": 6073892, "COM_TYPE1": "Tourist feature", "COM_TYPE2": "Cultural", "NAME": "Rosevears Art Gallery", "UFI": "{53656c56-8473-4724-8f5e-03a099da3433}", "CREATED_ON": "2017-05-23 17:10:14", "LIST_GUID": "{d2803edb-cd4f-4896-b0f0-9a3da05d5e98}", "NOM_REG_NO": null }, "geometry": { "type": "Point", "coordinates": [ 147.004924653203318, -41.32194882429021 ] } },
{ "type": "Feature", "properties": { "COMFAC_ID": 57589, "PID": 1846200, "COM_TYPE1": "Ground", "COM_TYPE2": "Picnic Area", "NAME": "Picnic Area", "UFI": "{53b693c4-a6d4-4128-8216-80dfe8228f06}", "CREATED_ON": "2016-11-23 10:54:04", "LIST_GUID": "{c58bfaa8-7664-4c64-b69f-a0559ec77070}", "NOM_REG_NO": null }, "geometry": { "type": "Point", "coordinates": [ 147.10411065199682, -41.458874740248284 ] } },
{ "type": "Feature", "properties": { "COMFAC_ID": 57596, "PID": 1846200, "COM_TYPE1": "Ground", "COM_TYPE2": "Picnic Area", "NAME": "Picnic Area", "UFI": "{635f660c-ce0d-43de-93a6-0ba1f9f47259}", "CREATED_ON": "2016-11-23 10:54:04", "LIST_GUID": "{ca6eb420-0afd-46bc-9f63-8726e1135003}", "NOM_REG_NO": null }, "geometry": { "type": "Point", "coordinates": [ 147.081018969016498, -41.442208743705223 ] } },
{ "type": "Feature", "properties": { "COMFAC_ID": 1334, "PID": 1927780, "COM_TYPE1": "Church", "COM_TYPE2": "Catholic Church", "NAME": "St Francis Catholic Church", "UFI": "{22d26937-b80e-431a-88e1-cf1745965811}", "CREATED_ON": "2016-11-23 10:54:04", "LIST_GUID": "{c6967cd3-fc1e-4c61-a69f-4964ee47f989}", "NOM_REG_NO": null }, "geometry": { "type": "Point", "coordinates": [ 147.099525870561251, -41.427210289016415 ] } },
{ "type": "Feature", "properties": { "COMFAC_ID": 41367, "PID": 1280980, "COM_TYPE1": "Sports complex", "COM_TYPE2": "Golf", "NAME": "Riverside Golf Course", "UFI": "{e2741522-725e-4f38-ab36-156c8ca627a0}", "CREATED_ON": "2016-11-23 10:54:04", "LIST_GUID": "{b42dd450-9d06-43e1-a07a-df45e86d633b}", "NOM_REG_NO": null }, "geometry": { "type": "Point", "coordinates": [ 147.106044462018275, -41.415282776407224 ] } },
{ "type": "Feature", "properties": { "COMFAC_ID": 1303, "PID": 1281529, "COM_TYPE1": "Club", "COM_TYPE2": "Football", "NAME": "Launceston Football Club", "UFI": "{22fb48d9-267c-46e6-8259-814f948bed3c}", "CREATED_ON": "2016-11-23 10:54:04", "LIST_GUID": "{b7912dbd-5b33-4c27-82e7-aa5ccf579950}", "NOM_REG_NO": null }, "geometry": { "type": "Point", "coordinates": [ 147.090943320343001, -41.402974844020925 ] } },
{ "type": "Feature", "properties": { "COMFAC_ID": 60730, "PID": 2884188, "COM_TYPE1": "Accommodation", "COM_TYPE2": "Guest House\/ Bed and Breakfast", "NAME": "Trevallyn House B&B", "UFI": "{c11fc3ca-2409-4f68-8f3f-ac03d1975fb5}", "CREATED_ON": "2016-11-23 10:54:04", "LIST_GUID": "{daf4447a-3fa0-40b5-b334-17db85129465}", "NOM_REG_NO": null }, "geometry": { "type": "Point", "coordinates": [ 147.097738216804856, -41.412743633016447 ] } },
{ "type": "Feature", "properties": { "COMFAC_ID": 1326, "PID": 6036100, "COM_TYPE1": "Education and training", "COM_TYPE2": "Primary and infant", "NAME": "Riverside Primary School", "UFI": "{8f2410de-6127-479c-8cfc-52494ff53a50}", "CREATED_ON": "2016-11-23 10:54:04", "LIST_GUID": "{d4f09601-12f0-42a7-ab5e-11f576b65679}", "NOM_REG_NO": null }, "geometry": { "type": "Point", "coordinates": [ 147.100813045140654, -41.411582081415169 ] } },
{ "type": "Feature", "properties": { "COMFAC_ID": 1318, "PID": 2652563, "COM_TYPE1": "Council", "COM_TYPE2": "West Tamar", "NAME": "West Tamar Council Office Riverside", "UFI": "{119fe468-a584-43f4-8014-163747bce85f}", "CREATED_ON": "2016-11-23 10:54:04", "LIST_GUID": "{5b7422ba-a145-4e31-957d-2e67873c94a3}", "NOM_REG_NO": null }, "geometry": { "type": "Point", "coordinates": [ 147.103306104200527, -41.414832825620508 ] } },
{ "type": "Feature", "properties": { "COMFAC_ID": 1361, "PID": 7829620, "COM_TYPE1": "State Government", "COM_TYPE2": "Other", "NAME": "TasWater - Wastewater Treatment Plant", "UFI": "{b3e0fef7-223c-4119-a10b-cdc86b7270db}", "CREATED_ON": "2016-11-23 10:54:04", "LIST_GUID": "{e953a022-c2b1-4134-b5c0-4740fbbd8481}", "NOM_REG_NO": null }, "geometry": { "type": "Point", "coordinates": [ 147.114188941964613, -41.417627240034307 ] } },
{ "type": "Feature", "properties": { "COMFAC_ID": 53313, "PID": 1284578, "COM_TYPE1": "Club", "COM_TYPE2": "Cricket", "NAME": "Greens Beach Cricket Club", "UFI": "{19926be2-6574-463c-a3c2-fd111f0d799b}", "CREATED_ON": "2016-11-23 10:54:04", "LIST_GUID": "{2b8ac059-6486-4a21-8378-951da609a436}", "NOM_REG_NO": null }, "geometry": { "type": "Point", "coordinates": [ 146.737613691565258, -41.086814883663322 ] } },
{ "type": "Feature", "properties": { "COMFAC_ID": 46074, "PID": 2078717, "COM_TYPE1": "State police and emergency", "COM_TYPE2": "Fire station", "NAME": "Frankford\/Birralee Fire Station", "UFI": "{db341a93-e76b-42b0-a9bd-a7003e3f4d44}", "CREATED_ON": "2016-11-23 10:54:04", "LIST_GUID": "{f85f4301-ddc5-4420-b7ee-68f6537525c7}", "NOM_REG_NO": null }, "geometry": { "type": "Point", "coordinates": [ 146.773988503087139, -41.34167015358851 ] } },
{ "type": "Feature", "properties": { "COMFAC_ID": 31567, "PID": 1958755, "COM_TYPE1": "Hall\/ Community centre", "COM_TYPE2": "Community, town or city hall", "NAME": "Frankford Hall", "UFI": "{6e5c8276-73e5-4aa1-97e8-87750537373e}", "CREATED_ON": "2016-11-23 10:54:04", "LIST_GUID": "{b75e23ec-958b-40b8-ab7c-197d1e24e8ca}", "NOM_REG_NO": null }, "geometry": { "type": "Point", "coordinates": [ 146.774311172442196, -41.341786490591112 ] } },
{ "type": "Feature", "properties": { "COMFAC_ID": 1300, "PID": 6092639, "COM_TYPE1": "Club", "COM_TYPE2": "Golf", "NAME": "Greens Beach Golf Club", "UFI": "{49d81858-0fae-412c-8482-10b15ea90725}", "CREATED_ON": "2016-11-23 10:54:04", "LIST_GUID": "{4becba6a-c70e-4379-a41a-9bae3f27e31f}", "NOM_REG_NO": null }, "geometry": { "type": "Point", "coordinates": [ 146.744983010567296, -41.085937330765084 ] } },
{ "type": "Feature", "properties": { "COMFAC_ID": 1248, "PID": 1927692, "COM_TYPE1": "Tourist feature", "COM_TYPE2": "Historical", "NAME": "Beaconsfield  Mine & Heritage Centre", "UFI": "{bbfc26c4-8ef5-4769-922b-705545a6323b}", "CREATED_ON": "2016-11-23 10:54:04", "LIST_GUID": "{d55b61b5-32f5-43da-9c73-912ca9ebdcfe}", "NOM_REG_NO": null }, "geometry": { "type": "Point", "coordinates": [ 146.815693358665953, -41.201959812424164 ] } },
{ "type": "Feature", "properties": { "COMFAC_ID": 41225, "PID": 6082975, "COM_TYPE1": "Financial institution", "COM_TYPE2": "Other", "NAME": "Heritage Isle Credit Union Beaconsfield", "UFI": "{cc64a104-d12d-471d-9610-a4afa7d4efd1}", "CREATED_ON": "2016-11-23 10:54:04", "LIST_GUID": "{7d8eb51b-d6eb-414a-ad10-42aa5694dbec}", "NOM_REG_NO": null }, "geometry": { "type": "Point", "coordinates": [ 146.815993534363599, -41.200482075183032 ] } },
{ "type": "Feature", "properties": { "COMFAC_ID": 35285, "PID": 6082940, "COM_TYPE1": "Church", "COM_TYPE2": "Uniting Church", "NAME": "Beaconsfield Uniting Church", "UFI": "{73624803-5bee-4bf8-a48f-430ca506daa0}", "CREATED_ON": "2016-11-23 10:54:04", "LIST_GUID": "{ee645fe7-96b7-40e6-967c-a47feee25d3a}", "NOM_REG_NO": null }, "geometry": { "type": "Point", "coordinates": [ 146.816288197398109, -41.200979431366697 ] } },
{ "type": "Feature", "properties": { "COMFAC_ID": 1247, "PID": 1852571, "COM_TYPE1": "Ground", "COM_TYPE2": "Showground", "NAME": "Beaconsfield Showground", "UFI": "{d48d452f-fc68-4552-9eeb-77f31d7733d8}", "CREATED_ON": "2016-11-23 10:54:04", "LIST_GUID": "{65bd62c8-957e-4409-a2bf-4988d4c03807}", "NOM_REG_NO": null }, "geometry": { "type": "Point", "coordinates": [ 146.822127563989937, -41.198198863296987 ] } },
{ "type": "Feature", "properties": { "COMFAC_ID": 61339, "PID": 7504447, "COM_TYPE1": "Sports complex", "COM_TYPE2": "Netball", "NAME": "Tamar Jets Netball Courts", "UFI": "{c0fe568d-097d-46b7-9dfe-f10f025b2890}", "CREATED_ON": "2016-11-23 10:54:04", "LIST_GUID": "{9535e27a-5279-4f9a-aa62-93c0a8fc1dae}", "NOM_REG_NO": null }, "geometry": { "type": "Point", "coordinates": [ 146.805751683760576, -41.146686573547889 ] } },
{ "type": "Feature", "properties": { "COMFAC_ID": 63988, "PID": 6088349, "COM_TYPE1": "Accommodation", "COM_TYPE2": "Holiday Unit\/ Flat", "NAME": "Flinders Cottage", "UFI": "{1d506f7b-5d98-4eb4-9003-7bba805bdef0}", "CREATED_ON": "2017-05-30 12:11:40", "LIST_GUID": "{7821a2af-f507-4b15-8146-882bab0adc28}", "NOM_REG_NO": null }, "geometry": { "type": "Point", "coordinates": [ 146.817044917463193, -41.147744865883659 ] } },
{ "type": "Feature", "properties": { "COMFAC_ID": 1266, "PID": 7227523, "COM_TYPE1": "Education and training", "COM_TYPE2": "University", "NAME": "Australian Maritime College Beauty Point", "UFI": "{d748b9c5-89c7-4ac3-9be8-eb050c02cea4}", "CREATED_ON": "2016-11-23 10:54:04", "LIST_GUID": "{a087771c-60ac-4347-b40a-837aeb3d6661}", "NOM_REG_NO": null }, "geometry": { "type": "Point", "coordinates": [ 146.817491584712769, -41.156140124596689 ] } },
{ "type": "Feature", "properties": { "COMFAC_ID": 1263, "PID": 6086140, "COM_TYPE1": "Commonwealth government", "COM_TYPE2": "Post offices and agencies", "NAME": "Beauty Point Post Office", "UFI": "{65c2b406-ea5a-45e2-83b8-37d0ae57aadb}", "CREATED_ON": "2016-11-23 10:54:04", "LIST_GUID": "{dd9ef117-bce8-4c2b-b98c-904ded682bb1}", "NOM_REG_NO": null }, "geometry": { "type": "Point", "coordinates": [ 146.818211795393779, -41.148958064073895 ] } },
{ "type": "Feature", "properties": { "COMFAC_ID": 57350, "PID": 7143100, "COM_TYPE1": "Ground", "COM_TYPE2": "Picnic Area", "NAME": "Picnic Area", "UFI": "{eab36df8-187b-444c-99e0-e9eb84c4682f}", "CREATED_ON": "2016-11-23 10:54:04", "LIST_GUID": "{c33ee254-ea67-4165-856b-6ea18f5af852}", "NOM_REG_NO": null }, "geometry": { "type": "Point", "coordinates": [ 146.821871515938739, -41.149414559648797 ] } },
{ "type": "Feature", "properties": { "COMFAC_ID": 54217, "PID": 2889472, "COM_TYPE1": "Tourist feature", "COM_TYPE2": "Industrial", "NAME": "Moores Hill Estate", "UFI": "{f5404a68-ce3f-4096-8953-34a1765646cf}", "CREATED_ON": "2016-11-23 10:54:04", "LIST_GUID": "{db2f8b4b-3870-4429-9b04-5697e69c7e96}", "NOM_REG_NO": null }, "geometry": { "type": "Point", "coordinates": [ 146.877085632696577, -41.240902595942849 ] } },
{ "type": "Feature", "properties": { "COMFAC_ID": 1282, "PID": 1927537, "COM_TYPE1": "Hall\/ Community centre", "COM_TYPE2": "Community, town or city hall", "NAME": "Exeter Hall", "UFI": "{7a3fe161-ade8-470f-a617-aa035bc180da}", "CREATED_ON": "2016-11-23 10:54:04", "LIST_GUID": "{a83f3b71-48ae-456a-a980-2be29b57e023}", "NOM_REG_NO": null }, "geometry": { "type": "Point", "coordinates": [ 146.950497783363346, -41.298298790897064 ] } },
{ "type": "Feature", "properties": { "COMFAC_ID": 41426, "PID": 1503865, "COM_TYPE1": "Hall\/ Community centre", "COM_TYPE2": "Online Access Centre", "NAME": "Exeter Online Access Centre", "UFI": "{276f8319-cd48-4a43-9fd9-f24b5375b038}", "CREATED_ON": "2016-11-23 10:54:04", "LIST_GUID": "{c85f2ccd-13d9-4d4c-9c18-c09783cbaf4b}", "NOM_REG_NO": null }, "geometry": { "type": "Point", "coordinates": [ 146.95115697946872, -41.305203605613734 ] } },
{ "type": "Feature", "properties": { "COMFAC_ID": 63794, "PID": 7186290, "COM_TYPE1": "Tourist feature", "COM_TYPE2": "Industrial", "NAME": "Lentara Grove", "UFI": "{86fe367d-f4d6-4aa7-9478-0c93e90873c9}", "CREATED_ON": "2016-12-01 11:19:26", "LIST_GUID": "{d7feb867-557a-4882-ab7b-75c5d57bb8d9}", "NOM_REG_NO": null }, "geometry": { "type": "Point", "coordinates": [ 146.937371578822194, -41.274018252042971 ] } },
{ "type": "Feature", "properties": { "COMFAC_ID": 1378, "PID": 2820790, "COM_TYPE1": "Church", "COM_TYPE2": "Other Church", "NAME": "Tamar Valley Christian Church", "UFI": "{18cb5cf3-d398-4032-8188-794eae862e7f}", "CREATED_ON": "2016-11-23 10:54:04", "LIST_GUID": "{4fc9e200-b062-4dc1-87c2-c7e959678ab2}", "NOM_REG_NO": null }, "geometry": { "type": "Point", "coordinates": [ 146.94241053439444, -41.290970815297058 ] } },
{ "type": "Feature", "properties": { "COMFAC_ID": 54812, "PID": 6063731, "COM_TYPE1": "Club", "COM_TYPE2": "Football", "NAME": "Bridgenorth Football Club", "UFI": "{70c1ea97-f619-42c6-9f65-9fc5fb151267}", "CREATED_ON": "2016-11-23 10:54:04", "LIST_GUID": "{814646c3-5d8a-4778-bb01-2f23b41eb8dc}", "NOM_REG_NO": null }, "geometry": { "type": "Point", "coordinates": [ 146.982462185934423, -41.380818633593762 ] } },
{ "type": "Feature", "properties": { "COMFAC_ID": 60366, "PID": 7153544, "COM_TYPE1": "State police and emergency", "COM_TYPE2": "State Emergency Service unit", "NAME": "SES West Tamar", "UFI": "{99ee4eae-1c45-43f3-b5e0-8e1531c555df}", "CREATED_ON": "2016-11-23 10:54:04", "LIST_GUID": "{b6db6733-0204-4397-9dd6-b93ebdc694a0}", "NOM_REG_NO": null }, "geometry": { "type": "Point", "coordinates": [ 146.951896946560225, -41.300255195935172 ] } },
{ "type": "Feature", "properties": { "COMFAC_ID": 1270, "PID": 6058369, "COM_TYPE1": "Church", "COM_TYPE2": "Uniting Church", "NAME": "Exeter Uniting Church", "UFI": "{6e6e1d3c-6c18-4c76-95f9-242f1e2ca5b4}", "CREATED_ON": "2016-11-23 10:54:04", "LIST_GUID": "{20417d32-01e6-4f27-93ea-be8adad79d09}", "NOM_REG_NO": null }, "geometry": { "type": "Point", "coordinates": [ 146.953578648007607, -41.299903223255427 ] } },
{ "type": "Feature", "properties": { "COMFAC_ID": 1352, "PID": 6076014, "COM_TYPE1": "Transport", "COM_TYPE2": "Service Station", "NAME": "Ampol Exeter", "UFI": "{be32d8a7-6063-4c35-bc4d-6fe57e0feed4}", "CREATED_ON": "2016-11-23 10:54:04", "LIST_GUID": "{c829f21b-0cb8-4074-a5a4-7554e37c7d82}", "NOM_REG_NO": null }, "geometry": { "type": "Point", "coordinates": [ 146.956937498875391, -41.302750325226775 ] } },
{ "type": "Feature", "properties": { "COMFAC_ID": 30887, "PID": 1918585, "COM_TYPE1": "Tourist feature", "COM_TYPE2": "Industrial", "NAME": "Stoney Rise Vineyard", "UFI": "{a0bcaf9d-0a48-4ef9-8617-7c3867b6b1b1}", "CREATED_ON": "2016-11-23 10:54:04", "LIST_GUID": "{115654ba-2b8a-46fa-af1b-e4eea08de458}", "NOM_REG_NO": null }, "geometry": { "type": "Point", "coordinates": [ 146.966599293977254, -41.288062888224175 ] } },
{ "type": "Feature", "properties": { "COMFAC_ID": 55715, "PID": 7487907, "COM_TYPE1": "Club", "COM_TYPE2": "Equestrian", "NAME": "West Tamar Pony & Riding Club", "UFI": "{cbf74748-1e99-4106-b136-da6534f691a5}", "CREATED_ON": "2016-11-23 10:54:04", "LIST_GUID": "{ddc11cbf-7c21-4a90-a68a-39f38e44bde7}", "NOM_REG_NO": null }, "geometry": { "type": "Point", "coordinates": [ 146.971387898569191, -41.28299175572787 ] } },
{ "type": "Feature", "properties": { "COMFAC_ID": 55534, "PID": 0, "COM_TYPE1": "Ground", "COM_TYPE2": "Park or reserve", "NAME": "Rose Bay Park", "UFI": "{49edc0cd-697c-443c-8ea7-fd9e9bc1da94}", "CREATED_ON": "2016-11-23 10:54:04", "LIST_GUID": "{98863932-6785-4d81-a871-7887530e04a5}", "NOM_REG_NO": "39613F" }, "geometry": { "type": "Point", "coordinates": [ 146.971686444279641, -41.293835808254933 ] } },
{ "type": "Feature", "properties": { "COMFAC_ID": 1289, "PID": 6060055, "COM_TYPE1": "Commonwealth government", "COM_TYPE2": "Post offices and agencies", "NAME": "Gravelly Beach Post Office", "UFI": "{19d4f1cc-6451-4c21-8622-2d9475cf1a4b}", "CREATED_ON": "2016-11-23 10:54:04", "LIST_GUID": "{e218b030-fb29-4af5-b872-dea3996db33d}", "NOM_REG_NO": null }, "geometry": { "type": "Point", "coordinates": [ 146.974417503673379, -41.292117357914186 ] } },
{ "type": "Feature", "properties": { "COMFAC_ID": 29926, "PID": 1282986, "COM_TYPE1": "Club", "COM_TYPE2": "Tennis", "NAME": "Legana Tennis Club", "UFI": "{16d5d7c8-ed5c-4c51-b6b0-2e18eb7e43be}", "CREATED_ON": "2016-11-23 10:54:04", "LIST_GUID": "{6b68b9e2-8ba6-44db-ba49-528049cd1ea6}", "NOM_REG_NO": null }, "geometry": { "type": "Point", "coordinates": [ 147.045382771181892, -41.36593737755134 ] } },
{ "type": "Feature", "properties": { "COMFAC_ID": 63941, "PID": 0, "COM_TYPE1": "Tourist feature", "COM_TYPE2": "Amusement or entertainment", "NAME": null, "UFI": "{45a7c2e4-7aae-4068-b873-e0cf57e99a3b}", "CREATED_ON": "2017-05-23 17:10:14", "LIST_GUID": "{d695899c-f243-4db3-b981-9a6fe5eeb1c3}", "NOM_REG_NO": null }, "geometry": { "type": "Point", "coordinates": [ 147.004658842107915, -41.321950799041765 ] } },
{ "type": "Feature", "properties": { "COMFAC_ID": 57590, "PID": 1846200, "COM_TYPE1": "Ground", "COM_TYPE2": "Picnic Area", "NAME": "Picnic Area", "UFI": "{1ecc6986-ddb0-46c7-9919-3272a459fbc4}", "CREATED_ON": "2016-11-23 10:54:04", "LIST_GUID": "{28621937-06d0-4fda-aa8c-4524ad85528c}", "NOM_REG_NO": null }, "geometry": { "type": "Point", "coordinates": [ 147.102375383640521, -41.458761127496032 ] } },
{ "type": "Feature", "properties": { "COMFAC_ID": 56495, "PID": 1281705, "COM_TYPE1": "State Government", "COM_TYPE2": "Other", "NAME": "TasWater - Reatta Rd Plant", "UFI": "{b6014196-8042-4a68-81ae-215b709acb07}", "CREATED_ON": "2016-11-23 10:54:04", "LIST_GUID": "{a294665c-aa34-4e21-8fdd-a6d86f0f4cb6}", "NOM_REG_NO": null }, "geometry": { "type": "Point", "coordinates": [ 147.096283102835145, -41.435187000642948 ] } },
{ "type": "Feature", "properties": { "COMFAC_ID": 1339, "PID": 2526954, "COM_TYPE1": "Ground", "COM_TYPE2": "Park or reserve", "NAME": "Riversdide Lions Club Park", "UFI": "{d6e350b9-27e8-4490-9cb9-ca0b05d6ee64}", "CREATED_ON": "2016-11-23 10:54:04", "LIST_GUID": "{38d579e1-8e2f-41d6-9258-1c430eb29799}", "NOM_REG_NO": null }, "geometry": { "type": "Point", "coordinates": [ 147.103780610280324, -41.429057476375782 ] } },
{ "type": "Feature", "properties": { "COMFAC_ID": 1314, "PID": 1281537, "COM_TYPE1": "Club", "COM_TYPE2": "Soccer", "NAME": "Riverside Olympic Soccer Club", "UFI": "{c57503d8-32b2-4465-8fcd-cd39bd750d12}", "CREATED_ON": "2016-11-23 10:54:04", "LIST_GUID": "{5dfc07e9-987a-45da-9414-fa9437f23586}", "NOM_REG_NO": null }, "geometry": { "type": "Point", "coordinates": [ 147.094353472583009, -41.400867452862244 ] } },
{ "type": "Feature", "properties": { "COMFAC_ID": 1328, "PID": 1278688, "COM_TYPE1": "Sports complex", "COM_TYPE2": "Swimming pools", "NAME": "Riverside Swimming Pool", "UFI": "{b3b0177c-8ff8-4eb0-be85-55cdc4de03ab}", "CREATED_ON": "2016-11-23 10:54:04", "LIST_GUID": "{228f92b5-7f88-47c1-a09c-cd37c84f5710}", "NOM_REG_NO": null }, "geometry": { "type": "Point", "coordinates": [ 147.103416332251157, -41.414138637992572 ] } },
{ "type": "Feature", "properties": { "COMFAC_ID": 1338, "PID": 6034324, "COM_TYPE1": "Ground", "COM_TYPE2": "Park or reserve", "NAME": "Freelands Lookout Reserve", "UFI": "{aa6c8d67-7200-4384-9482-b8cc802bf4e0}", "CREATED_ON": "2016-11-23 10:54:04", "LIST_GUID": "{869755e3-b625-4fe4-a23f-95f524090ba4}", "NOM_REG_NO": "19591R" }, "geometry": { "type": "Point", "coordinates": [ 147.112453928275897, -41.432377970873148 ] } },
{ "type": "Feature", "properties": { "COMFAC_ID": 1384, "PID": 6100790, "COM_TYPE1": "Hall\/ Community centre", "COM_TYPE2": "Other", "NAME": "Holwell Hall", "UFI": "{caad4ce5-4a07-4b64-b080-1d8dd3755f99}", "CREATED_ON": "2016-11-23 10:54:04", "LIST_GUID": "{e4874893-1d6d-4ea7-8ab3-49d3804f8903}", "NOM_REG_NO": null }, "geometry": { "type": "Point", "coordinates": [ 146.781685059491139, -41.279994338940725 ] } },
{ "type": "Feature", "properties": { "COMFAC_ID": 41205, "PID": 7619666, "COM_TYPE1": "Hall\/ Community centre", "COM_TYPE2": "Online Access Centre", "NAME": "Beaconsfield Online Access Centre", "UFI": "{21438aea-ad39-4a89-804d-013b7c1072e8}", "CREATED_ON": "2016-11-23 10:54:04", "LIST_GUID": "{d5594e7b-8d72-42ef-ba76-ee9fc55f1cfd}", "NOM_REG_NO": null }, "geometry": { "type": "Point", "coordinates": [ 146.819119042000949, -41.201707707443212 ] } },
{ "type": "Feature", "properties": { "COMFAC_ID": 57426, "PID": 7504455, "COM_TYPE1": "Ground", "COM_TYPE2": "Picnic Area", "NAME": "Picnic Area", "UFI": "{eaf919f9-8ae4-45ae-8a91-a8793fe9f439}", "CREATED_ON": "2016-11-23 10:54:04", "LIST_GUID": "{9ed1a381-0a06-4d88-a5c6-57255cfdf984}", "NOM_REG_NO": null }, "geometry": { "type": "Point", "coordinates": [ 146.806478645393241, -41.141960728961635 ] } },
{ "type": "Feature", "properties": { "COMFAC_ID": 1251, "PID": 6089229, "COM_TYPE1": "Accommodation", "COM_TYPE2": "Hotel", "NAME": "Riviera Hotel", "UFI": "{b5dca4a8-f9e1-41f1-ae3b-d930f3e261d5}", "CREATED_ON": "2016-11-23 10:54:04", "LIST_GUID": "{07fe7b27-335a-4db4-a0a2-5e204a806ac1}", "NOM_REG_NO": null }, "geometry": { "type": "Point", "coordinates": [ 146.814438993811592, -41.14530243842119 ] } },
{ "type": "Feature", "properties": { "COMFAC_ID": 54384, "PID": 7227523, "COM_TYPE1": "Accommodation", "COM_TYPE2": "Hostel", "NAME": "Endeavour Hall", "UFI": "{c2518643-3145-4797-a6b5-abdef5d7b474}", "CREATED_ON": "2016-11-23 10:54:04", "LIST_GUID": "{49684262-9aac-4fa7-a5fc-bf99f4907d59}", "NOM_REG_NO": null }, "geometry": { "type": "Point", "coordinates": [ 146.817268792680295, -41.157302648474619 ] } },
{ "type": "Feature", "properties": { "COMFAC_ID": 57551, "PID": 6104249, "COM_TYPE1": "Ground", "COM_TYPE2": "Picnic Area", "NAME": "Picnic Area", "UFI": "{01d53609-f37a-4d4c-9a9d-704cd820d6bf}", "CREATED_ON": "2016-11-23 10:54:04", "LIST_GUID": "{62296157-9b5c-4c63-8b18-7a40b4f247c3}", "NOM_REG_NO": null }, "geometry": { "type": "Point", "coordinates": [ 146.810216530676939, -41.12768311799244 ] } },
{ "type": "Feature", "properties": { "COMFAC_ID": 1298, "PID": 6104249, "COM_TYPE1": "Hall\/ Community centre", "COM_TYPE2": "Community, town or city hall", "NAME": "Clarence Point Hall", "UFI": "{2dbf967b-551a-46d6-859f-40f9380de7a7}", "CREATED_ON": "2016-11-23 10:54:04", "LIST_GUID": "{732f08f3-2e8f-4ceb-b844-07558ed24a43}", "NOM_REG_NO": null }, "geometry": { "type": "Point", "coordinates": [ 146.81024409858324, -41.127389411468066 ] } },
{ "type": "Feature", "properties": { "COMFAC_ID": 30865, "PID": 7837292, "COM_TYPE1": "Tourist feature", "COM_TYPE2": "Amusement or entertainment", "NAME": "Glengarry Bush Maze & Tearooms", "UFI": "{ef79a27b-0768-4af3-b455-ece8af53651b}", "CREATED_ON": "2016-11-23 10:54:04", "LIST_GUID": "{2cb3e9fc-3013-4317-8669-6128e2d4242c}", "NOM_REG_NO": null }, "geometry": { "type": "Point", "coordinates": [ 146.870818582055307, -41.34584487242801 ] } },
{ "type": "Feature", "properties": { "COMFAC_ID": 30866, "PID": 7708546, "COM_TYPE1": "Tourist feature", "COM_TYPE2": "Industrial", "NAME": "Grey Sands Vineyard", "UFI": "{64567940-461f-4d34-ba9d-547963add27b}", "CREATED_ON": "2016-11-23 10:54:04", "LIST_GUID": "{7f5e2823-68b3-45d4-ac74-f28c2df68813}", "NOM_REG_NO": null }, "geometry": { "type": "Point", "coordinates": [ 146.880705829576101, -41.332239165751709 ] } },
{ "type": "Feature", "properties": { "COMFAC_ID": 1295, "PID": 6058668, "COM_TYPE1": "Ground", "COM_TYPE2": "Sportsground", "NAME": "Exeter Community Recreation Park", "UFI": "{53e7bb34-1747-4e7c-9802-7f223c60b2db}", "CREATED_ON": "2016-11-23 10:54:04", "LIST_GUID": "{211b583f-4e75-4953-a9c2-311a1659ba40}", "NOM_REG_NO": null }, "geometry": { "type": "Point", "coordinates": [ 146.948471775966624, -41.298387087787859 ] } },
{ "type": "Feature", "properties": { "COMFAC_ID": 34506, "PID": 2761807, "COM_TYPE1": "Hall\/ Community centre", "COM_TYPE2": "Church hall", "NAME": "All Saints Church Hall Exeter", "UFI": "{9d5e8021-6a02-4482-b5e5-e90a2b612491}", "CREATED_ON": "2016-11-23 10:54:04", "LIST_GUID": "{afdbed64-c572-4acd-871d-1b2a368fbae6}", "NOM_REG_NO": null }, "geometry": { "type": "Point", "coordinates": [ 146.94868499481268, -41.296894856491186 ] } },
{ "type": "Feature", "properties": { "COMFAC_ID": 30825, "PID": 7607841, "COM_TYPE1": "Tourist feature", "COM_TYPE2": "Industrial", "NAME": "Iron Pot Bay Wines", "UFI": "{ca0c0dd6-0705-4ea8-afec-53e13d4cbf2c}", "CREATED_ON": "2016-11-23 10:54:04", "LIST_GUID": "{148ebe61-b845-43c6-8209-42f77eb1b9f2}", "NOM_REG_NO": null }, "geometry": { "type": "Point", "coordinates": [ 146.915183556569247, -41.177707030948902 ] } },
{ "type": "Feature", "properties": { "COMFAC_ID": 30947, "PID": 7799441, "COM_TYPE1": "Sports complex", "COM_TYPE2": "Golf", "NAME": "Tamar Valley Resort Grindlewald", "UFI": "{9e30011f-715c-4da4-9512-dc32d8adc341}", "CREATED_ON": "2016-11-23 10:54:04", "LIST_GUID": "{024501f6-ab07-4b30-a237-513bf08b3924}", "NOM_REG_NO": null }, "geometry": { "type": "Point", "coordinates": [ 147.004097803725983, -41.350393318415883 ] } },
{ "type": "Feature", "properties": { "COMFAC_ID": 1276, "PID": 7153544, "COM_TYPE1": "Council", "COM_TYPE2": "West Tamar", "NAME": "West Tamar Council Exeter Depot", "UFI": "{2b2737e5-ed73-4911-a12b-fbc5a3a803e1}", "CREATED_ON": "2016-11-23 10:54:04", "LIST_GUID": "{01e1a63a-1a86-4a8d-ad3b-68442c2a325f}", "NOM_REG_NO": null }, "geometry": { "type": "Point", "coordinates": [ 146.951770745911205, -41.30079603252755 ] } },
{ "type": "Feature", "properties": { "COMFAC_ID": 31045, "PID": 2186785, "COM_TYPE1": "Tourist feature", "COM_TYPE2": "Industrial", "NAME": "St Matthias Vineyard", "UFI": "{bdfe91d9-2598-429c-a00a-efb40b1ac8ff}", "CREATED_ON": "2016-11-23 10:54:04", "LIST_GUID": "{1d864f0b-5528-4d82-a8f1-807d92a7bb97}", "NOM_REG_NO": null }, "geometry": { "type": "Point", "coordinates": [ 147.015055090794561, -41.339034446915427 ] } },
{ "type": "Feature", "properties": { "COMFAC_ID": 1345, "PID": 1574815, "COM_TYPE1": "Commonwealth government", "COM_TYPE2": "Post offices and agencies", "NAME": "Legana Post Office", "UFI": "{51377e77-3bfd-443f-8240-6a6bc06d405d}", "CREATED_ON": "2016-11-23 10:54:04", "LIST_GUID": "{7dca2034-83ee-4a1b-adb8-b624ce53a64a}", "NOM_REG_NO": null }, "geometry": { "type": "Point", "coordinates": [ 147.042493169296506, -41.364138118584449 ] } },
{ "type": "Feature", "properties": { "COMFAC_ID": 41585, "PID": 7227371, "COM_TYPE1": "Community care", "COM_TYPE2": "Creche", "NAME": "Legana Play Centre", "UFI": "{4aecc218-8274-474a-b3ec-d848a3877acc}", "CREATED_ON": "2016-11-23 10:54:04", "LIST_GUID": "{2475108a-a52a-48ea-8071-770a8ac9ee38}", "NOM_REG_NO": null }, "geometry": { "type": "Point", "coordinates": [ 147.042745221111517, -41.365615282503832 ] } },
{ "type": "Feature", "properties": { "COMFAC_ID": 57969, "PID": 6073665, "COM_TYPE1": "Accommodation", "COM_TYPE2": "Guest House\/ Bed and Breakfast", "NAME": "Pastimes River Apartments", "UFI": "{dd683bc2-028c-4e98-a736-f12d3b855973}", "CREATED_ON": "2016-11-23 10:54:04", "LIST_GUID": "{46becd3f-8bd9-4621-9fe1-4990cb34e8b2}", "NOM_REG_NO": null }, "geometry": { "type": "Point", "coordinates": [ 147.011664206523108, -41.332719785788392 ] } },
{ "type": "Feature", "properties": { "COMFAC_ID": 1313, "PID": 1280980, "COM_TYPE1": "Club", "COM_TYPE2": "Golf", "NAME": "Riverside Golf Club", "UFI": "{7692c35d-c2f2-40f4-bea8-7b582c70328c}", "CREATED_ON": "2016-11-23 10:54:04", "LIST_GUID": "{884adac2-ee56-43ae-a795-d599c7c80e90}", "NOM_REG_NO": null }, "geometry": { "type": "Point", "coordinates": [ 147.104525646849794, -41.415815613729826 ] } },
{ "type": "Feature", "properties": { "COMFAC_ID": 55814, "PID": 2029720, "COM_TYPE1": "Education and training", "COM_TYPE2": "Private", "NAME": "St Anthonys Catholic School", "UFI": "{2f02657a-462f-4294-afdb-bfb450b4e61c}", "CREATED_ON": "2016-11-23 10:54:04", "LIST_GUID": "{af14e4f4-5737-4b0d-9d00-13141e7e1f21}", "NOM_REG_NO": null }, "geometry": { "type": "Point", "coordinates": [ 147.094716201896887, -41.40644948236384 ] } },
{ "type": "Feature", "properties": { "COMFAC_ID": 34606, "PID": 2033711, "COM_TYPE1": "Medical service", "COM_TYPE2": "Family & child health centre", "NAME": "Riverside Child Health Centre", "UFI": "{0fd1e10d-1143-42e5-9fed-81d84984a310}", "CREATED_ON": "2016-11-23 10:54:04", "LIST_GUID": "{7c73ba22-3956-4ab2-9ecb-5f1732616178}", "NOM_REG_NO": null }, "geometry": { "type": "Point", "coordinates": [ 147.103582741996973, -41.414548009235929 ] } },
{ "type": "Feature", "properties": { "COMFAC_ID": 1315, "PID": 1278645, "COM_TYPE1": "Club", "COM_TYPE2": "Tennis", "NAME": "Riverside Tennis Club", "UFI": "{bd5868e2-fd77-4091-b490-38c0336b4ccf}", "CREATED_ON": "2016-11-23 10:54:04", "LIST_GUID": "{365a5b96-0da7-45e3-a6a1-ad1bcdd7cae4}", "NOM_REG_NO": null }, "geometry": { "type": "Point", "coordinates": [ 147.103835260881141, -41.414642766626692 ] } },
{ "type": "Feature", "properties": { "COMFAC_ID": 61643, "PID": 2733574, "COM_TYPE1": "Hall\/ Community centre", "COM_TYPE2": "Other", "NAME": "Tailrace Centre", "UFI": "{e4a161e7-80e3-43b4-bb44-f89da3f4c544}", "CREATED_ON": "2016-11-23 10:54:04", "LIST_GUID": "{2c51825b-8c6f-4098-8246-4cd3a1d788e4}", "NOM_REG_NO": null }, "geometry": { "type": "Point", "coordinates": [ 147.11165837496236, -41.420515526882049 ] } },
{ "type": "Feature", "properties": { "COMFAC_ID": 62325, "PID": 0, "COM_TYPE1": "Accommodation", "COM_TYPE2": "Holiday Unit\/ Flat", "NAME": "Forest Road Apartments", "UFI": "{4223b6c2-68c8-45c5-b34d-b8c09342cb21}", "CREATED_ON": "2016-11-23 10:54:04", "LIST_GUID": "{ff498f9d-0107-4604-b72b-8b7ec5b7733b}", "NOM_REG_NO": null }, "geometry": { "type": "Point", "coordinates": [ 147.113974689520575, -41.426280110657238 ] } },
{ "type": "Feature", "properties": { "COMFAC_ID": 56234, "PID": 2135494, "COM_TYPE1": "Club", "COM_TYPE2": "Scout", "NAME": "Trevallyn Sea Scout Hall", "UFI": "{21a7ef05-00b3-44d8-8abb-f625b066f2d3}", "CREATED_ON": "2016-11-23 10:54:04", "LIST_GUID": "{e130b718-bb59-4725-ae25-de65aaffeb09}", "NOM_REG_NO": null }, "geometry": { "type": "Point", "coordinates": [ 147.114527301155277, -41.42094556599168 ] } },
{ "type": "Feature", "properties": { "COMFAC_ID": 57429, "PID": 1957904, "COM_TYPE1": "Ground", "COM_TYPE2": "Picnic Area", "NAME": "Picnic Area", "UFI": "{7b4d8557-8b9e-4e3b-8e86-b1fe83ed5158}", "CREATED_ON": "2016-11-23 10:54:04", "LIST_GUID": "{f693ec8b-664d-4c38-9ce0-d92921d4dc32}", "NOM_REG_NO": null }, "geometry": { "type": "Point", "coordinates": [ 146.744466735858225, -41.085356795512659 ] } },
{ "type": "Feature", "properties": { "COMFAC_ID": 1299, "PID": 2789009, "COM_TYPE1": "Accommodation", "COM_TYPE2": "Caravan Park", "NAME": "Greens Beach Caravan Park", "UFI": "{4a440acf-e34d-494e-8242-2a8aac222403}", "CREATED_ON": "2016-11-23 10:54:04", "LIST_GUID": "{538f9dc7-5e18-48ea-bba8-4c9d065f7513}", "NOM_REG_NO": null }, "geometry": { "type": "Point", "coordinates": [ 146.746333721453084, -41.085676230952451 ] } },
{ "type": "Feature", "properties": { "COMFAC_ID": 57430, "PID": 2088712, "COM_TYPE1": "Ground", "COM_TYPE2": "Picnic Area", "NAME": "Picnic Area", "UFI": "{c8508c8c-8929-42d5-a301-94018e1deb29}", "CREATED_ON": "2016-11-23 10:54:04", "LIST_GUID": "{7e68044e-910f-4560-b201-55ffb0593357}", "NOM_REG_NO": null }, "geometry": { "type": "Point", "coordinates": [ 146.750329754402571, -41.085014468257263 ] } },
{ "type": "Feature", "properties": { "COMFAC_ID": 41185, "PID": 1927617, "COM_TYPE1": "Medical service", "COM_TYPE2": "Family & child health centre", "NAME": "Beaconsfield District Health Service", "UFI": "{596df8ca-0d42-4926-b3f2-e9fb79adf54c}", "CREATED_ON": "2016-11-23 10:54:04", "LIST_GUID": "{3b269860-8647-4c9b-9079-ac50927d0089}", "NOM_REG_NO": null }, "geometry": { "type": "Point", "coordinates": [ 146.806203695715936, -41.193297701259397 ] } },
{ "type": "Feature", "properties": { "COMFAC_ID": 41186, "PID": 1927609, "COM_TYPE1": "Medical service", "COM_TYPE2": "Hospital", "NAME": "Beaconsfield District Health Service", "UFI": "{d8c73180-6300-4f72-93ac-ad86ecafea0c}", "CREATED_ON": "2016-11-23 10:54:04", "LIST_GUID": "{d4770d33-0e93-4372-bcb3-f71901b6e744}", "NOM_REG_NO": null }, "geometry": { "type": "Point", "coordinates": [ 146.806645623729906, -41.19369465778226 ] } },
{ "type": "Feature", "properties": { "COMFAC_ID": 1363, "PID": 6083214, "COM_TYPE1": "Transport", "COM_TYPE2": "Service Station", "NAME": "Ampol Beaconsfield", "UFI": "{ca46429e-24c8-4bc0-bb53-2ec85bbf1b0b}", "CREATED_ON": "2016-11-23 10:54:04", "LIST_GUID": "{f2b53c6f-51b2-4ea7-af07-e1e1d3be966b}", "NOM_REG_NO": null }, "geometry": { "type": "Point", "coordinates": [ 146.811943101552487, -41.195717719252876 ] } },
{ "type": "Feature", "properties": { "COMFAC_ID": 1225, "PID": 6081411, "COM_TYPE1": "Church", "COM_TYPE2": "Jehovahs Witnesses", "NAME": "Beaconsfield Kingdom Hall", "UFI": "{e15d4352-ea0d-4f13-a428-c87ee2e09faa}", "CREATED_ON": "2016-11-23 10:54:04", "LIST_GUID": "{dc481c6e-376d-46ac-984b-3d4a1cb3ae8c}", "NOM_REG_NO": null }, "geometry": { "type": "Point", "coordinates": [ 146.812056667631396, -41.19353798622452 ] } },
{ "type": "Feature", "properties": { "COMFAC_ID": 1224, "PID": 6084073, "COM_TYPE1": "Church", "COM_TYPE2": "Catholic Church", "NAME": "St Francis Xavier Catholic Church", "UFI": "{5aa78811-26b1-4a77-b542-c5bc214dbffd}", "CREATED_ON": "2016-11-23 10:54:04", "LIST_GUID": "{330bfdc4-b20b-446a-afea-8455356e9a7c}", "NOM_REG_NO": null }, "geometry": { "type": "Point", "coordinates": [ 146.812684756650526, -41.195749086426531 ] } },
{ "type": "Feature", "properties": { "COMFAC_ID": 30767, "PID": 7380413, "COM_TYPE1": "Ground", "COM_TYPE2": "Park or reserve", "NAME": "Lions Lookout", "UFI": "{42ba2696-fb3a-4c11-b593-8bfbe585713a}", "CREATED_ON": "2016-11-23 10:54:04", "LIST_GUID": "{721e612c-8a49-48c3-82d1-3447fb92b0de}", "NOM_REG_NO": null }, "geometry": { "type": "Point", "coordinates": [ 146.814676306199971, -41.205765158539769 ] } },
{ "type": "Feature", "properties": { "COMFAC_ID": 30765, "PID": 2808214, "COM_TYPE1": "Cultural", "COM_TYPE2": "Museum", "NAME": "Beaconsfield Mine & Heritage Centre", "UFI": "{c7321c8d-c2be-4a0f-96ab-742091951aa3}", "CREATED_ON": "2016-11-23 10:54:04", "LIST_GUID": "{fbe53987-4f6a-4f0e-8ae7-7cf24e1504fa}", "NOM_REG_NO": null }, "geometry": { "type": "Point", "coordinates": [ 146.815940482335094, -41.201811144646669 ] } },
{ "type": "Feature", "properties": { "COMFAC_ID": 35268, "PID": 6082940, "COM_TYPE1": "Hall\/ Community centre", "COM_TYPE2": "Church hall", "NAME": "Beaconsfield Uniting Church Hall", "UFI": "{1a76cdca-e9db-4d1d-9755-38cb3963f09d}", "CREATED_ON": "2016-11-23 10:54:04", "LIST_GUID": "{05301ebb-2032-4f77-9395-b6ce7fdedc02}", "NOM_REG_NO": null }, "geometry": { "type": "Point", "coordinates": [ 146.816337121139867, -41.2011285724179 ] } },
{ "type": "Feature", "properties": { "COMFAC_ID": 57347, "PID": 6084882, "COM_TYPE1": "Ground", "COM_TYPE2": "Picnic Area", "NAME": "Picnic Area", "UFI": "{e0733223-d34b-4b83-a041-6fc1d20fba66}", "CREATED_ON": "2016-11-23 10:54:04", "LIST_GUID": "{11b85e14-79fd-4b73-be5d-f3c4c41fad5f}", "NOM_REG_NO": null }, "geometry": { "type": "Point", "coordinates": [ 146.831431328928602, -41.2090435767863 ] } },
{ "type": "Feature", "properties": { "COMFAC_ID": 57076, "PID": 6086132, "COM_TYPE1": "Community care", "COM_TYPE2": "Charity or welfare", "NAME": "St Vincent de Paul Beauty Point", "UFI": "{903dfb59-8a9c-4dc3-8cf7-fb3a1ded97f5}", "CREATED_ON": "2016-11-23 10:54:04", "LIST_GUID": "{1e7cae02-c163-46a5-9c06-628f2e413368}", "NOM_REG_NO": null }, "geometry": { "type": "Point", "coordinates": [ 146.818189226775701, -41.149073583070354 ] } },
{ "type": "Feature", "properties": { "COMFAC_ID": 20284, "PID": 7752096, "COM_TYPE1": "Accommodation", "COM_TYPE2": "Guest House\/ Bed and Breakfast", "NAME": "Pomona Spa Cottages", "UFI": "{edd11303-e458-474b-9c0d-70418d7ae138}", "CREATED_ON": "2016-11-23 10:54:04", "LIST_GUID": "{19065cea-93ff-4667-9d06-8415249ec165}", "NOM_REG_NO": null }, "geometry": { "type": "Point", "coordinates": [ 146.821350547159227, -41.162141653784396 ] } },
{ "type": "Feature", "properties": { "COMFAC_ID": 62390, "PID": 6109795, "COM_TYPE1": "Tourist feature", "COM_TYPE2": "Cultural", "NAME": "Tamar Valley Art Shack", "UFI": "{e6c6147e-aa98-47e1-90f4-8134e2c45a6c}", "CREATED_ON": "2016-11-23 10:54:04", "LIST_GUID": "{20e9a738-bf8d-4f9a-9aac-f6589a2dbe1b}", "NOM_REG_NO": null }, "geometry": { "type": "Point", "coordinates": [ 146.803041468605642, -41.115845841131453 ] } },
{ "type": "Feature", "properties": { "COMFAC_ID": 51129, "PID": 6065753, "COM_TYPE1": "Commonwealth government", "COM_TYPE2": "Post offices and agencies", "NAME": "Glengarry Post Office", "UFI": "{8900e5a3-d667-4ce0-8c85-f8164425e5bd}", "CREATED_ON": "2016-11-23 10:54:04", "LIST_GUID": "{8ca396ab-79dd-4548-8c5d-9e2c1b17f5d7}", "NOM_REG_NO": null }, "geometry": { "type": "Point", "coordinates": [ 146.872079170402571, -41.337994169508676 ] } },
{ "type": "Feature", "properties": { "COMFAC_ID": 41146, "PID": 6066422, "COM_TYPE1": "Church", "COM_TYPE2": "Catholic Church", "NAME": "St Canice Catholic Church", "UFI": "{0132a54c-cbb0-4578-8de1-2ace4a05c34c}", "CREATED_ON": "2016-11-23 10:54:04", "LIST_GUID": "{920f0136-697f-431a-8a46-da403c824c76}", "NOM_REG_NO": null }, "geometry": { "type": "Point", "coordinates": [ 146.870195512241764, -41.335132059214338 ] } },
{ "type": "Feature", "properties": { "COMFAC_ID": 63371, "PID": 2761823, "COM_TYPE1": "Tourist feature", "COM_TYPE2": "Industrial", "NAME": "Wines for Joanie", "UFI": "{6ac5725f-27e9-4a10-9f6b-ad6e681f8cf6}", "CREATED_ON": "2016-11-23 10:54:04", "LIST_GUID": "{215b8a27-0e56-45d2-87f9-df9a21d84924}", "NOM_REG_NO": null }, "geometry": { "type": "Point", "coordinates": [ 146.882524345729991, -41.253944647600292 ] } },
{ "type": "Feature", "properties": { "COMFAC_ID": 1371, "PID": 6103406, "COM_TYPE1": "Hall\/ Community centre", "COM_TYPE2": "Community, town or city hall", "NAME": "Sidmouth War Memorial Hall", "UFI": "{cb983483-cfbf-4385-82b9-0757c7c040e3}", "CREATED_ON": "2016-11-23 10:54:04", "LIST_GUID": "{9c0a902a-4569-48e6-a8c9-8663cf99eb2c}", "NOM_REG_NO": null }, "geometry": { "type": "Point", "coordinates": [ 146.88760509719171, -41.222034021320113 ] } },
{ "type": "Feature", "properties": { "COMFAC_ID": 31386, "PID": 1727244, "COM_TYPE1": "Ground", "COM_TYPE2": "Sportsground", "NAME": "Sidmouth Recreation Ground", "UFI": "{971b5bc6-0e7a-4ef6-a371-e7d392b36e1e}", "CREATED_ON": "2016-11-23 10:54:04", "LIST_GUID": "{88a4cb2e-33f3-4807-a239-946a5dedf796}", "NOM_REG_NO": null }, "geometry": { "type": "Point", "coordinates": [ 146.887655278418691, -41.221133830846405 ] } },
{ "type": "Feature", "properties": { "COMFAC_ID": 62017, "PID": 6058668, "COM_TYPE1": "State police and emergency", "COM_TYPE2": "Community Fire Refuge", "NAME": "Exeter Showground", "UFI": "{fd95e7e9-dd8f-40ff-8b4d-e62af0cec24e}", "CREATED_ON": "2016-11-23 10:54:04", "LIST_GUID": "{3a7d917a-d20d-46d8-b3dc-afb80e3a2601}", "NOM_REG_NO": "19650F" }, "geometry": { "type": "Point", "coordinates": [ 146.947631678792277, -41.298594184654689 ] } },
{ "type": "Feature", "properties": { "COMFAC_ID": 56214, "PID": 6058668, "COM_TYPE1": "Club", "COM_TYPE2": "Cricket", "NAME": "Exeter Cricket Club", "UFI": "{df909836-c756-480e-8b75-21f62617cfc4}", "CREATED_ON": "2016-11-23 10:54:04", "LIST_GUID": "{65b24c5b-3690-4ca0-8bdb-28136b9478f3}", "NOM_REG_NO": null }, "geometry": { "type": "Point", "coordinates": [ 146.948420795683376, -41.298328352308616 ] } },
{ "type": "Feature", "properties": { "COMFAC_ID": 62272, "PID": 7174281, "COM_TYPE1": "Accommodation", "COM_TYPE2": "Holiday Unit\/ Flat", "NAME": "Tranquility Waters", "UFI": "{dbeecd69-e195-4c2e-9418-5544dff6b7df}", "CREATED_ON": "2016-11-23 10:54:04", "LIST_GUID": "{b8e7066a-8ec3-4884-bcf4-f5bc8e2cc1d9}", "NOM_REG_NO": null }, "geometry": { "type": "Point", "coordinates": [ 146.912331393645132, -41.19997467062835 ] } },
{ "type": "Feature", "properties": { "COMFAC_ID": 1290, "PID": 7898044, "COM_TYPE1": "Education and training", "COM_TYPE2": "High School", "NAME": "Exeter High School", "UFI": "{31995d44-6f24-438f-9670-6295595c9e24}", "CREATED_ON": "2016-11-23 10:54:04", "LIST_GUID": "{e90a24d1-55c4-4ce3-9564-2bb539ae88e7}", "NOM_REG_NO": null }, "geometry": { "type": "Point", "coordinates": [ 146.957716757964647, -41.300492538416968 ] } },
{ "type": "Feature", "properties": { "COMFAC_ID": 63370, "PID": 6074684, "COM_TYPE1": "Tourist feature", "COM_TYPE2": "Cultural", "NAME": "Seagrass Design", "UFI": "{18d6b706-5754-48a5-9ba4-33c68748319e}", "CREATED_ON": "2016-11-23 10:54:04", "LIST_GUID": "{87790c4d-143e-4a70-98eb-de66a2fb37b8}", "NOM_REG_NO": null }, "geometry": { "type": "Point", "coordinates": [ 146.975391706567763, -41.31489495065356 ] } },
{ "type": "Feature", "properties": { "COMFAC_ID": 58489, "PID": 2541433, "COM_TYPE1": "Tourist feature", "COM_TYPE2": "Industrial", "NAME": "Velo Wines", "UFI": "{69f851e1-4ed9-4d87-8567-ac1090a4cfca}", "CREATED_ON": "2016-11-23 10:54:04", "LIST_GUID": "{dfce2d0f-ee77-4003-a003-d91030759b20}", "NOM_REG_NO": null }, "geometry": { "type": "Point", "coordinates": [ 147.047260742473554, -41.37062193841215 ] } },
{ "type": "Feature", "properties": { "COMFAC_ID": 63943, "PID": 6073892, "COM_TYPE1": "Accommodation", "COM_TYPE2": "Holiday Unit\/ Flat", "NAME": "Rosevears Hotel", "UFI": "{768e8ce0-5630-4b3d-9ecc-42bdc104605d}", "CREATED_ON": "2017-05-23 17:10:14", "LIST_GUID": "{c51886d8-5e28-4a0b-8f04-b7254b1e9641}", "NOM_REG_NO": null }, "geometry": { "type": "Point", "coordinates": [ 147.004841255377585, -41.321844707430238 ] } },
{ "type": "Feature", "properties": { "COMFAC_ID": 56476, "PID": 1452762, "COM_TYPE1": "Club", "COM_TYPE2": "Rowing", "NAME": "Lake Trevallyn Adaptive Rowing Club", "UFI": "{43c28f9e-9e85-4bc4-92d0-ce2fab3fef28}", "CREATED_ON": "2016-11-23 10:54:04", "LIST_GUID": "{a4127c63-8421-4151-b68e-d5a7b79a16dc}", "NOM_REG_NO": null }, "geometry": { "type": "Point", "coordinates": [ 147.078609848352329, -41.440040704481852 ] } },
{ "type": "Feature", "properties": { "COMFAC_ID": 54994, "PID": 2081369, "COM_TYPE1": "Tourist feature", "COM_TYPE2": "Other", "NAME": "Cable Hang Gliding", "UFI": "{6e4f7a16-fd98-4315-bacb-da5ae54f5aae}", "CREATED_ON": "2016-11-23 10:54:04", "LIST_GUID": "{16d32cc8-a856-4819-84e2-d87204efa891}", "NOM_REG_NO": null }, "geometry": { "type": "Point", "coordinates": [ 147.093026301573417, -41.450052216053329 ] } },
{ "type": "Feature", "properties": { "COMFAC_ID": 1335, "PID": 1927772, "COM_TYPE1": "Church", "COM_TYPE2": "Convent or monastery", "NAME": "Franciscan Friary", "UFI": "{aa402c8e-40f1-4faf-a511-0eba964610a1}", "CREATED_ON": "2016-11-23 10:54:04", "LIST_GUID": "{4dbd56f2-ca10-47a6-b2c7-50c5099fcc2b}", "NOM_REG_NO": null }, "geometry": { "type": "Point", "coordinates": [ 147.09924512181982, -41.425934789688291 ] } },
{ "type": "Feature", "properties": { "COMFAC_ID": 56217, "PID": 6076663, "COM_TYPE1": "State Government", "COM_TYPE2": "DPIPWE", "NAME": "Tamar Island Wetlands Centre", "UFI": "{c12f5f6a-7602-4629-a820-ed5b6a9cc316}", "CREATED_ON": "2016-11-23 10:54:04", "LIST_GUID": "{cc4e6d96-4b03-4f0a-9bb1-0d34749022e8}", "NOM_REG_NO": null }, "geometry": { "type": "Point", "coordinates": [ 147.074161174015444, -41.390333571265224 ] } },
{ "type": "Feature", "properties": { "COMFAC_ID": 1302, "PID": 6056785, "COM_TYPE1": "Church", "COM_TYPE2": "Christian Brethren Church", "NAME": "Riverside Gospel Chapel", "UFI": "{e51efe72-333a-4b0f-9cd8-51513bdde5cd}", "CREATED_ON": "2016-11-23 10:54:04", "LIST_GUID": "{0acf3fc7-4419-42bb-84f8-04b19210ee34}", "NOM_REG_NO": null }, "geometry": { "type": "Point", "coordinates": [ 147.089168449160809, -41.403066065982046 ] } },
{ "type": "Feature", "properties": { "COMFAC_ID": 30706, "PID": 6056582, "COM_TYPE1": "Accommodation", "COM_TYPE2": "Hotel", "NAME": "Riverside Hotel Motel", "UFI": "{33a6a367-2cf8-4105-9f21-a7aa501ae7a6}", "CREATED_ON": "2016-11-23 10:54:04", "LIST_GUID": "{9128ebbb-83ce-4f89-9bd0-b2feda177c1c}", "NOM_REG_NO": null }, "geometry": { "type": "Point", "coordinates": [ 147.092205199000546, -41.406444288845591 ] } },
{ "type": "Feature", "properties": { "COMFAC_ID": 63565, "PID": 0, "COM_TYPE1": "Sports complex", "COM_TYPE2": "Other", "NAME": "Windsor Community Precinct", "UFI": "{aa1cadbf-97c4-4274-a49b-765f82f49ed1}", "CREATED_ON": "2016-11-23 10:54:04", "LIST_GUID": "{1bdf4615-5f79-4a27-8de1-be92ed30c708}", "NOM_REG_NO": "41947H" }, "geometry": { "type": "Point", "coordinates": [ 147.094415084606766, -41.40294328638798 ] } },