{
"type": "FeatureCollection",
"crs": { "type": "name", "properties": { "name": "urn:ogc:def:crs:OGC:1.3:CRS84" } },
"features": [
{ "type": "Feature", "properties": { "COMFAC_ID": 60805, "PID": 2869148, "COM_TYPE1": "Commonwealth government", "COM_TYPE2": "Centrelink", "NAME": "Centrelink Bridgewater", "UFI": "{a8bb51f2-05db-459a-8a51-e12f8dde66d7}", "CREATED_ON": "2016-11-23 10:54:04", "LIST_GUID": "{52ab9057-e6e9-4257-88f8-83973191c42b}", "NOM_REG_NO": null }, "geometry": { "type": "Point", "coordinates": [ 147.245773879179183, -42.738753084364781 ] } },
{ "type": "Feature", "properties": { "COMFAC_ID": 60369, "PID": 5023551, "COM_TYPE1": "Ground", "COM_TYPE2": "Sportsground", "NAME": "Brighton Soccer Ground", "UFI": "{73836c0e-ee8b-4c56-9e01-9e52afa39adf}", "CREATED_ON": "2016-11-23 10:54:04", "LIST_GUID": "{24f700a6-526d-4cc7-b372-7d94107b165b}", "NOM_REG_NO": null }, "geometry": { "type": "Point", "coordinates": [ 147.24933310323226, -42.697042893536711 ] } },
{ "type": "Feature", "properties": { "COMFAC_ID": 60052, "PID": 5023826, "COM_TYPE1": "Community care", "COM_TYPE2": "Creche", "NAME": "Brighton Childcare & Early Learning Centre", "UFI": "{d36cffd3-f92d-4ffa-b3bb-119be1d70cce}", "CREATED_ON": "2016-11-23 10:54:04", "LIST_GUID": "{8dc393fc-340d-4ac0-9c98-96c878a66c7c}", "NOM_REG_NO": null }, "geometry": { "type": "Point", "coordinates": [ 147.259782465675499, -42.699999611004081 ] } },
{ "type": "Feature", "properties": { "COMFAC_ID": 5515, "PID": 5021935, "COM_TYPE1": "State Government", "COM_TYPE2": "Other", "NAME": "TasWater - Wastewater Treatment Plant", "UFI": "{7a574611-f1f3-4586-9b02-7c96afd9256d}", "CREATED_ON": "2016-11-23 10:54:04", "LIST_GUID": "{9cd0b5a7-b7bb-4fc1-9f67-4b5ff12f040c}", "NOM_REG_NO": null }, "geometry": { "type": "Point", "coordinates": [ 147.266473556645593, -42.708756122775796 ] } },
{ "type": "Feature", "properties": { "COMFAC_ID": 36125, "PID": 7248025, "COM_TYPE1": "Ground", "COM_TYPE2": "Park or reserve", "NAME": "Pontville War Memorial Reserve", "UFI": "{d7ed875a-e81f-4871-96de-7a371f16bb98}", "CREATED_ON": "2016-11-23 10:54:04", "LIST_GUID": "{5fc5d626-601c-487c-b08b-c86f3bcc74ef}", "NOM_REG_NO": null }, "geometry": { "type": "Point", "coordinates": [ 147.264472786962187, -42.687162510277808 ] } },
{ "type": "Feature", "properties": { "COMFAC_ID": 56726, "PID": 2215304, "COM_TYPE1": "Ground", "COM_TYPE2": "Burial ground", "NAME": "Bridgewater Anglican Cemetery", "UFI": "{c1fe88d4-d1fd-4e22-a120-5089b928e8a8}", "CREATED_ON": "2016-11-23 10:54:04", "LIST_GUID": "{f504084b-e07c-467c-911b-1bf9aee6a757}", "NOM_REG_NO": null }, "geometry": { "type": "Point", "coordinates": [ 147.228365894335525, -42.737312728608295 ] } },
{ "type": "Feature", "properties": { "COMFAC_ID": 36167, "PID": 7834374, "COM_TYPE1": "Council", "COM_TYPE2": "Brighton", "NAME": "Brighton Council Bridgewater Depot", "UFI": "{2d7fd506-7a2e-4836-a603-710d10a59797}", "CREATED_ON": "2016-11-23 10:54:04", "LIST_GUID": "{8c48d808-0ca2-4d85-b220-b1f634d2457f}", "NOM_REG_NO": null }, "geometry": { "type": "Point", "coordinates": [ 147.229380914628877, -42.734250765791657 ] } },
{ "type": "Feature", "properties": { "COMFAC_ID": 36185, "PID": 7463518, "COM_TYPE1": "Community care", "COM_TYPE2": "Creche", "NAME": "Discovery Early Learning Centres - Bridgewater", "UFI": "{99c2767e-dd3c-48dd-acbd-09f3ae14ad77}", "CREATED_ON": "2016-11-23 10:54:04", "LIST_GUID": "{460f5cd1-a4e4-4074-9fd0-2b6c949a9286}", "NOM_REG_NO": null }, "geometry": { "type": "Point", "coordinates": [ 147.234977391568634, -42.736838940014088 ] } },
{ "type": "Feature", "properties": { "COMFAC_ID": 23486, "PID": 5046796, "COM_TYPE1": "State Government", "COM_TYPE2": "Service Tasmania", "NAME": "Service Tasmania Bridgewater", "UFI": "{a4ba57ef-0401-4718-b055-f3804220fff5}", "CREATED_ON": "2016-11-23 10:54:04", "LIST_GUID": "{76e2cae7-0468-4445-879d-af47ebd6dfad}", "NOM_REG_NO": null }, "geometry": { "type": "Point", "coordinates": [ 147.243897475985079, -42.739226885265538 ] } },
{ "type": "Feature", "properties": { "COMFAC_ID": 41266, "PID": 1127628, "COM_TYPE1": "Cultural", "COM_TYPE2": "Library", "NAME": "Bridgewater Library", "UFI": "{da258860-ece9-4c30-a2a2-c8112f794b3f}", "CREATED_ON": "2016-11-23 10:54:04", "LIST_GUID": "{5b064b5c-cb51-450a-b4dc-58469458375c}", "NOM_REG_NO": null }, "geometry": { "type": "Point", "coordinates": [ 147.243955228801696, -42.739261784638721 ] } },
{ "type": "Feature", "properties": { "COMFAC_ID": 36188, "PID": 5031754, "COM_TYPE1": "Medical service", "COM_TYPE2": "Family & child health centre", "NAME": "Bridgewater Child Health Centre", "UFI": "{f652840d-09d0-463d-8924-b66582d3df2b}", "CREATED_ON": "2016-11-23 10:54:04", "LIST_GUID": "{f8c61a08-2815-4397-b8c6-aa8d048d7584}", "NOM_REG_NO": null }, "geometry": { "type": "Point", "coordinates": [ 147.244431942568326, -42.739414429010417 ] } },
{ "type": "Feature", "properties": { "COMFAC_ID": 61405, "PID": 2869041, "COM_TYPE1": "Community care", "COM_TYPE2": "Charity or welfare", "NAME": "Australian Red Cross Op Shop", "UFI": "{81b4b849-3708-4352-b684-e4330c37e21a}", "CREATED_ON": "2016-11-23 10:54:04", "LIST_GUID": "{e581161f-2b78-4e74-a48b-18eaa0fbf461}", "NOM_REG_NO": null }, "geometry": { "type": "Point", "coordinates": [ 147.245754051745422, -42.738994600286127 ] } },
{ "type": "Feature", "properties": { "COMFAC_ID": 5509, "PID": 5023551, "COM_TYPE1": "Sports complex", "COM_TYPE2": "Racecourses", "NAME": "Brighton Racecourse", "UFI": "{6a3486f6-721f-41dd-9891-cf67bb9c56a2}", "CREATED_ON": "2016-11-23 10:54:04", "LIST_GUID": "{0b649d73-de4c-4757-925a-a218070f8256}", "NOM_REG_NO": null }, "geometry": { "type": "Point", "coordinates": [ 147.24359803096533, -42.69574129493877 ] } },
{ "type": "Feature", "properties": { "COMFAC_ID": 36126, "PID": 1519744, "COM_TYPE1": "Community care", "COM_TYPE2": "Creche", "NAME": "Brighton Play Centre", "UFI": "{38c0a680-4e3c-4b3d-8f9a-b7a38027e764}", "CREATED_ON": "2016-11-23 10:54:04", "LIST_GUID": "{5d3464e6-aa3e-498e-9f9c-6860e1344b6f}", "NOM_REG_NO": null }, "geometry": { "type": "Point", "coordinates": [ 147.25450752533996, -42.6936648732189 ] } },
{ "type": "Feature", "properties": { "COMFAC_ID": 60062, "PID": 5022946, "COM_TYPE1": "Community care", "COM_TYPE2": "Creche", "NAME": "Brighton Primary - OSHC", "UFI": "{dca216cd-f162-4ca8-860d-46eebd1c91bf}", "CREATED_ON": "2016-11-23 10:54:04", "LIST_GUID": "{f76b9a8e-ddd2-4a9d-84a8-a7f12de7d4fd}", "NOM_REG_NO": null }, "geometry": { "type": "Point", "coordinates": [ 147.258470116168581, -42.698597037414288 ] } },
{ "type": "Feature", "properties": { "COMFAC_ID": 36105, "PID": 7676265, "COM_TYPE1": "Sports complex", "COM_TYPE2": "Other", "NAME": "Pontville Park", "UFI": "{ed0d4f75-5c93-4748-9c7c-d8d3ac23879d}", "CREATED_ON": "2016-11-23 10:54:04", "LIST_GUID": "{65bcb8de-2742-460d-b712-621154b3aa35}", "NOM_REG_NO": null }, "geometry": { "type": "Point", "coordinates": [ 147.2603903352462, -42.68554520368108 ] } },
{ "type": "Feature", "properties": { "COMFAC_ID": 5495, "PID": 7676265, "COM_TYPE1": "Club", "COM_TYPE2": "Other social", "NAME": "Rural Youth Club", "UFI": "{140bce8d-155d-47dd-873b-9800245d94e5}", "CREATED_ON": "2016-11-23 10:54:04", "LIST_GUID": "{9a94bf4b-05ec-4b80-8d83-8310b03398ea}", "NOM_REG_NO": null }, "geometry": { "type": "Point", "coordinates": [ 147.26314696815777, -42.687278124405637 ] } },
{ "type": "Feature", "properties": { "COMFAC_ID": 5500, "PID": 7676265, "COM_TYPE1": "Hall\/ Community centre", "COM_TYPE2": "Community, town or city hall", "NAME": "Brighton Municipal Memorial Hall", "UFI": "{18477d4b-b089-4d80-b920-3ac658d76ae5}", "CREATED_ON": "2016-11-23 10:54:04", "LIST_GUID": "{57da1884-2819-4c39-9708-9bac382c9481}", "NOM_REG_NO": null }, "geometry": { "type": "Point", "coordinates": [ 147.26314892902667, -42.687352262811757 ] } },
{ "type": "Feature", "properties": { "COMFAC_ID": 5490, "PID": 5019704, "COM_TYPE1": "Church", "COM_TYPE2": "Anglican Church", "NAME": "St Marks Anglican Church", "UFI": "{f48aaaa4-88ab-4b76-a202-a0656337de8a}", "CREATED_ON": "2016-11-23 10:54:04", "LIST_GUID": "{e495f96d-fd83-43f5-95f1-1d4c02413219}", "NOM_REG_NO": null }, "geometry": { "type": "Point", "coordinates": [ 147.266489018204425, -42.680694063203163 ] } },
{ "type": "Feature", "properties": { "COMFAC_ID": 56721, "PID": 5019691, "COM_TYPE1": "Commonwealth government", "COM_TYPE2": "Defence", "NAME": "Pontville Range Control", "UFI": "{b339627f-1cea-42d9-9753-99c9bd644411}", "CREATED_ON": "2016-11-23 10:54:04", "LIST_GUID": "{46b059ea-9e77-4014-9fa2-d3a788ceef2b}", "NOM_REG_NO": null }, "geometry": { "type": "Point", "coordinates": [ 147.267509335190283, -42.679458558895682 ] } },
{ "type": "Feature", "properties": { "COMFAC_ID": 5511, "PID": 5051624, "COM_TYPE1": "Sports complex", "COM_TYPE2": "Golf", "NAME": "Tea Tree Golf Course", "UFI": "{aa791bd6-d38e-492e-91ed-37c02a0e9a96}", "CREATED_ON": "2016-11-23 10:54:04", "LIST_GUID": "{b6117302-a6d2-4f5b-9de7-42e0a4786177}", "NOM_REG_NO": "23113T" }, "geometry": { "type": "Point", "coordinates": [ 147.274468666396274, -42.685769499160855 ] } },
{ "type": "Feature", "properties": { "COMFAC_ID": 5451, "PID": 5016888, "COM_TYPE1": "Church", "COM_TYPE2": "Anglican Church", "NAME": "St Georges Anglican Church", "UFI": "{19bdbc9b-1818-43a1-9247-2d63007cf836}", "CREATED_ON": "2016-11-23 10:54:04", "LIST_GUID": "{8a5836b9-9983-4b13-a029-c84aab8f13c9}", "NOM_REG_NO": null }, "geometry": { "type": "Point", "coordinates": [ 147.279536443014024, -42.749936827932935 ] } },
{ "type": "Feature", "properties": { "COMFAC_ID": 36065, "PID": 7678885, "COM_TYPE1": "Tourist feature", "COM_TYPE2": "Industrial", "NAME": "Crosswinds Vineyard", "UFI": "{bb99df78-8360-455a-869f-89c03fffed61}", "CREATED_ON": "2016-11-23 10:54:04", "LIST_GUID": "{f2bc26b5-d402-453a-982e-4d4d82cd5b4c}", "NOM_REG_NO": null }, "geometry": { "type": "Point", "coordinates": [ 147.334831509134148, -42.692492753218517 ] } },
{ "type": "Feature", "properties": { "COMFAC_ID": 36046, "PID": 5041020, "COM_TYPE1": "Tourist feature", "COM_TYPE2": "Industrial", "NAME": "Charles Reuben Estate", "UFI": "{65469f0d-2308-4742-9ba7-8e27da449c9d}", "CREATED_ON": "2016-11-23 10:54:04", "LIST_GUID": "{cfc5e8a9-3bfd-4146-8460-78c7dc8ed3e0}", "NOM_REG_NO": null }, "geometry": { "type": "Point", "coordinates": [ 147.359447342996788, -42.701945525118454 ] } },
{ "type": "Feature", "properties": { "COMFAC_ID": 36066, "PID": 7642946, "COM_TYPE1": "Tourist feature", "COM_TYPE2": "Industrial", "NAME": "Morningside Vineyard", "UFI": "{b174de8a-8a85-4768-9a35-15981b6b2139}", "CREATED_ON": "2016-11-23 10:54:04", "LIST_GUID": "{e3b71cac-6666-412c-bd9d-27d4dbd462bd}", "NOM_REG_NO": null }, "geometry": { "type": "Point", "coordinates": [ 147.364439739620622, -42.707627781078585 ] } },
{ "type": "Feature", "properties": { "COMFAC_ID": 36191, "PID": 5029638, "COM_TYPE1": "State Government", "COM_TYPE2": "Other", "NAME": "TasWater - Green Point Plant", "UFI": "{e25579a3-3c70-439f-afd3-f5e5f5d5db8c}", "CREATED_ON": "2016-11-23 10:54:04", "LIST_GUID": "{d216bf93-ca6d-4fcd-be72-a3ebdec92025}", "NOM_REG_NO": null }, "geometry": { "type": "Point", "coordinates": [ 147.23851618259701, -42.741939416255235 ] } },
{ "type": "Feature", "properties": { "COMFAC_ID": 5457, "PID": 2298576, "COM_TYPE1": "Church", "COM_TYPE2": "Catholic Church", "NAME": "St Pauls Catholic Church", "UFI": "{d1f41456-c047-4c43-805f-58e5803ea1fe}", "CREATED_ON": "2016-11-23 10:54:04", "LIST_GUID": "{a748d19d-998d-433f-bf22-1b9f708e0d9c}", "NOM_REG_NO": null }, "geometry": { "type": "Point", "coordinates": [ 147.2472604113496, -42.737913463228296 ] } },
{ "type": "Feature", "properties": { "COMFAC_ID": 23547, "PID": 7508579, "COM_TYPE1": "Community care", "COM_TYPE2": "Nursing and age home", "NAME": "St Anns Home Compton Downs", "UFI": "{942c4344-2a5e-4c51-a18b-efac8fa203c8}", "CREATED_ON": "2016-11-23 10:54:04", "LIST_GUID": "{cc589739-3d5c-4658-a4ce-6fb25fd0c709}", "NOM_REG_NO": null }, "geometry": { "type": "Point", "coordinates": [ 147.267107974513692, -42.760230958486105 ] } },
{ "type": "Feature", "properties": { "COMFAC_ID": 5487, "PID": 1779343, "COM_TYPE1": "Accommodation", "COM_TYPE2": "Hotel", "NAME": "The Brighton Hotel Motel", "UFI": "{554f34d4-104d-4c3a-8334-cafc9be4212e}", "CREATED_ON": "2016-11-23 10:54:04", "LIST_GUID": "{d58aa83b-bdd0-4dca-aa64-fce990b5435c}", "NOM_REG_NO": null }, "geometry": { "type": "Point", "coordinates": [ 147.250108111603708, -42.700219427936375 ] } },
{ "type": "Feature", "properties": { "COMFAC_ID": 5499, "PID": 7501035, "COM_TYPE1": "State police and emergency", "COM_TYPE2": "Fire station", "NAME": "Brighton Fire Station", "UFI": "{d0c410bc-7d20-407c-a146-9e41ff5f9e66}", "CREATED_ON": "2016-11-23 10:54:04", "LIST_GUID": "{f6c8b38c-8155-4121-9b1d-8a8badb53e40}", "NOM_REG_NO": null }, "geometry": { "type": "Point", "coordinates": [ 147.250481808551854, -42.701246424472075 ] } },
{ "type": "Feature", "properties": { "COMFAC_ID": 5506, "PID": 5022946, "COM_TYPE1": "Education and training", "COM_TYPE2": "Primary and infant", "NAME": "Brighton Primary School", "UFI": "{41f15a5b-4c44-47a5-92f7-262870b2bd70}", "CREATED_ON": "2016-11-23 10:54:04", "LIST_GUID": "{1d5d7515-e0be-4353-a190-4efc251e20ee}", "NOM_REG_NO": null }, "geometry": { "type": "Point", "coordinates": [ 147.258837717709781, -42.698695970911473 ] } },
{ "type": "Feature", "properties": { "COMFAC_ID": 23245, "PID": 7505351, "COM_TYPE1": "Club", "COM_TYPE2": "Other social", "NAME": "Veteran Car Club", "UFI": "{fe210577-65db-4a85-a468-1320c613887f}", "CREATED_ON": "2016-11-23 10:54:04", "LIST_GUID": "{d2e8440a-5fe5-44ba-ad82-9899aad9f1ae}", "NOM_REG_NO": null }, "geometry": { "type": "Point", "coordinates": [ 147.266105201524311, -42.699408804138876 ] } },
{ "type": "Feature", "properties": { "COMFAC_ID": 5513, "PID": 7676265, "COM_TYPE1": "Ground", "COM_TYPE2": "Sportsground", "NAME": "Thompson Oval", "UFI": "{7de1de8a-02c8-41db-9fc9-fde5fa26ffdb}", "CREATED_ON": "2016-11-23 10:54:04", "LIST_GUID": "{167ce097-6f88-451c-b005-9d9ab6ba8c13}", "NOM_REG_NO": null }, "geometry": { "type": "Point", "coordinates": [ 147.261838442071962, -42.687199091162498 ] } },
{ "type": "Feature", "properties": { "COMFAC_ID": 5501, "PID": 7676265, "COM_TYPE1": "Club", "COM_TYPE2": "CWA", "NAME": "Pontville CWA", "UFI": "{885c05bd-c2ca-4a6d-97eb-b230200e1e91}", "CREATED_ON": "2016-11-23 10:54:04", "LIST_GUID": "{35feb3d5-acba-4bae-8974-71e2a42847f2}", "NOM_REG_NO": null }, "geometry": { "type": "Point", "coordinates": [ 147.263208710119045, -42.687176741859737 ] } },
{ "type": "Feature", "properties": { "COMFAC_ID": 5454, "PID": 5051392, "COM_TYPE1": "Education and training", "COM_TYPE2": "Primary and infant", "NAME": "JRLF - Gagebrook Primary School", "UFI": "{bc017cf9-b9c7-43a9-94bf-433b33c1e6da}", "CREATED_ON": "2016-11-23 10:54:04", "LIST_GUID": "{9565f56c-d361-465f-9fea-dbf34fe0e96d}", "NOM_REG_NO": null }, "geometry": { "type": "Point", "coordinates": [ 147.275315631523341, -42.748897184493323 ] } },
{ "type": "Feature", "properties": { "COMFAC_ID": 42425, "PID": 5044635, "COM_TYPE1": "Tourist feature", "COM_TYPE2": "Amusement or entertainment", "NAME": "Zoodoo Zoo", "UFI": "{b470d913-193f-40f8-98f7-5672c394faf8}", "CREATED_ON": "2016-11-23 10:54:04", "LIST_GUID": "{59265b74-0388-431d-a245-7319d0c4e67b}", "NOM_REG_NO": null }, "geometry": { "type": "Point", "coordinates": [ 147.375858279866804, -42.706143439044993 ] } },
{ "type": "Feature", "properties": { "COMFAC_ID": 5527, "PID": 5014911, "COM_TYPE1": "Club", "COM_TYPE2": "Tennis", "NAME": "Tea Tree Tennis Club", "UFI": "{36afc337-818c-4400-90ff-419df6e61d8d}", "CREATED_ON": "2016-11-23 10:54:04", "LIST_GUID": "{0d3f1f59-804f-40f6-9414-90565b9fd627}", "NOM_REG_NO": null }, "geometry": { "type": "Point", "coordinates": [ 147.330122596976054, -42.689683581456379 ] } },
{ "type": "Feature", "properties": { "COMFAC_ID": 36086, "PID": 5035827, "COM_TYPE1": "Hall\/ Community centre", "COM_TYPE2": "Community, town or city hall", "NAME": "Dromedary Millvale Community Hall", "UFI": "{def08bc7-e2c6-4b1f-91e6-e55c1729b6f0}", "CREATED_ON": "2016-11-23 10:54:04", "LIST_GUID": "{3d4978d6-0814-4ea5-add3-6efc38db7956}", "NOM_REG_NO": null }, "geometry": { "type": "Point", "coordinates": [ 147.178693108639919, -42.728271448260593 ] } },
{ "type": "Feature", "properties": { "COMFAC_ID": 60368, "PID": 5016124, "COM_TYPE1": "Ground", "COM_TYPE2": "Sportsground", "NAME": "Cloak Oval", "UFI": "{d85bc1e2-2649-4d49-86cd-92c9676e1a93}", "CREATED_ON": "2016-11-23 10:54:04", "LIST_GUID": "{fe29001e-00fc-4fd7-8eec-e189a778dccf}", "NOM_REG_NO": null }, "geometry": { "type": "Point", "coordinates": [ 147.268803854414131, -42.777239056148552 ] } },
{ "type": "Feature", "properties": { "COMFAC_ID": 61393, "PID": 5046796, "COM_TYPE1": "Hall\/ Community centre", "COM_TYPE2": "Community centre", "NAME": "Brighton Civic Centre", "UFI": "{01ce196f-3690-446a-9a1e-45712608da8e}", "CREATED_ON": "2016-11-23 10:54:04", "LIST_GUID": "{8c0166e7-9f46-43e0-8287-b59d0b1762d5}", "NOM_REG_NO": null }, "geometry": { "type": "Point", "coordinates": [ 147.243836794702759, -42.73919601755432 ] } },
{ "type": "Feature", "properties": { "COMFAC_ID": 61403, "PID": 1127628, "COM_TYPE1": "Hall\/ Community centre", "COM_TYPE2": "Online Access Centre", "NAME": "Bridgewater Online Access Centre", "UFI": "{4e0e0f19-f843-45d9-b899-827942764917}", "CREATED_ON": "2016-11-23 10:54:04", "LIST_GUID": "{69da7f26-b4fc-44d6-bdf3-809e5aa51e79}", "NOM_REG_NO": null }, "geometry": { "type": "Point", "coordinates": [ 147.243971063919673, -42.739187428552079 ] } },
{ "type": "Feature", "properties": { "COMFAC_ID": 5474, "PID": 7141228, "COM_TYPE1": "Education and training", "COM_TYPE2": "Private", "NAME": "St Pauls Catholic School", "UFI": "{e2f60be1-51f8-4b92-b238-b003893c468e}", "CREATED_ON": "2016-11-23 10:54:04", "LIST_GUID": "{6136c8c8-0f7a-4d87-a244-e53ad67bdef7}", "NOM_REG_NO": null }, "geometry": { "type": "Point", "coordinates": [ 147.247643088690296, -42.73736594867529 ] } },
{ "type": "Feature", "properties": { "COMFAC_ID": 5483, "PID": 1534901, "COM_TYPE1": "Education and training", "COM_TYPE2": "Private", "NAME": "Northern Suburbs Christian School", "UFI": "{9a23b1c8-03c5-4c90-9165-ea97bcc71513}", "CREATED_ON": "2016-11-23 10:54:04", "LIST_GUID": "{19f32786-b388-43fa-93e8-0ef8372f9ab6}", "NOM_REG_NO": null }, "geometry": { "type": "Point", "coordinates": [ 147.223360995469136, -42.730334776604685 ] } },
{ "type": "Feature", "properties": { "COMFAC_ID": 5503, "PID": 1520032, "COM_TYPE1": "Ground", "COM_TYPE2": "Park or reserve", "NAME": "Dollery Park", "UFI": "{c865a207-ea22-4319-80e9-42edc8661896}", "CREATED_ON": "2016-11-23 10:54:04", "LIST_GUID": "{42247c07-4974-48c0-b686-b5941776b0a5}", "NOM_REG_NO": "41864X" }, "geometry": { "type": "Point", "coordinates": [ 147.254612743798987, -42.694312418786296 ] } },
{ "type": "Feature", "properties": { "COMFAC_ID": 5491, "PID": 7561046, "COM_TYPE1": "Church", "COM_TYPE2": "Catholic Church", "NAME": "St Matthews Catholic Church", "UFI": "{d7c239db-3be0-4ba5-bdb4-1f9023569028}", "CREATED_ON": "2016-11-23 10:54:04", "LIST_GUID": "{a7f89943-4846-4f24-ba92-1b6540ef4929}", "NOM_REG_NO": null }, "geometry": { "type": "Point", "coordinates": [ 147.263068966755355, -42.688771076739258 ] } },
{ "type": "Feature", "properties": { "COMFAC_ID": 36108, "PID": 7676265, "COM_TYPE1": "Ground", "COM_TYPE2": "Sportsground", "NAME": "Ferguson Oval", "UFI": "{3d79237a-a272-46e3-a32b-0eaac14ae86b}", "CREATED_ON": "2016-11-23 10:54:04", "LIST_GUID": "{edf17ed7-60c8-4590-8480-16c4e7b53f7d}", "NOM_REG_NO": null }, "geometry": { "type": "Point", "coordinates": [ 147.263247892781834, -42.68552561418678 ] } },
{ "type": "Feature", "properties": { "COMFAC_ID": 5446, "PID": 5016124, "COM_TYPE1": "State police and emergency", "COM_TYPE2": "Fire station", "NAME": "Old Beach Fire Station", "UFI": "{61fe3ca4-bfbd-4e04-9332-666e3cf1f4bb}", "CREATED_ON": "2016-11-23 10:54:04", "LIST_GUID": "{38f99ea4-ea7c-42cc-bda2-773dc3db211f}", "NOM_REG_NO": null }, "geometry": { "type": "Point", "coordinates": [ 147.268040032011641, -42.777473195662715 ] } },
{ "type": "Feature", "properties": { "COMFAC_ID": 45571, "PID": 5035595, "COM_TYPE1": "State Government", "COM_TYPE2": "Transend Networks", "NAME": "Bridgewater Transend Sub Station", "UFI": "{515c023b-a26a-4550-b5fc-7f61c8ed3510}", "CREATED_ON": "2016-11-23 10:54:04", "LIST_GUID": "{0292122c-b6f4-4317-bfa3-4d258a795e42}", "NOM_REG_NO": null }, "geometry": { "type": "Point", "coordinates": [ 147.231442628046409, -42.731705849658816 ] } },
{ "type": "Feature", "properties": { "COMFAC_ID": 5484, "PID": 5035579, "COM_TYPE1": "Ground", "COM_TYPE2": "Sportsground", "NAME": "Weily Park", "UFI": "{acda1832-f2a9-4552-96d9-9410d00829c3}", "CREATED_ON": "2016-11-23 10:54:04", "LIST_GUID": "{d0829873-30d8-4772-8602-6ff43d680ff2}", "NOM_REG_NO": "19753X" }, "geometry": { "type": "Point", "coordinates": [ 147.234294957988851, -42.730592138623798 ] } },
{ "type": "Feature", "properties": { "COMFAC_ID": 23526, "PID": 5034197, "COM_TYPE1": "Medical service", "COM_TYPE2": "Dental clinic", "NAME": "Bridgewater Dental Clinic", "UFI": "{7c588f14-8fe9-41ce-81eb-695b7a32addd}", "CREATED_ON": "2016-11-23 10:54:04", "LIST_GUID": "{19c4a457-db83-46e0-8b2e-6dd99f4784fc}", "NOM_REG_NO": null }, "geometry": { "type": "Point", "coordinates": [ 147.241541466281774, -42.738034840523298 ] } },
{ "type": "Feature", "properties": { "COMFAC_ID": 5468, "PID": 5045785, "COM_TYPE1": "Community care", "COM_TYPE2": "Charity or welfare", "NAME": "St Vincent de Paul Bridgewater", "UFI": "{7eb33876-b541-4156-887e-ed8d2d3c216a}", "CREATED_ON": "2016-11-23 10:54:04", "LIST_GUID": "{0f3b159c-3ebf-405d-8b82-c25fb50f90bf}", "NOM_REG_NO": null }, "geometry": { "type": "Point", "coordinates": [ 147.244584141978009, -42.735354101109522 ] } },
{ "type": "Feature", "properties": { "COMFAC_ID": 5473, "PID": 5044870, "COM_TYPE1": "Education and training", "COM_TYPE2": "Primary and infant", "NAME": "JRLF - Herdsmans Cove Primary School", "UFI": "{e22df206-83a1-4116-ab28-3bc697b44bb6}", "CREATED_ON": "2016-11-23 10:54:04", "LIST_GUID": "{0322413b-5a3e-4929-9cc5-40dbd41f39a6}", "NOM_REG_NO": null }, "geometry": { "type": "Point", "coordinates": [ 147.263102919558889, -42.748640525738459 ] } },
{ "type": "Feature", "properties": { "COMFAC_ID": 41245, "PID": 7747967, "COM_TYPE1": "Transport", "COM_TYPE2": "Service Station", "NAME": "BP Brighton", "UFI": "{f4a077c1-dfb3-4eff-9a9e-a61fc5ff86d5}", "CREATED_ON": "2016-11-23 10:54:04", "LIST_GUID": "{0eed4bc6-f212-4621-8101-92784c14c77d}", "NOM_REG_NO": null }, "geometry": { "type": "Point", "coordinates": [ 147.251403952655949, -42.699117750991121 ] } },
{ "type": "Feature", "properties": { "COMFAC_ID": 62204, "PID": 0, "COM_TYPE1": "Ground", "COM_TYPE2": "Picnic Area", "NAME": null, "UFI": "{4ae2a22e-53ab-4447-9dce-3b5490d2b294}", "CREATED_ON": "2016-11-23 10:54:04", "LIST_GUID": "{b0943264-8e30-46d1-9036-c545fe6af767}", "NOM_REG_NO": null }, "geometry": { "type": "Point", "coordinates": [ 147.265978545516674, -42.691536677923281 ] } },
{ "type": "Feature", "properties": { "COMFAC_ID": 57362, "PID": 5019675, "COM_TYPE1": "Ground", "COM_TYPE2": "Picnic Area", "NAME": "Picnic Area", "UFI": "{81fac4eb-3716-4e36-8434-a07cbee77864}", "CREATED_ON": "2016-11-23 10:54:04", "LIST_GUID": "{32bc7087-34c1-4677-92e6-8b810cde1515}", "NOM_REG_NO": null }, "geometry": { "type": "Point", "coordinates": [ 147.266078986068095, -42.679633906001371 ] } },
{ "type": "Feature", "properties": { "COMFAC_ID": 26825, "PID": 5016255, "COM_TYPE1": "Ground", "COM_TYPE2": "Park or reserve", "NAME": "Meehan Range Nature Rec Area", "UFI": "{254ec82e-de02-4687-b808-77de6e26e368}", "CREATED_ON": "2016-11-23 10:54:04", "LIST_GUID": "{90de9a8f-23ed-46a7-a19c-f3edc41a16ba}", "NOM_REG_NO": null }, "geometry": { "type": "Point", "coordinates": [ 147.300099283382679, -42.78829550314321 ] } },
{ "type": "Feature", "properties": { "COMFAC_ID": 5526, "PID": 7721409, "COM_TYPE1": "Hall\/ Community centre", "COM_TYPE2": "Other", "NAME": "Tea Tree Hall", "UFI": "{816eedbd-3441-404e-aba8-f2c8f2ed0060}", "CREATED_ON": "2016-11-23 10:54:04", "LIST_GUID": "{243e7f1b-7e16-44c3-8bb3-c44131af923f}", "NOM_REG_NO": null }, "geometry": { "type": "Point", "coordinates": [ 147.318763356869397, -42.690311806972659 ] } },
{ "type": "Feature", "properties": { "COMFAC_ID": 62952, "PID": 5041020, "COM_TYPE1": "Accommodation", "COM_TYPE2": "Holiday Unit\/ Flat", "NAME": "Pinot Cottage on Charles Reuben Estate", "UFI": "{dd5e073b-064a-4ae9-b345-ec83dc07c4a9}", "CREATED_ON": "2016-11-23 10:54:04", "LIST_GUID": "{135ff207-b0eb-4ed0-94bc-9e5fdbba0d07}", "NOM_REG_NO": null }, "geometry": { "type": "Point", "coordinates": [ 147.35949076980927, -42.701936455330063 ] } },
{ "type": "Feature", "properties": { "COMFAC_ID": 23385, "PID": 5035149, "COM_TYPE1": "Hall\/ Community centre", "COM_TYPE2": "Community, town or city hall", "NAME": "Bridgewater Coronation Hall", "UFI": "{828312c6-7b8c-4304-b357-0804c1029fef}", "CREATED_ON": "2016-11-23 10:54:04", "LIST_GUID": "{8e1ffc95-24f8-4e3a-a387-0daa1d6b9a5a}", "NOM_REG_NO": null }, "geometry": { "type": "Point", "coordinates": [ 147.227430187999147, -42.736503627169839 ] } },
{ "type": "Feature", "properties": { "COMFAC_ID": 60061, "PID": 2806702, "COM_TYPE1": "Community care", "COM_TYPE2": "Creche", "NAME": "Bridgewater Police & Citizens Youth Club - OSHC", "UFI": "{9295d249-32f0-4cb3-b72a-07cb65e84e28}", "CREATED_ON": "2016-11-23 10:54:04", "LIST_GUID": "{4ca01624-a9a5-4182-aa4d-6ddd4a4f9e42}", "NOM_REG_NO": null }, "geometry": { "type": "Point", "coordinates": [ 147.244771567828792, -42.737991861859726 ] } },
{ "type": "Feature", "properties": { "COMFAC_ID": 61404, "PID": 1127556, "COM_TYPE1": "State Government", "COM_TYPE2": "Justice", "NAME": "Community Corrections Bridgewater", "UFI": "{b5f66876-1a3b-48aa-b076-bda9d6efef58}", "CREATED_ON": "2016-11-23 10:54:04", "LIST_GUID": "{d414c24b-d2e4-4ed8-ae3d-c3ba63535b4d}", "NOM_REG_NO": null }, "geometry": { "type": "Point", "coordinates": [ 147.2459437698204, -42.738895402755276 ] } },
{ "type": "Feature", "properties": { "COMFAC_ID": 61402, "PID": 5044862, "COM_TYPE1": "Hall\/ Community centre", "COM_TYPE2": "Community centre", "NAME": "Gagebrook Community Centre", "UFI": "{55a68064-1206-4437-8891-f4517719854a}", "CREATED_ON": "2016-11-23 10:54:04", "LIST_GUID": "{e08fbdb6-c924-4ba2-8090-9aa14443c54b}", "NOM_REG_NO": null }, "geometry": { "type": "Point", "coordinates": [ 147.265066294096783, -42.747838536234148 ] } },
{ "type": "Feature", "properties": { "COMFAC_ID": 23345, "PID": 5020166, "COM_TYPE1": "Club", "COM_TYPE2": "Senior and elderly citizens", "NAME": "Brighton Senior Citizens Club", "UFI": "{bf3ba907-7550-4d81-8cc8-d5f4efec2c48}", "CREATED_ON": "2016-11-23 10:54:04", "LIST_GUID": "{3eaaa6fe-98b3-4547-83eb-28f37bd00ef3}", "NOM_REG_NO": null }, "geometry": { "type": "Point", "coordinates": [ 147.265525901518856, -42.683734198533152 ] } },
{ "type": "Feature", "properties": { "COMFAC_ID": 5488, "PID": 5019712, "COM_TYPE1": "Accommodation", "COM_TYPE2": "Guest House\/ Bed and Breakfast", "NAME": "The Sheiling", "UFI": "{f0b3205c-5821-4352-bed0-c2acd497ec41}", "CREATED_ON": "2016-11-23 10:54:04", "LIST_GUID": "{b3a65f1e-390e-43ff-b897-ce9bb03ff773}", "NOM_REG_NO": null }, "geometry": { "type": "Point", "coordinates": [ 147.267658224946416, -42.680105965032311 ] } },
{ "type": "Feature", "properties": { "COMFAC_ID": 34574, "PID": 1916619, "COM_TYPE1": "Council", "COM_TYPE2": "Brighton", "NAME": "Brighton Council Offices", "UFI": "{6c164c14-0b5f-454b-95c8-bd3169efd19f}", "CREATED_ON": "2016-11-23 10:54:04", "LIST_GUID": "{f6e1dee4-2a7e-4739-b34f-88f3b8ca3554}", "NOM_REG_NO": null }, "geometry": { "type": "Point", "coordinates": [ 147.278374456054792, -42.751089378275594 ] } },
{ "type": "Feature", "properties": { "COMFAC_ID": 5448, "PID": 2568185, "COM_TYPE1": "Ground", "COM_TYPE2": "Park or reserve", "NAME": "Lennox Park", "UFI": "{53db80a5-434a-4011-a760-17e067f2642f}", "CREATED_ON": "2016-11-23 10:54:04", "LIST_GUID": "{0e02a2dd-365b-4749-b65c-c0b7760b06ed}", "NOM_REG_NO": "23925F" }, "geometry": { "type": "Point", "coordinates": [ 147.270420455786734, -42.777395357854559 ] } },
{ "type": "Feature", "properties": { "COMFAC_ID": 62013, "PID": 5046796, "COM_TYPE1": "State police and emergency", "COM_TYPE2": "Community Fire Refuge", "NAME": "Brighton Civic Centre", "UFI": "{d1a863ab-e364-4f26-bd9e-e3fd96ba1622}", "CREATED_ON": "2016-11-23 10:54:04", "LIST_GUID": "{5d907c16-2d21-4903-9787-c15471039214}", "NOM_REG_NO": null }, "geometry": { "type": "Point", "coordinates": [ 147.243889799699247, -42.739107425698478 ] } },
{ "type": "Feature", "properties": { "COMFAC_ID": 36186, "PID": 2806702, "COM_TYPE1": "State police and emergency", "COM_TYPE2": "Police station", "NAME": "Bridgewater Police Station", "UFI": "{56be01b3-3b37-4a2b-aec3-4b0026beb913}", "CREATED_ON": "2016-11-23 10:54:04", "LIST_GUID": "{1fcb26fc-ddf7-48b8-99d4-283feca1083e}", "NOM_REG_NO": null }, "geometry": { "type": "Point", "coordinates": [ 147.243932968366579, -42.73788395502072 ] } },
{ "type": "Feature", "properties": { "COMFAC_ID": 5466, "PID": 1942681, "COM_TYPE1": "Medical service", "COM_TYPE2": "Community health centre", "NAME": "Bridgewater Community Health Centre", "UFI": "{2fde83dd-d440-482e-83ff-687cd05ef707}", "CREATED_ON": "2016-11-23 10:54:04", "LIST_GUID": "{9970d495-2bf1-4642-882f-4772ea3fb0c1}", "NOM_REG_NO": null }, "geometry": { "type": "Point", "coordinates": [ 147.244285090288912, -42.739351703856563 ] } },
{ "type": "Feature", "properties": { "COMFAC_ID": 5458, "PID": 1127548, "COM_TYPE1": "Club", "COM_TYPE2": "Police and Citizens Youth", "NAME": "Bridgewater PCYC", "UFI": "{f3378abe-31d3-4b56-aebd-39d9bfc80247}", "CREATED_ON": "2016-11-23 10:54:04", "LIST_GUID": "{1ab73b02-50d4-4f44-ac4c-d48aa0f88a10}", "NOM_REG_NO": null }, "geometry": { "type": "Point", "coordinates": [ 147.244773486168356, -42.737976404325956 ] } },
{ "type": "Feature", "properties": { "COMFAC_ID": 61401, "PID": 2869041, "COM_TYPE1": "Commonwealth government", "COM_TYPE2": "Post offices and agencies", "NAME": "Bridgewater Post Office", "UFI": "{8d246d97-3954-4db2-8e68-0b1b1daefbde}", "CREATED_ON": "2016-11-23 10:54:04", "LIST_GUID": "{b3f28032-c370-4a1a-a9cf-e90ed57ba588}", "NOM_REG_NO": null }, "geometry": { "type": "Point", "coordinates": [ 147.244839908874866, -42.738817799031182 ] } },
{ "type": "Feature", "properties": { "COMFAC_ID": 23465, "PID": 5026744, "COM_TYPE1": "Hall\/ Community centre", "COM_TYPE2": "Community centre", "NAME": "Bridgewater Community Centre", "UFI": "{c4ff8313-8f31-4e5d-a77d-10d5c2891b5f}", "CREATED_ON": "2016-11-23 10:54:04", "LIST_GUID": "{c8ba843d-8046-4d1d-9a2f-b7a45c0e7218}", "NOM_REG_NO": null }, "geometry": { "type": "Point", "coordinates": [ 147.248125342546842, -42.743431951052933 ] } },
{ "type": "Feature", "properties": { "COMFAC_ID": 56729, "PID": 2784179, "COM_TYPE1": "Church", "COM_TYPE2": "Jehovahs Witnesses", "NAME": "Gagebrook Kingdom Hall", "UFI": "{5e919f0b-3715-43ae-8750-2926e2fc73cf}", "CREATED_ON": "2016-11-23 10:54:04", "LIST_GUID": "{9625d84e-a2f8-4b7f-b9f7-c754eebe85a0}", "NOM_REG_NO": null }, "geometry": { "type": "Point", "coordinates": [ 147.249081328699731, -42.742276227702213 ] } },
{ "type": "Feature", "properties": { "COMFAC_ID": 36202, "PID": 7497734, "COM_TYPE1": "Council", "COM_TYPE2": "Brighton", "NAME": "Cove Hill Waste Transfer Station", "UFI": "{9055d3cc-ab04-4cfd-b344-b507a900e418}", "CREATED_ON": "2016-11-23 10:54:04", "LIST_GUID": "{cca7f85f-d570-4714-8fc6-d7bb75dff51b}", "NOM_REG_NO": null }, "geometry": { "type": "Point", "coordinates": [ 147.258444460109558, -42.7363219056692 ] } },
{ "type": "Feature", "properties": { "COMFAC_ID": 5476, "PID": 7276560, "COM_TYPE1": "Ground", "COM_TYPE2": "Sportsground", "NAME": "Cove Creek Sports Ground", "UFI": "{45e62c5c-83dc-4bf9-8ac2-7deb0f8685de}", "CREATED_ON": "2016-11-23 10:54:04", "LIST_GUID": "{7d503974-41fe-436a-9950-ac0e79fd7b25}", "NOM_REG_NO": null }, "geometry": { "type": "Point", "coordinates": [ 147.263282007993979, -42.745067738275701 ] } },
{ "type": "Feature", "properties": { "COMFAC_ID": 63564, "PID": 2987064, "COM_TYPE1": "Transport", "COM_TYPE2": "Rail", "NAME": "Brighton Transport Hub", "UFI": "{916e2acf-82d4-486d-9d21-50c67dda2896}", "CREATED_ON": "2016-11-23 10:54:04", "LIST_GUID": "{6af3d747-ad3b-4a43-b7a7-a8b20e8b554d}", "NOM_REG_NO": null }, "geometry": { "type": "Point", "coordinates": [ 147.228033536632438, -42.715955980081773 ] } },
{ "type": "Feature", "properties": { "COMFAC_ID": 23305, "PID": 7501027, "COM_TYPE1": "State police and emergency", "COM_TYPE2": "State Emergency Service unit", "NAME": "SES Brighton", "UFI": "{db23a0e2-1192-432c-abf5-3a5ba31a4522}", "CREATED_ON": "2016-11-23 10:54:04", "LIST_GUID": "{ec7d08f3-acc1-4730-a2ba-17b89f302664}", "NOM_REG_NO": null }, "geometry": { "type": "Point", "coordinates": [ 147.250666378469589, -42.700902476779312 ] } },
{ "type": "Feature", "properties": { "COMFAC_ID": 41249, "PID": 7589997, "COM_TYPE1": "Transport", "COM_TYPE2": "Service Station", "NAME": "Coles Express Brighton", "UFI": "{64cb3f33-c9bd-47e9-8f77-0972d8ee2cd9}", "CREATED_ON": "2016-11-23 10:54:04", "LIST_GUID": "{2aa8fc9b-7c7a-4701-a8dc-96412ce44578}", "NOM_REG_NO": null }, "geometry": { "type": "Point", "coordinates": [ 147.251163758830501, -42.700438303533225 ] } },
{ "type": "Feature", "properties": { "COMFAC_ID": 5505, "PID": 5024394, "COM_TYPE1": "Education and training", "COM_TYPE2": "High School", "NAME": "Jordan River Learning Federation School Farm Campus", "UFI": "{c4dcac46-1b35-4046-bb24-7a2b7616a024}", "CREATED_ON": "2016-11-23 10:54:04", "LIST_GUID": "{267e927e-48dd-4c6c-af54-b77be9803ca0}", "NOM_REG_NO": null }, "geometry": { "type": "Point", "coordinates": [ 147.256286652117296, -42.695900932645358 ] } },
{ "type": "Feature", "properties": { "COMFAC_ID": 56724, "PID": 1869293, "COM_TYPE1": "Council", "COM_TYPE2": "Brighton", "NAME": "Brighton Recycled Water Irrigation Area", "UFI": "{72c79a3d-5b13-4aa9-8f23-3293921bc9cb}", "CREATED_ON": "2016-11-23 10:54:04", "LIST_GUID": "{ab1a4295-5889-4d7d-8c45-dcfdcbe78576}", "NOM_REG_NO": null }, "geometry": { "type": "Point", "coordinates": [ 147.262049002935129, -42.719762952386702 ] } },
{ "type": "Feature", "properties": { "COMFAC_ID": 5514, "PID": 7897885, "COM_TYPE1": "Tourist feature", "COM_TYPE2": "Natural", "NAME": "Bonorong Wildlife Centre", "UFI": "{e1e55af2-ba2b-41ad-9fcd-060c3dd88859}", "CREATED_ON": "2016-11-23 10:54:04", "LIST_GUID": "{f2108f19-1448-4114-a382-b6225ab7a2c6}", "NOM_REG_NO": null }, "geometry": { "type": "Point", "coordinates": [ 147.271676986558248, -42.708806622721895 ] } },
{ "type": "Feature", "properties": { "COMFAC_ID": 36107, "PID": 5019958, "COM_TYPE1": "Tourist feature", "COM_TYPE2": "Industrial", "NAME": "Twelve Stones Cellar Door", "UFI": "{7a275273-1544-40ad-80b1-75317a6c9f2f}", "CREATED_ON": "2016-12-01 11:19:26", "LIST_GUID": "{e3729fdd-5b69-426b-8fc4-179be6e6c3df}", "NOM_REG_NO": null }, "geometry": { "type": "Point", "coordinates": [ 147.265477311249555, -42.686739238911215 ] } },
{ "type": "Feature", "properties": { "COMFAC_ID": 34113, "PID": 7804271, "COM_TYPE1": "Accommodation", "COM_TYPE2": "Holiday Unit\/ Flat", "NAME": "Lythgos Row Colonial Cottages", "UFI": "{12022d09-af0e-42e5-a9fe-8533cebab85a}", "CREATED_ON": "2016-11-23 10:54:04", "LIST_GUID": "{1f0b2d59-2ff6-41cd-bc71-f566f21321de}", "NOM_REG_NO": null }, "geometry": { "type": "Point", "coordinates": [ 147.266116150057144, -42.684961802428987 ] } },
{ "type": "Feature", "properties": { "COMFAC_ID": 29205, "PID": 2766536, "COM_TYPE1": "Commonwealth government", "COM_TYPE2": "Defence", "NAME": "TC Simpson Range", "UFI": "{821c023c-d0aa-4c47-9e5b-0fc8fcbd2f4f}", "CREATED_ON": "2016-11-23 10:54:04", "LIST_GUID": "{ff0dc4bb-3957-4851-8ad6-d5796419d56a}", "NOM_REG_NO": null }, "geometry": { "type": "Point", "coordinates": [ 147.274543867184349, -42.678178025769114 ] } },
{ "type": "Feature", "properties": { "COMFAC_ID": 56730, "PID": 5015682, "COM_TYPE1": "Ground", "COM_TYPE2": "Burial ground", "NAME": "Gagebrook Uniting Church Cemetery", "UFI": "{d0bf5e32-6a62-4ef9-89a6-62a46f15522d}", "CREATED_ON": "2016-11-23 10:54:04", "LIST_GUID": "{7089ee66-ba13-4ee8-9e0d-b81dcb4c392c}", "NOM_REG_NO": null }, "geometry": { "type": "Point", "coordinates": [ 147.281640328184295, -42.746976435544745 ] } },
{ "type": "Feature", "properties": { "COMFAC_ID": 5455, "PID": 7142204, "COM_TYPE1": "Sports complex", "COM_TYPE2": "Other", "NAME": "Baskerville Raceway", "UFI": "{7c9814a7-08c3-4533-8ef5-06a858921ee6}", "CREATED_ON": "2016-11-23 10:54:04", "LIST_GUID": "{ad626163-b041-4038-ac52-d5c8ced23770}", "NOM_REG_NO": null }, "geometry": { "type": "Point", "coordinates": [ 147.295216079197502, -42.74649179259837 ] } },
{ "type": "Feature", "properties": { "COMFAC_ID": 36025, "PID": 5014997, "COM_TYPE1": "State police and emergency", "COM_TYPE2": "Fire station", "NAME": "Tea Tree Fire Station", "UFI": "{cc11b43b-d642-47e6-807b-5f4c9e0df799}", "CREATED_ON": "2016-11-23 10:54:04", "LIST_GUID": "{088bf9ef-ea7f-4151-a69f-38ffdf01829e}", "NOM_REG_NO": null }, "geometry": { "type": "Point", "coordinates": [ 147.333627347319805, -42.691235046494597 ] } },
{ "type": "Feature", "properties": { "COMFAC_ID": 5525, "PID": 7543470, "COM_TYPE1": "Church", "COM_TYPE2": "Anglican Church", "NAME": "St Thomas Anglican Church", "UFI": "{17f1aa8b-9f0b-4cbd-848c-6a710f0c3787}", "CREATED_ON": "2016-11-23 10:54:04", "LIST_GUID": "{721380ac-0184-45d2-a090-3e52183304d2}", "NOM_REG_NO": null }, "geometry": { "type": "Point", "coordinates": [ 147.344749926591419, -42.691490288942312 ] } },
{ "type": "Feature", "properties": { "COMFAC_ID": 5445, "PID": 5016124, "COM_TYPE1": "Club", "COM_TYPE2": "Cricket", "NAME": "Old Beach Cricket Club", "UFI": "{d254ec06-1514-4a04-b077-5c56477d22b7}", "CREATED_ON": "2016-11-23 10:54:04", "LIST_GUID": "{a46db793-5500-4485-919b-deab3ec8a5cc}", "NOM_REG_NO": null }, "geometry": { "type": "Point", "coordinates": [ 147.269164382576918, -42.776646363157518 ] } },
{ "type": "Feature", "properties": { "COMFAC_ID": 60804, "PID": 5035149, "COM_TYPE1": "Club", "COM_TYPE2": "Other social", "NAME": "Veterans Memorial Centre", "UFI": "{57e51e1a-2724-4510-a26b-309c0af9e6e4}", "CREATED_ON": "2016-11-23 10:54:04", "LIST_GUID": "{94732fc1-19c5-4dff-adba-3c109b674bd3}", "NOM_REG_NO": null }, "geometry": { "type": "Point", "coordinates": [ 147.227497502105535, -42.736527195961791 ] } },
{ "type": "Feature", "properties": { "COMFAC_ID": 5471, "PID": 5034197, "COM_TYPE1": "Education and training", "COM_TYPE2": "High School", "NAME": "Jordan River Learning Federation - Senior & Middle School", "UFI": "{3046fa85-97b2-43b5-a26d-dc2742e36da4}", "CREATED_ON": "2016-11-23 10:54:04", "LIST_GUID": "{e952cc51-7c89-4dfe-b568-5637cf0b48be}", "NOM_REG_NO": null }, "geometry": { "type": "Point", "coordinates": [ 147.240237381021814, -42.738378648534969 ] } },
{ "type": "Feature", "properties": { "COMFAC_ID": 61394, "PID": 5031754, "COM_TYPE1": "State Government", "COM_TYPE2": "Health and Human Services", "NAME": "Housing Tasmania Bridgewater", "UFI": "{521e5742-f3d1-4c6c-bad5-a62fad46031a}", "CREATED_ON": "2016-11-23 10:54:04", "LIST_GUID": "{33fdf97d-6f1f-43f5-8a9c-f344700a50fa}", "NOM_REG_NO": null }, "geometry": { "type": "Point", "coordinates": [ 147.244307216131261, -42.739582134305117 ] } },
{ "type": "Feature", "properties": { "COMFAC_ID": 41267, "PID": 5031615, "COM_TYPE1": "Transport", "COM_TYPE2": "Service Station", "NAME": "United Bridgewater", "UFI": "{61e99372-0173-43b7-b103-3cd262aad512}", "CREATED_ON": "2016-11-23 10:54:04", "LIST_GUID": "{e568aa35-6026-4b41-a7de-56102bb8c805}", "NOM_REG_NO": null }, "geometry": { "type": "Point", "coordinates": [ 147.246211293095911, -42.739057521261557 ] } },
{ "type": "Feature", "properties": { "COMFAC_ID": 5472, "PID": 5026779, "COM_TYPE1": "Education and training", "COM_TYPE2": "Primary and infant", "NAME": "JRLF - East Derwent Primary School", "UFI": "{7d3d03c7-0c7c-4d2e-81fd-936bebf54451}", "CREATED_ON": "2016-11-23 10:54:04", "LIST_GUID": "{e1e19dce-18a6-4c3d-a6b4-9f88eb2e167c}", "NOM_REG_NO": null }, "geometry": { "type": "Point", "coordinates": [ 147.249817951636913, -42.743168769424159 ] } },
{ "type": "Feature", "properties": { "COMFAC_ID": 5463, "PID": 1963618, "COM_TYPE1": "State police and emergency", "COM_TYPE2": "Fire station", "NAME": "Bridgewater Fire Station", "UFI": "{bc442943-a0da-4065-83dc-4f997fa44b04}", "CREATED_ON": "2016-11-23 10:54:04", "LIST_GUID": "{84485387-8771-4fb4-9a49-d8f320a9e273}", "NOM_REG_NO": null }, "geometry": { "type": "Point", "coordinates": [ 147.250995873441241, -42.7371939306285 ] } },
{ "type": "Feature", "properties": { "COMFAC_ID": 5465, "PID": 7497953, "COM_TYPE1": "State police and emergency", "COM_TYPE2": "Ambulance station", "NAME": "Bridgewater Ambulance Station", "UFI": "{4f9ea9e5-f0ce-42e7-8c2a-6dc341f7efb0}", "CREATED_ON": "2016-11-23 10:54:04", "LIST_GUID": "{3cd498f5-a0ce-4cd6-9c28-ae5756379e3d}", "NOM_REG_NO": null }, "geometry": { "type": "Point", "coordinates": [ 147.251131442010973, -42.737221046190619 ] } },
{ "type": "Feature", "properties": { "COMFAC_ID": 56728, "PID": 1823391, "COM_TYPE1": "Ground", "COM_TYPE2": "Park or reserve", "NAME": "Tottenham Park", "UFI": "{1810e9bd-2591-41fb-865c-2d0f2bcb5e88}", "CREATED_ON": "2016-11-23 10:54:04", "LIST_GUID": "{c8d80cc2-4f90-4c05-a54f-5093b88f9f87}", "NOM_REG_NO": null }, "geometry": { "type": "Point", "coordinates": [ 147.268274820210536, -42.746486357939347 ] } },
{ "type": "Feature", "properties": { "COMFAC_ID": 59004, "PID": 7248068, "COM_TYPE1": "Church", "COM_TYPE2": "Uniting Church", "NAME": "Bridgewater-Gagebrook Uniting Church", "UFI": "{fb74c1d0-10f4-4423-b4cc-1eff04746626}", "CREATED_ON": "2016-11-23 10:54:04", "LIST_GUID": "{b4d056a9-02a0-4826-af42-236c0aaf746a}", "NOM_REG_NO": null }, "geometry": { "type": "Point", "coordinates": [ 147.269936081489391, -42.746475493314428 ] } },
{ "type": "Feature", "properties": { "COMFAC_ID": 5508, "PID": 5023551, "COM_TYPE1": "Sports complex", "COM_TYPE2": "Racecourses", "NAME": "Brighton Greyhound Complex", "UFI": "{794b6147-45c7-488b-a80c-ac1dc31f4457}", "CREATED_ON": "2016-11-23 10:54:04", "LIST_GUID": "{4ea094dd-3843-40fb-9e9d-9465f3582408}", "NOM_REG_NO": null }, "geometry": { "type": "Point", "coordinates": [ 147.248413564410072, -42.696104593609853 ] } },
{ "type": "Feature", "properties": { "COMFAC_ID": 56722, "PID": 2061384, "COM_TYPE1": "Commonwealth government", "COM_TYPE2": "Post offices and agencies", "NAME": "Brighton Post Office", "UFI": "{09e125b7-19e2-4d0f-a440-1f1a13a4270d}", "CREATED_ON": "2016-11-23 10:54:04", "LIST_GUID": "{aa13780c-3a4a-483d-aa3c-d36e4faabc14}", "NOM_REG_NO": null }, "geometry": { "type": "Point", "coordinates": [ 147.25267393268561, -42.698674224530833 ] } },
{ "type": "Feature", "properties": { "COMFAC_ID": 61392, "PID": 1129471, "COM_TYPE1": "Transport", "COM_TYPE2": "Service Station", "NAME": "Caltex Brighton", "UFI": "{a6981f13-c0f3-436b-a548-785b65e4821b}", "CREATED_ON": "2016-11-23 10:54:04", "LIST_GUID": "{4a605664-d6eb-40a1-8f7f-63012b890f99}", "NOM_REG_NO": null }, "geometry": { "type": "Point", "coordinates": [ 147.253193067613694, -42.698223601715341 ] } },
{ "type": "Feature", "properties": { "COMFAC_ID": 5492, "PID": 2745989, "COM_TYPE1": "Club", "COM_TYPE2": "Bowls", "NAME": "Brighton Bowls Club", "UFI": "{3f32b0d4-9d0e-4b7e-91ad-31ad5121b14e}", "CREATED_ON": "2016-11-23 10:54:04", "LIST_GUID": "{cde16d18-2b99-47ed-89f5-98d04d1e5e51}", "NOM_REG_NO": null }, "geometry": { "type": "Point", "coordinates": [ 147.254147410655037, -42.695644609757949 ] } },
{ "type": "Feature", "properties": { "COMFAC_ID": 5493, "PID": 7676265, "COM_TYPE1": "Club", "COM_TYPE2": "Football", "NAME": "Brighton Football Club", "UFI": "{c4ad2a81-6a39-402e-bd01-86000c9ceced}", "CREATED_ON": "2016-11-23 10:54:04", "LIST_GUID": "{94f7dd27-b03f-46d2-941f-b1ba678cd4fc}", "NOM_REG_NO": null }, "geometry": { "type": "Point", "coordinates": [ 147.262583887028256, -42.686637832242923 ] } },
{ "type": "Feature", "properties": { "COMFAC_ID": 57361, "PID": 5020166, "COM_TYPE1": "Ground", "COM_TYPE2": "Picnic Area", "NAME": "Picnic Area", "UFI": "{f1110a0a-fc3c-4fc6-8d34-17b0555b9883}", "CREATED_ON": "2016-11-23 10:54:04", "LIST_GUID": "{16756966-e18c-4df7-9bfb-024cfe79d5ea}", "NOM_REG_NO": null }, "geometry": { "type": "Point", "coordinates": [ 147.265090126784798, -42.683745852431798 ] } },
{ "type": "Feature", "properties": { "COMFAC_ID": 52153, "PID": 5019894, "COM_TYPE1": "Ground", "COM_TYPE2": "Burial ground", "NAME": "Pontville Uniting Church Cemetery", "UFI": "{b92d6072-05fc-49bd-a824-1147100d5617}", "CREATED_ON": "2016-11-23 10:54:04", "LIST_GUID": "{faf4f9e9-6420-4ddf-924f-ebb9f6003164}", "NOM_REG_NO": null }, "geometry": { "type": "Point", "coordinates": [ 147.268363556238796, -42.686046891739565 ] } },
{ "type": "Feature", "properties": { "COMFAC_ID": 5496, "PID": 5051624, "COM_TYPE1": "Club", "COM_TYPE2": "Golf", "NAME": "Tea Tree Golf Club", "UFI": "{4ed998bd-eada-4758-973b-9a546d89bd59}", "CREATED_ON": "2016-11-23 10:54:04", "LIST_GUID": "{174306ed-978b-48a5-afaf-1496cc2d73ed}", "NOM_REG_NO": null }, "geometry": { "type": "Point", "coordinates": [ 147.276670481451134, -42.689387469347963 ] } },
{ "type": "Feature", "properties": { "COMFAC_ID": 36085, "PID": 2936777, "COM_TYPE1": "Tourist feature", "COM_TYPE2": "Industrial", "NAME": "Woodlands Wines", "UFI": "{340e313c-6604-4544-baab-2a77868c2dfe}", "CREATED_ON": "2016-11-23 10:54:04", "LIST_GUID": "{c9dbac92-e67c-42cf-a027-5e3a7a129efa}", "NOM_REG_NO": null }, "geometry": { "type": "Point", "coordinates": [ 147.341935240017278, -42.692453315482766 ] } },
{ "type": "Feature", "properties": { "COMFAC_ID": 61648, "PID": 5015412, "COM_TYPE1": "Tourist feature", "COM_TYPE2": "Industrial", "NAME": "Pages Creek Estate", "UFI": "{4eac35e8-e4fb-4f83-90af-2715cc2e6e46}", "CREATED_ON": "2016-11-23 10:54:04", "LIST_GUID": "{a3b1950e-450e-47c6-a320-4f73243883b2}", "NOM_REG_NO": null }, "geometry": { "type": "Point", "coordinates": [ 147.374507662311373, -42.708883727045993 ] } }
]
}
