{"type":"FeatureCollection","features":[{"type":"Feature","properties":{"OBJECTID":2,"Artist":"Greg Duncan","Title":"Bust of Cecil Voss","Date":1998,"Materials":"Stone","Address":"Soundy Park","Description":"Stone Sculpture","Asset_ID":null,"Number":1,"Type":"Art","URL_1":"http://hccapps.hobartcity.com.au/gis/PublicArt/image44.jpeg","URL_2":null,"Check_Image":null},"geometry":{"type":"Point","coordinates":[147.31949317719392,-42.8727431225496]}},{"type":"Feature","properties":{"OBJECTID":3,"Artist":"Julie Stoneman (Community Facilitator)","Title":"Community Paving Project","Date":1994,"Materials":"Pavers","Address":"Elizabeth Street and side streets, North Hobart","Description":null,"Asset_ID":null,"Number":2,"Type":"Art","URL_1":"http://hccapps.hobartcity.com.au/gis/PublicArt/IMG_0003.JPG","URL_2":null,"Check_Image":"No"},"geometry":{"type":"Point","coordinates":[147.31550233648179,-42.87335406456058]}},{"type":"Feature","properties":{"OBJECTID":5,"Artist":"Gerhardt Mauz/Kieran Bradley","Title":"Lightpoles","Date":2005,"Materials":"Steel","Address":"Elizabeth Street","Description":"Lightpoles and Photography","Asset_ID":null,"Number":3,"Type":"Art","URL_1":"http://hccapps.hobartcity.com.au/gis/PublicArt/image47.jpeg","URL_2":null,"Check_Image":"No"},"geometry":{"type":"Point","coordinates":[147.31462467799935,-42.8724802622841]}},{"type":"Feature","properties":{"OBJECTID":6,"Artist":"Peter Gouldthorpe","Title":"Tony Haigh Walk","Date":2000,"Materials":null,"Address":null,"Description":"2 Trompe l'oeil murals","Asset_ID":"94451","Number":4,"Type":"Art","URL_1":"http://hccapps.hobartcity.com.au/gis/PublicArt/image48.jpeg","URL_2":null,"Check_Image":null},"geometry":{"type":"Point","coordinates":[147.31606845552577,-42.87390719414243]}},{"type":"Feature","properties":{"OBJECTID":7,"Artist":"Gehard Mausz","Title":"Cultural Bollard","Date":2000,"Materials":"Steel","Address":"Elizabeth Street","Description":"Patterened Steel Cylinder","Asset_ID":null,"Number":5,"Type":"Art","URL_1":"http://hccapps.hobartcity.com.au/gis/PublicArt/image49.jpeg","URL_2":null,"Check_Image":null},"geometry":{"type":"Point","coordinates":[147.31592461232972,-42.873671523147344]}},{"type":"Feature","properties":{"OBJECTID":8,"Artist":"Peter Battaglene","Title":"Art Pavers","Date":2005,"Materials":"pavers","Address":"Elizabeth Street","Description":"Sandblasted decorative pavers","Asset_ID":null,"Number":6,"Type":"Art","URL_1":"http://hccapps.hobartcity.com.au/gis/PublicArt/IMG_0003.JPG","URL_2":null,"Check_Image":"No"},"geometry":{"type":"Point","coordinates":[147.31586829934577,-42.87364565236186]}},{"type":"Feature","properties":{"OBJECTID":9,"Artist":"Sharyn Woods","Title":"Fences","Date":2005,"Materials":"Stainless Steel","Address":null,"Description":"Sections of open patterned stainless steel fencing","Asset_ID":null,"Number":7,"Type":"Art","URL_1":"http://hccapps.hobartcity.com.au/gis/PublicArt/image51.jpeg","URL_2":null,"Check_Image":"No"},"geometry":{"type":"Point","coordinates":[147.314837027175,-42.87272378561919]}},{"type":"Feature","properties":{"OBJECTID":10,"Artist":"Sharyn Woods","Title":"Tree Guards","Date":2005,"Materials":"stainless steel","Address":"Elizabeth Street","Description":"welded stainless strip boxes","Asset_ID":null,"Number":8,"Type":null,"URL_1":"http://hccapps.hobartcity.com.au/gis/PublicArt/image50.jpeg","URL_2":null,"Check_Image":"No"},"geometry":{"type":"Point","coordinates":[147.31519846799245,-42.873030574537125]}},{"type":"Feature","properties":{"OBJECTID":11,"Artist":"Roland Gabatel","Title":"Tree Sculpture","Date":2000,"Materials":"Timber","Address":"Friends Park, Mellifont Street.","Description":"Chainsaw sculpture","Asset_ID":null,"Number":9,"Type":null,"URL_1":"http://hccapps.hobartcity.com.au/gis/PublicArt/image52.jpeg","URL_2":null,"Check_Image":null},"geometry":{"type":"Point","coordinates":[147.3084070417308,-42.87672267866006]}},{"type":"Feature","properties":{"OBJECTID":12,"Artist":"Peter Taylor","Title":"Archway","Date":1988,"Materials":"Timber","Address":"Hunter Street, Universtiy of Tasmania Art School","Description":null,"Asset_ID":null,"Number":10,"Type":null,"URL_1":"http://hccapps.hobartcity.com.au/gis/PublicArt/IMG_0066.JPG","URL_2":"http://hccapps.hobartcity.com.au/gis/PublicArt/IMG_0067.JPG","Check_Image":null},"geometry":{"type":"Point","coordinates":[147.3363089134809,-42.88144240159926]}},{"type":"Feature","properties":{"OBJECTID":13,"Artist":"Stephen Walker","Title":"The Bernacchi Tribute: Self Portrait, Lous and Joe","Date":1988,"Materials":"Bronze","Address":"Victoria Dock","Description":"Bronze sculpture","Asset_ID":null,"Number":11,"Type":null,"URL_1":"http://hccapps.hobartcity.com.au/gis/PublicArt/IMG_0063.jpg","URL_2":"http://hccapps.hobartcity.com.au/gis/PublicArt/IMG_0064.jpg","Check_Image":null},"geometry":{"type":"Point","coordinates":[147.3351723782548,-42.88225238834132]}},{"type":"Feature","properties":{"OBJECTID":14,"Artist":"David Hurst","Title":"Troyseas","Date":2004,"Materials":"Bronze","Address":"Mures Fish Centre, waterfront","Description":"Bronze seahorse","Asset_ID":null,"Number":12,"Type":null,"URL_1":"http://hccapps.hobartcity.com.au/gis/PublicArt/IMG_0078.JPG","URL_2":null,"Check_Image":null},"geometry":{"type":"Point","coordinates":[147.33370982702655,-42.882286529327025]}},{"type":"Feature","properties":{"OBJECTID":15,"Artist":"Iam Makay","Title":"Bright Prospect","Date":1979,"Materials":"Steel, Paint","Address":"TMAG, 40 Macquarie Street","Description":"Orange painted constructavist steel sculpture ","Asset_ID":null,"Number":13,"Type":null,"URL_1":"http://hccapps.hobartcity.com.au/gis/PublicArt/IMG_0071.jpg","URL_2":null,"Check_Image":null},"geometry":{"type":"Point","coordinates":[147.33194164608673,-42.88163573405019]}},{"type":"Feature","properties":{"OBJECTID":16,"Artist":"John Arnold","Title":"Mural, Kent & Kent Antiques","Date":1998,"Materials":"Paint","Address":"On the wall of Kent and Kent Antiques","Description":"Painted Mural","Asset_ID":null,"Number":14,"Type":"Public Art","URL_1":"http://hccapps.hobartcity.com.au/gis/PublicArt/image34.jpeg","URL_2":null,"Check_Image":null},"geometry":{"type":"Point","coordinates":[147.3321544209718,-42.88295423519236]}},{"type":"Feature","properties":{"OBJECTID":17,"Artist":"Stephen Walker","Title":"Tidal Pools","Date":1970,"Materials":"Bronze","Address":"Long Beach, Sandy Bay","Description":"Bronze sculpture","Asset_ID":"59355","Number":15,"Type":null,"URL_1":"http://hccapps.hobartcity.com.au/gis/PublicArt/IMG_0059.jpg","URL_2":"http://hccapps.hobartcity.com.au/gis/PublicArt/IMG_0057.jpg","Check_Image":null},"geometry":{"type":"Point","coordinates":[147.35649000531657,-42.91233705658434]}},{"type":"Feature","properties":{"OBJECTID":18,"Artist":"Stephen Walker","Title":"Tasman Monument","Date":1988,"Materials":"Concrete, Steel, Bronze","Address":"Salamanca Place","Description":"Concrete forms incorporating bronze sculptures","Asset_ID":null,"Number":16,"Type":null,"URL_1":"http://hccapps.hobartcity.com.au/gis/PublicArt/image33.jpeg","URL_2":null,"Check_Image":null},"geometry":{"type":"Point","coordinates":[147.33157170737837,-42.886334219256874]}},{"type":"Feature","properties":{"OBJECTID":19,"Artist":"Stephen Walker","Title":"Journey to Southland","Date":1979,"Materials":"Bronze, concrete","Address":"Salamanca Square","Description":"circular fountain with bronze sculptures","Asset_ID":null,"Number":17,"Type":"Public Art","URL_1":"http://hccapps.hobartcity.com.au/gis/PublicArt/image40.jpeg","URL_2":null,"Check_Image":null},"geometry":{"type":"Point","coordinates":[147.33279166264353,-42.887367730527664]}},{"type":"Feature","properties":{"OBJECTID":20,"Artist":"Peter Wilson","Title":"Wave","Date":1998,"Materials":"Aluminium, Steel","Address":"Salamanca Square","Description":"sculpture in painted steel and aluminium","Asset_ID":null,"Number":18,"Type":null,"URL_1":"http://hccapps.hobartcity.com.au/gis/PublicArt/IMG_0087.JPG","URL_2":null,"Check_Image":null},"geometry":{"type":"Point","coordinates":[147.33234080458027,-42.88746172408802]}},{"type":"Feature","properties":{"OBJECTID":21,"Artist":"Keizo Ushio","Title":"Gift from the Earth","Date":2001,"Materials":"Granite, timber","Address":"A J White Park, Battery Poing","Description":"Granite sculpture","Asset_ID":"74963","Number":20,"Type":null,"URL_1":"http://hccapps.hobartcity.com.au/gis/PublicArt/image41.jpeg","URL_2":null,"Check_Image":null},"geometry":{"type":"Point","coordinates":[147.3380769568636,-42.88919132741534]}},{"type":"Feature","properties":{"OBJECTID":22,"Artist":"Joe Burgden, Bernard Lloyd, Sound Connections","Title":"Victoria Cross Memorial","Date":2003,"Materials":"Rammed earth, glass","Address":"Cenotaph, Hobart","Description":"Rammed Earth and glass monument","Asset_ID":null,"Number":21,"Type":null,"URL_1":"http://hccapps.hobartcity.com.au/gis/PublicArt/image38.jpeg","URL_2":null,"Check_Image":null},"geometry":{"type":"Point","coordinates":[147.33582116701982,-42.87752379007446]}},{"type":"Feature","properties":{"OBJECTID":23,"Artist":"Penny Smith, Mialn Milojevic, John Smith","Title":"Wapping History Wall","Date":1998,"Materials":"Concrete, Brick","Address":"Collins Street, Brooker Highway","Description":null,"Asset_ID":null,"Number":22,"Type":"Public Art","URL_1":"http://hccapps.hobartcity.com.au/gis/PublicArt/image23.jpeg","URL_2":null,"Check_Image":null},"geometry":{"type":"Point","coordinates":[147.33303616239058,-42.87880638531607]}},{"type":"Feature","properties":{"OBJECTID":24,"Artist":"Geoff Parr, Vere Cooper, Rod Cuthbert","Title":"Railway Roundabout Fountain","Date":1963,"Materials":"Concrete","Address":"Brooker Highway","Description":"Fountain","Asset_ID":null,"Number":23,"Type":null,"URL_1":"http://hccapps.hobartcity.com.au/gis/PublicArt/image22.jpeg","URL_2":null,"Check_Image":null},"geometry":{"type":"Point","coordinates":[147.33102599886706,-42.878044798323636]}},{"type":"Feature","properties":{"OBJECTID":25,"Artist":"Christopher Beecroft","Title":"Minute Man","Date":1986,"Materials":"Steel","Address":"TAS HQ Campbell and Melville Street","Description":"Welded mild steel sculpture","Asset_ID":null,"Number":24,"Type":null,"URL_1":"http://hccapps.hobartcity.com.au/gis/PublicArt/IMG_00101.JPG","URL_2":null,"Check_Image":null},"geometry":{"type":"Point","coordinates":[147.32709834459988,-42.877450309438586]}},{"type":"Feature","properties":{"OBJECTID":26,"Artist":"Glen Clake","Title":"Brick","Date":1998,"Materials":"Metal","Address":"Hobart Remand Centre, 23 - 25 Liverpool Street.","Description":null,"Asset_ID":null,"Number":25,"Type":null,"URL_1":"http://hccapps.hobartcity.com.au/gis/PublicArt/Brick (2).jpg","URL_2":null,"Check_Image":null},"geometry":{"type":"Point","coordinates":[147.32936731939114,-42.879201008581525]}},{"type":"Feature","properties":{"OBJECTID":27,"Artist":"Hobart City Council","Title":"Hobart Rivulet Interpretaions","Date":1998,"Materials":"Steel","Address":"Argyle Street","Description":"Two rectangular steel panels","Asset_ID":null,"Number":26,"Type":"Art","URL_1":"http://hccapps.hobartcity.com.au/gis/PublicArt/image16.jpeg","URL_2":null,"Check_Image":null},"geometry":{"type":"Point","coordinates":[147.32898029977156,-42.88059520851069]}},{"type":"Feature","properties":{"OBJECTID":28,"Artist":"Tom Samek","Title":"Inspiration","Date":1990,"Materials":"","Address":"25 Argyle Street.","Description":"Sculpture on column","Asset_ID":null,"Number":27,"Type":null,"URL_1":"http://hccapps.hobartcity.com.au/gis/PublicArt/IMG_0095.JPG","URL_2":null,"Check_Image":null},"geometry":{"type":"Point","coordinates":[147.3304819582173,-42.88150582068632]}},{"type":"Feature","properties":{"OBJECTID":29,"Artist":"Irene Bryant","Title":"Duality","Date":1991,"Materials":"Concrete, Steel","Address":"70 Collins Street","Description":"Ferro-cement sculpture","Asset_ID":null,"Number":28,"Type":null,"URL_1":"http://hccapps.hobartcity.com.au/gis/PublicArt/IMG_0093.JPG","URL_2":null,"Check_Image":null},"geometry":{"type":"Point","coordinates":[147.32982088224168,-42.881479135290306]}},{"type":"Feature","properties":{"OBJECTID":30,"Artist":"Sharyn Woods","Title":"Tree Guards","Date":1999,"Materials":"stainless steel","Address":"Commonwealth Bank corner Elizabeth Street","Description":null,"Asset_ID":null,"Number":29,"Type":null,"URL_1":"http://hccapps.hobartcity.com.au/gis/PublicArt/image20.jpeg","URL_2":null,"Check_Image":null},"geometry":{"type":"Point","coordinates":[147.3270346495125,-42.88115911197071]}},{"type":"Feature","properties":{"OBJECTID":31,"Artist":"Wayne Hudson, Helene Czerny","Title":"City Women","Date":1998,"Materials":"steel","Address":"Elizabeth Lane, Cat and Fiddle aracde.","Description":"steel wall mounted sculpture","Asset_ID":null,"Number":30,"Type":null,"URL_1":"http://hccapps.hobartcity.com.au/gis/PublicArt/image17.jpeg","URL_2":null,"Check_Image":null},"geometry":{"type":"Point","coordinates":[147.32745530775534,-42.881696789275175]}},{"type":"Feature","properties":{"OBJECTID":32,"Artist":"Wayne Hudson","Title":"Seats with leaning Posts","Date":1998,"Materials":"stainless steel","Address":"Elizabeth Lane, Cat and Fiddle arcade","Description":"-","Asset_ID":null,"Number":31,"Type":"Public Art","URL_1":"http://hccapps.hobartcity.com.au/gis/PublicArt/image18.jpeg","URL_2":null,"Check_Image":null},"geometry":{"type":"Point","coordinates":[147.32732511528573,-42.881890156128264]}},{"type":"Feature","properties":{"OBJECTID":33,"Artist":"Julie Stoneman","Title":"Paving Design","Date":1998,"Materials":"Brick Pavers","Address":"Ctriterion Street","Description":"Brick paving","Asset_ID":null,"Number":32,"Type":null,"URL_1":"http://hccapps.hobartcity.com.au/gis/PublicArt/image19.jpeg","URL_2":null,"Check_Image":null},"geometry":{"type":"Point","coordinates":[147.32592313283766,-42.88144383573657]}},{"type":"Feature","properties":{"OBJECTID":34,"Artist":"Pavement Art","Title":"Chantale Delrue","Date":1990,"Materials":null,"Address":"Mathers Lane","Description":null,"Asset_ID":null,"Number":33,"Type":null,"URL_1":"http://hccapps.hobartcity.com.au/gis/PublicArt/image21.jpeg","URL_2":null,"Check_Image":null},"geometry":{"type":"Point","coordinates":[147.32559660834272,-42.88171834840234]}},{"type":"Feature","properties":{"OBJECTID":35,"Artist":"Ian Chalmers, Lindsay Garity","Title":"Hobart Rivulet Interpretations","Date":1995,"Materials":"steel, concrete","Address":"Murray Street, Centrepoint pedestrian crossing","Description":"Curved steel strips in pavement","Asset_ID":null,"Number":34,"Type":null,"URL_1":"http://hccapps.hobartcity.com.au/gis/PublicArt/image2.jpeg","URL_2":null,"Check_Image":null},"geometry":{"type":"Point","coordinates":[147.3264901811633,-42.88304621457424]}},{"type":"Feature","properties":{"OBJECTID":36,"Artist":"Allan Mansell","Title":"Reaching Out","Date":2004,"Materials":"","Address":"188 Collins Street","Description":"Sculpture and Mural","Asset_ID":null,"Number":35,"Type":"Sculpture and Mural","URL_1":"http://hccapps.hobartcity.com.au/gis/PublicArt/20141203_162834.jpg","URL_2":null,"Check_Image":"No"},"geometry":{"type":"Point","coordinates":[147.32263257174245,-42.88689928836643]}},{"type":"Feature","properties":{"OBJECTID":37,"Artist":"George Davis","Title":"Tile","Date":1964,"Materials":"Tiles","Address":"UTAS Conservatorium of Music","Description":"Tile wall mosaic on building","Asset_ID":null,"Number":36,"Type":null,"URL_1":"http://hccapps.hobartcity.com.au/gis/PublicArt/IMG_0088.JPG","URL_2":null,"Check_Image":null},"geometry":{"type":"Point","coordinates":[147.3281256124001,-42.88677812548379]}},{"type":"Feature","properties":{"OBJECTID":38,"Artist":"Paul Zika","Title":"Paving design","Date":1996,"Materials":"bricks","Address":"Elizabeth Street Mall","Description":"Symmetrical design in coloured bricks","Asset_ID":null,"Number":37,"Type":null,"URL_1":"http://hccapps.hobartcity.com.au/gis/PublicArt/image1.jpeg","URL_2":null,"Check_Image":"Yes"},"geometry":{"type":"Point","coordinates":[147.3274687398049,-42.881456505655876]}},{"type":"Feature","properties":{"OBJECTID":39,"Artist":"Ian Chalmers, Lindsay Garity","Title":"Hobart Rivulet Interpretations","Date":null,"Materials":"steel, concrete","Address":"Murray Street, Centrepoint pedestrian crossing","Description":"Curved steel strips in pavement","Asset_ID":null,"Number":34,"Type":null,"URL_1":"http://hccapps.hobartcity.com.au/gis/PublicArt/image2.jpeg","URL_2":null,"Check_Image":null},"geometry":{"type":"Point","coordinates":[147.32657876898048,-42.882968754379895]}},{"type":"Feature","properties":{"OBJECTID":40,"Artist":"Milan Milojevic, Lindsay Garity, Ian Chalmers","Title":"Hobart Rivulet Interpretations","Date":1996,"Materials":"steel, concrete","Address":"Elizabeth Street Mall","Description":null,"Asset_ID":null,"Number":38,"Type":null,"URL_1":"http://hccapps.hobartcity.com.au/gis/PublicArt/image14.jpeg","URL_2":null,"Check_Image":"No"},"geometry":{"type":"Point","coordinates":[147.32766992465466,-42.881489953741074]}},{"type":"Feature","properties":{"OBJECTID":41,"Artist":"Patrick Wall","Title":"Fish out of water","Date":1996,"Materials":"Aluminium","Address":"Elizabeth Street Mall","Description":"Aluminum fish drinking fountain","Asset_ID":null,"Number":39,"Type":null,"URL_1":"http://hccapps.hobartcity.com.au/gis/PublicArt/image4.jpeg","URL_2":null,"Check_Image":null},"geometry":{"type":"Point","coordinates":[147.32855444662297,-42.88197809056592]}},{"type":"Feature","properties":{"OBJECTID":42,"Artist":"Patrick Hall","Title":"Thompson the Dog","Date":1996,"Materials":"Timber","Address":"Elizabeth Street Mall","Description":"Timber dog","Asset_ID":null,"Number":40,"Type":null,"URL_1":"http://hccapps.hobartcity.com.au/gis/PublicArt/image5.jpeg","URL_2":null,"Check_Image":null},"geometry":{"type":"Point","coordinates":[147.32840895974815,-42.88191256512046]}},{"type":"Feature","properties":{"OBJECTID":43,"Artist":"Patrick Hall","Title":"Maurice the Pig","Date":1996,"Materials":"Hebel block, paint","Address":"Elizabeth Street Mall","Description":"Moulded hebel block, painted white pig sculpture","Asset_ID":null,"Number":41,"Type":null,"URL_1":"http://hccapps.hobartcity.com.au/gis/PublicArt/image6.jpeg","URL_2":null,"Check_Image":null},"geometry":{"type":"Point","coordinates":[147.32848104617895,-42.88194232514448]}},{"type":"Feature","properties":{"OBJECTID":44,"Artist":"Patrick Hall","Title":"Street Signs - Wellington Walk","Date":1996,"Materials":"steel, ceramic tiles","Address":"Elizabeth Street Mall","Description":"Wellington Walk - Wellington Crt","Asset_ID":null,"Number":42,"Type":null,"URL_1":"http://hccapps.hobartcity.com.au/gis/PublicArt/IMG_0098.JPG","URL_2":null,"Check_Image":null},"geometry":{"type":"Point","coordinates":[147.3277721519491,-42.88152230341175]}},{"type":"Feature","properties":{"OBJECTID":45,"Artist":"Patrick Hall","Title":"Street Signs - Purdys Mart","Date":1996,"Materials":"steel","Address":"Collins Street","Description":"Purdys Mart","Asset_ID":null,"Number":42,"Type":null,"URL_1":"http://hccapps.hobartcity.com.au/gis/PublicArt/IMG_0092.JPG","URL_2":null,"Check_Image":null},"geometry":{"type":"Point","coordinates":[147.32914235062398,-42.88177689026766]}},{"type":"Feature","properties":{"OBJECTID":46,"Artist":"Patrick Hall","Title":"Street Signs - Kemp Street","Date":1996,"Materials":"steel","Address":"Collins Street","Description":"Kemp Street","Asset_ID":null,"Number":42,"Type":null,"URL_1":"http://hccapps.hobartcity.com.au/gis/PublicArt/IMG_0091.JPG","URL_2":null,"Check_Image":null},"geometry":{"type":"Point","coordinates":[147.32947727127274,-42.8815183267847]}},{"type":"Feature","properties":{"OBJECTID":47,"Artist":"Patrick Hall","Title":"Street Signs","Date":1996,"Materials":"steel","Address":"Argyle Street","Description":"","Asset_ID":null,"Number":42,"Type":null,"URL_1":"http://hccapps.hobartcity.com.au/gis/PublicArt/IMG_0094.JPG","URL_2":null,"Check_Image":null},"geometry":{"type":"Point","coordinates":[147.3293200995748,-42.880886296759314]}},{"type":"Feature","properties":{"OBJECTID":48,"Artist":"Patrick Hall","Title":"Street Signs - Bank Arcade","Date":1996,"Materials":"steel","Address":" Liverpool Street","Description":"","Asset_ID":null,"Number":42,"Type":null,"URL_1":"http://hccapps.hobartcity.com.au/gis/PublicArt/IMG_0097.JPG","URL_2":null,"Check_Image":null},"geometry":{"type":"Point","coordinates":[147.3276753763854,-42.88091635935886]}},{"type":"Feature","properties":{"OBJECTID":49,"Artist":"Patrick Hall","Title":"Street Signs","Date":1996,"Materials":"steel, ceramic tiles","Address":"Elizabeth Street Mall","Description":"Bank Arcade","Asset_ID":null,"Number":42,"Type":"Public Art","URL_1":"http://hccapps.hobartcity.com.au/gis/PublicArt/image8.jpeg","URL_2":null,"Check_Image":null},"geometry":{"type":"Point","coordinates":[147.32742302001418,-42.88136247464535]}},{"type":"Feature","properties":{"OBJECTID":50,"Artist":"Patrick Hall","Title":"Street Signs - Soundys Lane","Date":1996,"Materials":"steel","Address":"Elizabeth Street Mall","Description":"","Asset_ID":null,"Number":42,"Type":null,"URL_1":"http://hccapps.hobartcity.com.au/gis/PublicArt/IMG_0099.JPG","URL_2":null,"Check_Image":null},"geometry":{"type":"Point","coordinates":[147.32794620129667,-42.88160303880302]}},{"type":"Feature","properties":{"OBJECTID":51,"Artist":"Patrick Hall","Title":"Granite Stories","Date":1996,"Materials":"Granite","Address":"Elizabeth Street Mall","Description":"Engravings to granite blocks in seating","Asset_ID":null,"Number":43,"Type":null,"URL_1":"http://hccapps.hobartcity.com.au/gis/PublicArt/image9.jpeg","URL_2":null,"Check_Image":"No"},"geometry":{"type":"Point","coordinates":[147.32830556540225,-42.88185243992315]}},{"type":"Feature","properties":{"OBJECTID":52,"Artist":"Carol Rodwell","Title":"police box mural","Date":1998,"Materials":"paint","Address":"Elizabeth Street Mall","Description":"painted mural","Asset_ID":null,"Number":44,"Type":null,"URL_1":"http://hccapps.hobartcity.com.au/gis/PublicArt/image11.jpeg","URL_2":null,"Check_Image":null},"geometry":{"type":"Point","coordinates":[147.32837181194247,-42.881820084029016]}},{"type":"Feature","properties":{"OBJECTID":53,"Artist":"Sharyn Woods","Title":"Wind Shields","Date":1996,"Materials":"stainless steel","Address":"Elizabeth Street Mall","Description":"Curved, woven stainless steel screens","Asset_ID":null,"Number":45,"Type":null,"URL_1":"http://hccapps.hobartcity.com.au/gis/PublicArt/image10.jpeg","URL_2":null,"Check_Image":null},"geometry":{"type":"Point","coordinates":[147.32873257245055,-42.88203348754708]}},{"type":"Feature","properties":{"OBJECTID":54,"Artist":"Paul Zika","Title":"Paving design","Date":1996,"Materials":"brick pavers","Address":"Wellington Court","Description":"Symmetrical design in coloured bricks","Asset_ID":null,"Number":46,"Type":null,"URL_1":"http://hccapps.hobartcity.com.au/gis/PublicArt/image12.jpeg","URL_2":null,"Check_Image":null},"geometry":{"type":"Point","coordinates":[147.3283171312989,-42.88128414472624]}},{"type":"Feature","properties":{"OBJECTID":55,"Artist":"Hobart City Council","Title":"Terrazo star","Date":1998,"Materials":"tiles, steel","Address":"Wellington Court","Description":"Terrazo and Bronze strips in paving","Asset_ID":null,"Number":47,"Type":null,"URL_1":"http://hccapps.hobartcity.com.au/gis/PublicArt/image12.jpeg","URL_2":null,"Check_Image":null},"geometry":{"type":"Point","coordinates":[147.32836580479477,-42.88129830099867]}},{"type":"Feature","properties":{"OBJECTID":56,"Artist":"Ken Betlehem","Title":"Jo & Edie","Date":2010,"Materials":"Aluminium","Address":"Tasma Street","Description":"Lazer cut aluminium, human silhouette","Asset_ID":null,"Number":null,"Type":"Bike Rack","URL_1":"http://hccapps.hobartcity.com.au/gis/PublicArt/IMG_0006.JPG","URL_2":null,"Check_Image":"No"},"geometry":{"type":"Point","coordinates":[147.31941921403916,-42.87511021703932]}},{"type":"Feature","properties":{"OBJECTID":57,"Artist":"Ken Betlehem","Title":"Fred","Date":2010,"Materials":"Aluminium","Address":"Tasma Street","Description":"Lazer cut aluminium, human silhouette","Asset_ID":null,"Number":null,"Type":"Bike Rack","URL_1":"http://hccapps.hobartcity.com.au/gis/PublicArt/IMG_0006.JPG","URL_2":null,"Check_Image":"No"},"geometry":{"type":"Point","coordinates":[147.31955181980337,-42.87506098797548]}},{"type":"Feature","properties":{"OBJECTID":58,"Artist":"Ken Betlehem","Title":"Bazza","Date":2010,"Materials":"Aluminium","Address":"Elizabeth St, between Brisbane & Mellville St","Description":"Lazer cut aluminium, human silhouette","Asset_ID":null,"Number":null,"Type":"Bike Rack","URL_1":"http://hccapps.hobartcity.com.au/gis/PublicArt/IMG_0100.JPG","URL_2":null,"Check_Image":null},"geometry":{"type":"Point","coordinates":[147.32383331372029,-42.879881285851816]}},{"type":"Feature","properties":{"OBJECTID":59,"Artist":"Ken Betlehem","Title":"Dazza","Date":2010,"Materials":"Aluminium","Address":"Elizabeth St, between Brisbane & Mellville St","Description":"Lazer cut aluminium, human silhouette","Asset_ID":null,"Number":null,"Type":"Bike Rack","URL_1":"http://hccapps.hobartcity.com.au/gis/PublicArt/IMG_0100.JPG","URL_2":null,"Check_Image":null},"geometry":{"type":"Point","coordinates":[147.3239034639348,-42.87991396745191]}},{"type":"Feature","properties":{"OBJECTID":60,"Artist":"Ken Betlehem","Title":"Gazza","Date":2010,"Materials":"Aluminium","Address":"Elizabeth St, between Brisbane & Mellville St","Description":"Lazer cut aluminium, human silhouette","Asset_ID":null,"Number":null,"Type":"Bike Rack","URL_1":"http://hccapps.hobartcity.com.au/gis/PublicArt/IMG_0100.JPG","URL_2":null,"Check_Image":null},"geometry":{"type":"Point","coordinates":[147.32397653716626,-42.87994807167482]}},{"type":"Feature","properties":{"OBJECTID":61,"Artist":"Ken Betlehem","Title":"Ez","Date":2010,"Materials":"Aluminium","Address":"Golburn & Molle Street","Description":"Lazer cut aluminium, human silhouette","Asset_ID":null,"Number":null,"Type":"Bike Rack","URL_1":"http://hccapps.hobartcity.com.au/gis/PublicArt/IMG_0061.JPG","URL_2":null,"Check_Image":null},"geometry":{"type":"Point","coordinates":[147.31993838516544,-42.88644522408968]}},{"type":"Feature","properties":{"OBJECTID":63,"Artist":"Ken Betlehem","Title":"Fred","Date":2010,"Materials":"Aluminium","Address":"Hunter St","Description":"Lazer cut aluminium, human silhouette","Asset_ID":null,"Number":null,"Type":"Bike Rack","URL_1":"http://hccapps.hobartcity.com.au/gis/PublicArt/IMG_0077.JPG","URL_2":null,"Check_Image":null},"geometry":{"type":"Point","coordinates":[147.33492970446198,-42.88121919675631]}},{"type":"Feature","properties":{"OBJECTID":64,"Artist":"Ken Betlehem","Title":"Fred","Date":2010,"Materials":"Aluminium","Address":"Salamanca Square","Description":"Lazer cut aluminium, human silhouette","Asset_ID":null,"Number":null,"Type":"Bike Rack","URL_1":"http://hccapps.hobartcity.com.au/gis/PublicArt/IMG_0080.JPG","URL_2":null,"Check_Image":null},"geometry":{"type":"Point","coordinates":[147.33222798451555,-42.88686006898552]}},{"type":"Feature","properties":{"OBJECTID":65,"Artist":"Ken Betlehem","Title":"Mac","Date":2010,"Materials":"Aluminium","Address":"Salamanca Square","Description":"Lazer cut aluminium, human silhouette","Asset_ID":null,"Number":null,"Type":"Bike Rack","URL_1":"http://hccapps.hobartcity.com.au/gis/PublicArt/IMG_0081.JPG","URL_2":null,"Check_Image":null},"geometry":{"type":"Point","coordinates":[147.33220410244044,-42.88692748680722]}},{"type":"Feature","properties":{"OBJECTID":66,"Artist":"Ken Betlehem","Title":"Charlie","Date":2010,"Materials":"Aluminium","Address":"Salamanca Square","Description":"Lazer cut aluminium, human silhouette","Asset_ID":null,"Number":null,"Type":"Bike Rack","URL_1":"http://hccapps.hobartcity.com.au/gis/PublicArt/IMG_0081.JPG","URL_2":null,"Check_Image":null},"geometry":{"type":"Point","coordinates":[147.33215874532408,-42.887008833225195]}},{"type":"Feature","properties":{"OBJECTID":67,"Artist":"Ken Betlehem","Title":"Jo & Edie","Date":2010,"Materials":"Aluminium","Address":"Salamanca Square","Description":"Lazer cut aluminium, human silhouette","Asset_ID":null,"Number":null,"Type":"Bike Rack","URL_1":"http://hccapps.hobartcity.com.au/gis/PublicArt/IMG_0083.JPG","URL_2":null,"Check_Image":null},"geometry":{"type":"Point","coordinates":[147.33316091487612,-42.887231183312785]}},{"type":"Feature","properties":{"OBJECTID":68,"Artist":"Ken Betlehem","Title":"Charlie Kik & Rose","Date":2010,"Materials":"Aluminium","Address":"Salamanca Square","Description":"Lazer cut aluminium, human silhouette","Asset_ID":null,"Number":null,"Type":"Bike Rack","URL_1":"http://hccapps.hobartcity.com.au/gis/PublicArt/IMG_0084.JPG","URL_2":null,"Check_Image":null},"geometry":{"type":"Point","coordinates":[147.3331855393384,-42.887231111653]}},{"type":"Feature","properties":{"OBJECTID":69,"Artist":"Ken Betlehem","Title":"Ruby","Date":2010,"Materials":"Aluminium","Address":"Salamanca Square","Description":"Lazer cut aluminium, human silhouette","Asset_ID":null,"Number":null,"Type":"Bike Rack","URL_1":"http://hccapps.hobartcity.com.au/gis/PublicArt/IMG_0061.jpg","URL_2":null,"Check_Image":null},"geometry":{"type":"Point","coordinates":[147.3331736760321,-42.887242201931414]}},{"type":"Feature","properties":{"OBJECTID":70,"Artist":"Futago, Judith Abell, Chris Viney","Title":"1883","Date":2010,"Materials":"Stone, steel","Address":"Salamanca Palce","Description":"Steel cages with stone chips","Asset_ID":"211991","Number":1883,"Type":"Battery Point Trail","URL_1":"http://hccapps.hobartcity.com.au/gis/PublicArt/1833_073.jpg","URL_2":null,"Check_Image":null},"geometry":{"type":"Point","coordinates":[147.33464517416914,-42.88663918579913]}},{"type":"Feature","properties":{"OBJECTID":71,"Artist":"Futago, Judith Abell, Chris Viney","Title":"12.43","Date":2010,"Materials":"concrete, steel and resin","Address":"Castray Esplanade","Description":null,"Asset_ID":"211992","Number":1243,"Type":"Battery Point Trail","URL_1":"http://hccapps.hobartcity.com.au/gis/PublicArt/12.43_083.jpg","URL_2":null,"Check_Image":null},"geometry":{"type":"Point","coordinates":[147.33755096609698,-42.886599124404825]}},{"type":"Feature","properties":{"OBJECTID":72,"Artist":"Futago, Judith Abell, Chris Viney","Title":"628 nm","Date":2010,"Materials":"glass","Address":"Castray Eplanade foreshore","Description":null,"Asset_ID":"211993","Number":628,"Type":"Battery Point Trail","URL_1":"http://hccapps.hobartcity.com.au/gis/PublicArt/628_030.jpg","URL_2":null,"Check_Image":null},"geometry":{"type":"Point","coordinates":[147.33918903905678,-42.88743212320976]}},{"type":"Feature","properties":{"OBJECTID":73,"Artist":"Futago, Judith Abell, Chris Viney","Title":"2000","Date":2010,"Materials":"steel, concrete","Address":"Finlay Street foreshore","Description":"steel wrapped around concrete retaining wall","Asset_ID":"211994","Number":2000,"Type":"Battery Point Trail","URL_1":"http://hccapps.hobartcity.com.au/gis/PublicArt/Battery_point_pics_027_(Small).jpg","URL_2":null,"Check_Image":null},"geometry":{"type":"Point","coordinates":[147.33794900121384,-42.88901121558775]}},{"type":"Feature","properties":{"OBJECTID":74,"Artist":"Futago, Judith Abell, Chris Viney","Title":"1923","Date":2010,"Materials":"Wire mesh, plants","Address":"Clarke Avenue","Description":"wire cage containing topiary plant","Asset_ID":null,"Number":1923,"Type":"Battery Point Trail","URL_1":"http://hccapps.hobartcity.com.au/gis/PublicArt/Battery_point_pics_037_(Small).jpg","URL_2":null,"Check_Image":null},"geometry":{"type":"Point","coordinates":[147.33853814064415,-42.89018079910949]}},{"type":"Feature","properties":{"OBJECTID":75,"Artist":"Futago, Judith Abell, Chris Viney","Title":"313","Date":2010,"Materials":null,"Address":"Derwent Lane jetty","Description":"","Asset_ID":null,"Number":313,"Type":"Battery Point Trail","URL_1":"http://hccapps.hobartcity.com.au/gis/PublicArt/313_009.jpg","URL_2":null,"Check_Image":null},"geometry":{"type":"Point","coordinates":[147.33737553989246,-42.8923183997485]}},{"type":"Feature","properties":{"OBJECTID":76,"Artist":"Futago, Judith Abell, Chris Viney","Title":"1250","Date":2010,"Materials":null,"Address":"Napoleon Street","Description":"","Asset_ID":null,"Number":1250,"Type":"Battery Point Trail","URL_1":"http://hccapps.hobartcity.com.au/gis/PublicArt/1250_053.jpg","URL_2":null,"Check_Image":null},"geometry":{"type":"Point","coordinates":[147.3354824548092,-42.89227563696256]}},{"type":"Feature","properties":{"OBJECTID":77,"Artist":"Futago, Judith Abell, Chris Viney","Title":"24","Date":2010,"Materials":null,"Address":"Napoleon Street","Description":"Resin","Asset_ID":null,"Number":24,"Type":"Battery Point Trail","URL_1":"http://hccapps.hobartcity.com.au/gis/PublicArt/Battery_point_pics_072_(Small).jpg","URL_2":null,"Check_Image":null},"geometry":{"type":"Point","coordinates":[147.3346862255545,-42.89331214092064]}},{"type":"Feature","properties":{"OBJECTID":78,"Artist":"Futago, Judith Abell, Chris Viney","Title":"1909","Date":2010,"Materials":null,"Address":"Marieville esplanade foreshore","Description":"painted steel sculpture","Asset_ID":null,"Number":1909,"Type":"Battery Point Trail","URL_1":"http://hccapps.hobartcity.com.au/gis/PublicArt/Battery_point_pics_072_(Small).jpg","URL_2":null,"Check_Image":null},"geometry":{"type":"Point","coordinates":[147.33358784218362,-42.89438818219709]}},{"type":"Feature","properties":{"OBJECTID":79,"Artist":"Ari Purhonen ","Title":"Beacon","Date":2013,"Materials":"Timber, Stainless steel","Address":"Long Beach Sandy Bay","Description":"stainless steel and celery top pine tower","Asset_ID":"219337","Number":null,"Type":"Art","URL_1":"http://hccapps.hobartcity.com.au/gis/PublicArt/Ari_Purhonen_WEB_039.jpg","URL_2":"http://hccapps.hobartcity.com.au/gis/PublicArt/Ari_Purhonen_WEB_015.jpg","Check_Image":null},"geometry":{"type":"Point","coordinates":[147.35724240241015,-42.91021762682649]}},{"type":"Feature","properties":{"OBJECTID":80,"Artist":"Justy Phillips","Title":"The yellow line","Date":2013,"Materials":"Aluminium, Acrylic, LED lights","Address":"Salamanca Place","Description":"Inground light box","Asset_ID":null,"Number":null,"Type":"Urban Art","URL_1":"http://hccapps.hobartcity.com.au/gis/PublicArt/In_the_Wake_of_your_Courage_I_swim.jpg","URL_2":null,"Check_Image":null},"geometry":{"type":"Point","coordinates":[147.33030519046005,-42.88606102884401]}},{"type":"Feature","properties":{"OBJECTID":81,"Artist":"Justy Phillips","Title":"The yellow line","Date":2013,"Materials":"Aluminium, Acrylic, LED lights","Address":"Salamanca Place","Description":"Inground light box","Asset_ID":null,"Number":null,"Type":"Urban Art","URL_1":"http://hccapps.hobartcity.com.au/gis/PublicArt/Forgive_me_for_not_holding_you_in_my_arms.jpg","URL_2":null,"Check_Image":null},"geometry":{"type":"Point","coordinates":[147.33004099490498,-42.885892375710895]}},{"type":"Feature","properties":{"OBJECTID":82,"Artist":"Georgie Marshall, Najibeh Jafari","Title":"No Trees No City","Date":2011,"Materials":"paint","Address":"Cnr Davey and Harrington Streets","Description":"mural","Asset_ID":null,"Number":9101,"Type":"Signal Box","URL_1":"http://hccapps.hobartcity.com.au/gis/PublicArt/9101_a.jpg","URL_2":"http://hccapps.hobartcity.com.au/gis/PublicArt/9101_b.jpg","Check_Image":null},"geometry":{"type":"Point","coordinates":[147.32755044500558,-42.88637147044794]}},{"type":"Feature","properties":{"OBJECTID":83,"Artist":"Rory Lefroy","Title":"Safe with us now","Date":2011,"Materials":"paint","Address":"Cnr Davey & Murray St","Description":"mural","Asset_ID":null,"Number":9103,"Type":"Signal Box","URL_1":"http://hccapps.hobartcity.com.au/gis/PublicArt/9103_front.jpg","URL_2":"http://hccapps.hobartcity.com.au/gis/PublicArt/9103_side.jpg","Check_Image":null},"geometry":{"type":"Point","coordinates":[147.32956385638508,-42.884362959411746]}},{"type":"Feature","properties":{"OBJECTID":84,"Artist":"Cosmos Inc","Title":"Things we love about Tasmania","Date":2011,"Materials":"paint","Address":"Cnr Macquarie & Murray Sts","Description":"mural","Asset_ID":null,"Number":9104,"Type":"Signal Box","URL_1":"http://hccapps.hobartcity.com.au/gis/PublicArt/9104_a.jpg","URL_2":"http://hccapps.hobartcity.com.au/gis/PublicArt/9104_b.jpg","Check_Image":null},"geometry":{"type":"Point","coordinates":[147.32885789928918,-42.8839316921703]}},{"type":"Feature","properties":{"OBJECTID":85,"Artist":"Valentina Marshall, Veronika Beinssen-Henry","Title":"Spotted Handfish","Date":null,"Materials":null,"Address":"Cnr Davey and Argyle Sts","Description":null,"Asset_ID":null,"Number":9105,"Type":null,"URL_1":"http://hccapps.hobartcity.com.au/gis/PublicArt/9105_a.jpg","URL_2":"http://hccapps.hobartcity.com.au/gis/PublicArt/9105_b.jpg","Check_Image":null},"geometry":{"type":"Point","coordinates":[147.33193241086235,-42.882515869727925]}},{"type":"Feature","properties":{"OBJECTID":86,"Artist":"Nicole Robson for MADE","Title":"MADE","Date":2011,"Materials":null,"Address":"Cnr Macquarie & Argyle Sts","Description":null,"Asset_ID":null,"Number":9106,"Type":null,"URL_1":"http://hccapps.hobartcity.com.au/gis/PublicArt/9106_2.jpg","URL_2":"http://hccapps.hobartcity.com.au/gis/PublicArt/9106_detail.jpg","Check_Image":null},"geometry":{"type":"Point","coordinates":[147.33136807457439,-42.88204264244135]}},{"type":"Feature","properties":{"OBJECTID":87,"Artist":"The Pigeons of Hobart","Title":"Lucy Hawthorne","Date":2012,"Materials":null,"Address":"Cnr Campbell & Macquarie Sts","Description":null,"Asset_ID":null,"Number":9107,"Type":null,"URL_1":"http://hccapps.hobartcity.com.au/gis/PublicArt/9107_north-corner_w430_h620_Small.jpg","URL_2":"http://hccapps.hobartcity.com.au/gis/PublicArt/9107_south-side_w430_h620_Small.jpg","Check_Image":null},"geometry":{"type":"Point","coordinates":[147.33244780106352,-42.880726661515126]}},{"type":"Feature","properties":{"OBJECTID":88,"Artist":"Crazy Flower Pattern","Title":"Juanita Morris & Marcel Fantini ","Date":2012,"Materials":null,"Address":"Cnr Campbell & Collins Sts","Description":null,"Asset_ID":null,"Number":9108,"Type":null,"URL_1":"http://hccapps.hobartcity.com.au/gis/PublicArt/9108_2Small.jpg","URL_2":"http://hccapps.hobartcity.com.au/gis/PublicArt/9108_1_Small.jpg","Check_Image":null},"geometry":{"type":"Point","coordinates":[147.3316359532766,-42.88010566686117]}},{"type":"Feature","properties":{"OBJECTID":89,"Artist":"Hands on Tasmania","Title":"Hands on English class, Tasmanian Polytechnic","Date":2012,"Materials":null,"Address":"Cnr Argyle & Liverpool Sts","Description":null,"Asset_ID":null,"Number":9109,"Type":null,"URL_1":"http://hccapps.hobartcity.com.au/gis/PublicArt/9109_front_Small.jpg","URL_2":"http://hccapps.hobartcity.com.au/gis/PublicArt/9109_side_1_Small.jpg","Check_Image":null},"geometry":{"type":"Point","coordinates":[147.32830309015782,-42.8801740065739]}},{"type":"Feature","properties":{"OBJECTID":90,"Artist":"Holiday Time","Title":"Oakdale Services ","Date":2011,"Materials":null,"Address":"Holiday Time","Description":null,"Asset_ID":null,"Number":9110,"Type":null,"URL_1":"http://hccapps.hobartcity.com.au/gis/PublicArt/9110_front.jpg","URL_2":"http://hccapps.hobartcity.com.au/gis/PublicArt/9110_side.jpg","Check_Image":null},"geometry":{"type":"Point","coordinates":[147.32995968070736,-42.88106497576714]}},{"type":"Feature","properties":{"OBJECTID":91,"Artist":"From darkness we all can find the light","Title":"Create Foundation and Reclink ","Date":2011,"Materials":null,"Address":"Cnr Macquarie and Elizabeth Sts","Description":null,"Asset_ID":null,"Number":9111,"Type":null,"URL_1":"http://hccapps.hobartcity.com.au/gis/PublicArt/9111_2.jpg","URL_2":"http://hccapps.hobartcity.com.au/gis/PublicArt/91111.jpg","Check_Image":null},"geometry":{"type":"Point","coordinates":[147.32997879028227,-42.88282688918648]}},{"type":"Feature","properties":{"OBJECTID":92,"Artist":"Desma Pacitto ","Title":"TasCare Society for Children","Date":2011,"Materials":null,"Address":"Cnr Murray & Collins","Description":null,"Asset_ID":null,"Number":9112,"Type":null,"URL_1":"http://hccapps.hobartcity.com.au/gis/PublicArt/9112_1.jpg","URL_2":"http://hccapps.hobartcity.com.au/gis/PublicArt/9112_2.jpg","Check_Image":null},"geometry":{"type":"Point","coordinates":[147.32889579328923,-42.88199637365013]}},{"type":"Feature","properties":{"OBJECTID":93,"Artist":"Reclink - Phillip McKay, Headway","Title":"Such is Life","Date":2011,"Materials":null,"Address":"Cnr Liverpool & Murray Sts","Description":null,"Asset_ID":null,"Number":9113,"Type":null,"URL_1":"http://hccapps.hobartcity.com.au/gis/PublicArt/9113_a.jpg","URL_2":"http://hccapps.hobartcity.com.au/gis/PublicArt/9113_b.jpg","Check_Image":null},"geometry":{"type":"Point","coordinates":[147.32551620302976,-42.882570463469555]}},{"type":"Feature","properties":{"OBJECTID":94,"Artist":"Risdon Prisoners with assistance from RecLink","Title":"At What Cost?","Date":2011,"Materials":null,"Address":"Cnr Elizabeth & LIverpool Sts","Description":null,"Asset_ID":null,"Number":9114,"Type":null,"URL_1":"http://hccapps.hobartcity.com.au/gis/PublicArt/9114_1.jpg","URL_2":"http://hccapps.hobartcity.com.au/gis/PublicArt/9114_2.jpg","Check_Image":null},"geometry":{"type":"Point","coordinates":[147.3269330962386,-42.88126675829871]}},{"type":"Feature","properties":{"OBJECTID":95,"Artist":"Sam Fenton","Title":"Courage","Date":2012,"Materials":null,"Address":"Cnr Elizabeth & Collins Sts","Description":null,"Asset_ID":null,"Number":9115,"Type":null,"URL_1":"http://hccapps.hobartcity.com.au/gis/PublicArt/9115_2_Small.jpg","URL_2":"http://hccapps.hobartcity.com.au/gis/PublicArt/9115_5_Small.jpg","Check_Image":null},"geometry":{"type":"Point","coordinates":[147.32912856278568,-42.88207941858523]}},{"type":"Feature","properties":{"OBJECTID":96,"Artist":"Epilepsy Tasmania","Title":"Out of the ","Date":2012,"Materials":null,"Address":"Cnr Harrington & Liverpool Sts","Description":null,"Asset_ID":null,"Number":9118,"Type":null,"URL_1":"http://hccapps.hobartcity.com.au/gis/PublicArt/9118_2Small.jpg","URL_2":"http://hccapps.hobartcity.com.au/gis/PublicArt/9118_1_Small.jpg","Check_Image":null},"geometry":{"type":"Point","coordinates":[147.3241790450382,-42.884130452612695]}},{"type":"Feature","properties":{"OBJECTID":97,"Artist":"Malou Zuidema","Title":"Forests of the Sea","Date":2012,"Materials":null,"Address":"Cnr Bathurst & Murray Sts","Description":null,"Asset_ID":null,"Number":9119,"Type":null,"URL_1":"http://hccapps.hobartcity.com.au/gis/PublicArt/9119-oceans-of-the-sea-front-malou-zuidema_w430_h620_Small.jpg","URL_2":"http://hccapps.hobartcity.com.au/gis/PublicArt/9119-oceans-of-the-sea-side-2-malou-zuidema_w430_h620_Small.jpg","Check_Image":null},"geometry":{"type":"Point","coordinates":[147.3242660774709,-42.8819844362505]}},{"type":"Feature","properties":{"OBJECTID":98,"Artist":"Menzie Family","Title":"The many layers of Bathurst Street","Date":2011,"Materials":null,"Address":" Cnr Elizabeth & Bathurst Sts","Description":null,"Asset_ID":null,"Number":9121,"Type":null,"URL_1":"http://hccapps.hobartcity.com.au/gis/PublicArt/9121_a.jpg","URL_2":"http://hccapps.hobartcity.com.au/gis/PublicArt/9121_b.jpg","Check_Image":null},"geometry":{"type":"Point","coordinates":[147.32583503875304,-42.88082135063647]}},{"type":"Feature","properties":{"OBJECTID":99,"Artist":"Sharnie Everett and Palawa Aboriginal Group","Title":"Island & Ocean","Date":2012,"Materials":null,"Address":"Elizabeth St at Pedestrian Crossing","Description":null,"Asset_ID":null,"Number":2012,"Type":null,"URL_1":"http://hccapps.hobartcity.com.au/gis/PublicArt/9123_palawa-front-1_w430_h620_Small.jpg","URL_2":"http://hccapps.hobartcity.com.au/gis/PublicArt/9123_palawa-right-side-back_w430_h620_Small.jpg","Check_Image":null},"geometry":{"type":"Point","coordinates":[147.3158825202121,-42.87362643008063]}},{"type":"Feature","properties":{"OBJECTID":100,"Artist":"Caroline Amos","Title":"Scotch Thistile Tavern 1828","Date":2012,"Materials":null,"Address":"Cnr Barrack & Liverpool Sts","Description":null,"Asset_ID":null,"Number":9129,"Type":null,"URL_1":"http://hccapps.hobartcity.com.au/gis/PublicArt/9129_dsc-2173_w430_h620_Small.jpg","URL_2":"http://hccapps.hobartcity.com.au/gis/PublicArt/9129_dsc-2182_w430_h620_Small.jpg","Check_Image":null},"geometry":{"type":"Point","coordinates":[147.32243366409176,-42.88572371231743]}},{"type":"Feature","properties":{"OBJECTID":101,"Artist":"Tasmanian eSchool","Title":"Flicks","Date":2012,"Materials":null,"Address":"Cnr Collins & Harrington Sts","Description":null,"Asset_ID":null,"Number":9131,"Type":null,"URL_1":"http://hccapps.hobartcity.com.au/gis/PublicArt/9131_2_Small.jpg","URL_2":"http://hccapps.hobartcity.com.au/gis/PublicArt/9131_4_Small.jpg","Check_Image":null},"geometry":{"type":"Point","coordinates":[147.3252559336992,-42.884904539818905]}},{"type":"Feature","properties":{"OBJECTID":102,"Artist":"Aspire","Title":"Aspired","Date":2011,"Materials":null,"Address":" Cnr Elizabeth & Melville Sts","Description":null,"Asset_ID":null,"Number":9134,"Type":null,"URL_1":"http://hccapps.hobartcity.com.au/gis/PublicArt/9134_1.jpg","URL_2":"http://hccapps.hobartcity.com.au/gis/PublicArt/9134_2.jpg","Check_Image":null},"geometry":{"type":"Point","coordinates":[147.32449176322643,-42.880252182057944]}},{"type":"Feature","properties":{"OBJECTID":103,"Artist":"Steffi Koppelmann","Title":"Untitled","Date":2012,"Materials":null,"Address":"Cnr Elizabeth & Warwick Sts","Description":null,"Asset_ID":null,"Number":9136,"Type":null,"URL_1":"http://hccapps.hobartcity.com.au/gis/PublicArt/9136_Small.jpg","URL_2":"http://hccapps.hobartcity.com.au/gis/PublicArt/9136_2Small.jpg","Check_Image":null},"geometry":{"type":"Point","coordinates":[147.3190664947627,-42.8778415062945]}},{"type":"Feature","properties":{"OBJECTID":104,"Artist":"Friends School Kindergarten","Title":"Peace","Date":2012,"Materials":null,"Address":"Cnr Elizabeth & Burnett Sts","Description":null,"Asset_ID":null,"Number":9137,"Type":null,"URL_1":"http://hccapps.hobartcity.com.au/gis/PublicArt/9137_2_Small.jpg","URL_2":"http://hccapps.hobartcity.com.au/gis/PublicArt/9137_1_Small.jpg","Check_Image":null},"geometry":{"type":"Point","coordinates":[147.31714128710647,-42.87448353703268]}},{"type":"Feature","properties":{"OBJECTID":105,"Artist":"Geordie Duncan","Title":"Totem Sun-Whale Eye","Date":2011,"Materials":null,"Address":" Cnr Elizabeth & Federal St","Description":null,"Asset_ID":null,"Number":9138,"Type":null,"URL_1":"http://hccapps.hobartcity.com.au/gis/PublicArt/9138_1.jpg","URL_2":"http://hccapps.hobartcity.com.au/gis/PublicArt/9138_2.jpg","Check_Image":null},"geometry":{"type":"Point","coordinates":[147.31454972625806,-42.871978022114995]}},{"type":"Feature","properties":{"OBJECTID":106,"Artist":"St Michael's Collegiate, Louise Bloomfield","Title":"Catching your eye","Date":2012,"Materials":null,"Address":"Cnr Macquarie & Molle Sts","Description":null,"Asset_ID":null,"Number":9140,"Type":null,"URL_1":"http://hccapps.hobartcity.com.au/gis/PublicArt/9140_collegiate-angle2_w430_h620_Small.jpg","URL_2":"http://hccapps.hobartcity.com.au/gis/PublicArt/9140_collegiate-side-angle_w430_h620_Small.jpg","Check_Image":null},"geometry":{"type":"Point","coordinates":[147.32261911986063,-42.8884339103588]}},{"type":"Feature","properties":{"OBJECTID":107,"Artist":"Leigh & Julian Oates","Title":"Beneath","Date":2011,"Materials":null,"Address":"Cnr Elizabeth & Davey Sts","Description":null,"Asset_ID":null,"Number":9148,"Type":null,"URL_1":"http://hccapps.hobartcity.com.au/gis/PublicArt/9148_1.jpg","URL_2":"http://hccapps.hobartcity.com.au/gis/PublicArt/9148_2.jpg","Check_Image":null},"geometry":{"type":"Point","coordinates":[147.33159193450075,-42.883213000185435]}},{"type":"Feature","properties":{"OBJECTID":108,"Artist":"Tom O'Hern","Title":"Stump","Date":2012,"Materials":null,"Address":"Cnr Brisbane & Harrington Sts","Description":null,"Asset_ID":null,"Number":9149,"Type":null,"URL_1":"http://hccapps.hobartcity.com.au/gis/PublicArt/9149_Small.jpg","URL_2":"http://hccapps.hobartcity.com.au/gis/PublicArt/9149_2Small.jpg","Check_Image":null},"geometry":{"type":"Point","coordinates":[147.3207044199662,-42.881686867422516]}},{"type":"Feature","properties":{"OBJECTID":109,"Artist":"Hannah Cardamatis","Title":"Hannah's","Date":2012,"Materials":null,"Address":"Cnr Brisbane & Elizabeth Sts","Description":null,"Asset_ID":null,"Number":9151,"Type":null,"URL_1":"http://hccapps.hobartcity.com.au/gis/PublicArt/9151_dsc07234_w430_h620_Small.jpg","URL_2":"http://hccapps.hobartcity.com.au/gis/PublicArt/9151_dsc07233_w430_h620_Small.jpg","Check_Image":null},"geometry":{"type":"Point","coordinates":[147.32330348451998,-42.87968220346027]}},{"type":"Feature","properties":{"OBJECTID":110,"Artist":"The Hutchins School Kindergarten, Kate Turner","Title":"Childhood Wishes","Date":2012,"Materials":null,"Address":"Cnr Sandy Bay & Gladstone Rds","Description":null,"Asset_ID":null,"Number":9168,"Type":null,"URL_1":"http://hccapps.hobartcity.com.au/gis/PublicArt/9168_dscn5250_w430_h620_Small.jpg","URL_2":"http://hccapps.hobartcity.com.au/gis/PublicArt/9168_dscn5252_w430_h620_Small.jpg","Check_Image":null},"geometry":{"type":"Point","coordinates":[147.32995598009015,-42.88803881594107]}},{"type":"Feature","properties":{"OBJECTID":111,"Artist":"Community Rehabilitation Unit Art Group, Julie Oh","Title":"Live","Date":2012,"Materials":null,"Address":"Cnr Barrack & Davey Sts","Description":null,"Asset_ID":null,"Number":9175,"Type":null,"URL_1":"http://hccapps.hobartcity.com.au/gis/PublicArt/9175_view_3_Small.bmp","URL_2":"http://hccapps.hobartcity.com.au/gis/PublicArt/9175_view_2_Small.bmp","Check_Image":null},"geometry":{"type":"Point","coordinates":[147.32548823020988,-42.88760820853123]}},{"type":"Feature","properties":{"OBJECTID":112,"Artist":"Oak Tasmania, Aedan Howlett and RecLink","Title":"Moving On","Date":2010,"Materials":null,"Address":"Cnr Morrison and Murray Sts","Description":null,"Asset_ID":null,"Number":9177,"Type":null,"URL_1":"http://hccapps.hobartcity.com.au/gis/PublicArt/9177_1.jpg","URL_2":"http://hccapps.hobartcity.com.au/gis/PublicArt/9177_2.jpg","Check_Image":null},"geometry":{"type":"Point","coordinates":[147.33116175025646,-42.885188148330684]}},{"type":"Feature","properties":{"OBJECTID":113,"Artist":"Students of Hilliard Christian School","Title":"Summer Fun in Hobart","Date":2011,"Materials":null,"Address":"Cnr Elizabeth & Morrison Sts","Description":null,"Asset_ID":null,"Number":9179,"Type":null,"URL_1":"http://hccapps.hobartcity.com.au/gis/PublicArt/9179_1.jpg","URL_2":"http://hccapps.hobartcity.com.au/gis/PublicArt/9179_2.jpg","Check_Image":null},"geometry":{"type":"Point","coordinates":[147.33227531106007,-42.88344676229425]}},{"type":"Feature","properties":{"OBJECTID":114,"Artist":"iriXx","Title":"Mandala","Date":2012,"Materials":null,"Address":"Cnr Davey St & Southern Outlet","Description":null,"Asset_ID":null,"Number":9194,"Type":null,"URL_1":"http://hccapps.hobartcity.com.au/gis/PublicArt/9194_Small.bmp","URL_2":"http://hccapps.hobartcity.com.au/gis/PublicArt/9194_2Small.bmp","Check_Image":null},"geometry":{"type":"Point","coordinates":[147.31852608719674,-42.89300586606251]}},{"type":"Feature","properties":{"OBJECTID":115,"Artist":"Community Friends & Networks Program (South),","Title":"Community Friends","Date":2011,"Materials":null,"Address":"Murray St (outside Hudson's Coffee)","Description":null,"Asset_ID":null,"Number":9408,"Type":null,"URL_1":"http://hccapps.hobartcity.com.au/gis/PublicArt/9408_1.jpg","URL_2":"http://hccapps.hobartcity.com.au/gis/PublicArt/9408_2.jpg","Check_Image":null},"geometry":{"type":"Point","coordinates":[147.32675261984934,-42.88320747598108]}},{"type":"Feature","properties":{"OBJECTID":116,"Artist":"Wendy Fitch","Title":"The Creature","Date":2012,"Materials":null,"Address":" Cnr Macquarie St & Southern Outlet","Description":null,"Asset_ID":null,"Number":9413,"Type":null,"URL_1":"http://hccapps.hobartcity.com.au/gis/PublicArt/9413_p1020213-1-1_w430_h620_Small.jpg","URL_2":"http://hccapps.hobartcity.com.au/gis/PublicArt/9413_p1020215-1-1_w430_h620_Small.jpg","Check_Image":null},"geometry":{"type":"Point","coordinates":[147.31733096471464,-42.89233572099871]}},{"type":"Feature","properties":{"OBJECTID":117,"Artist":"Hayley Francis","Title":"The Brisbane Stack","Date":2012,"Materials":null,"Address":"Cnr Brisbane & Campbell Sts","Description":null,"Asset_ID":null,"Number":9415,"Type":null,"URL_1":"http://hccapps.hobartcity.com.au/gis/PublicArt/9415_img-1660_w430_h620_Small.jpg","URL_2":"http://hccapps.hobartcity.com.au/gis/PublicArt/9415_img-1662-2_w430_h620_Small.jpg","Check_Image":null},"geometry":{"type":"Point","coordinates":[147.3266295864027,-42.876971373964096]}},{"type":"Feature","properties":{"OBJECTID":118,"Artist":"Argyle St near the Royal Hobart Hospital","Title":"Forever Young","Date":2011,"Materials":null,"Address":"Argyle St near the Royal Hobart Hospital","Description":null,"Asset_ID":null,"Number":9429,"Type":null,"URL_1":"http://hccapps.hobartcity.com.au/gis/PublicArt/9429_a_.jpg","URL_2":"http://hccapps.hobartcity.com.au/gis/PublicArt/9429_b.jpg","Check_Image":null},"geometry":{"type":"Point","coordinates":[147.32937239196062,-42.88092933469534]}},{"type":"Feature","properties":{"OBJECTID":119,"Artist":"Campbell St Primary School","Title":"Our School in our Community","Date":2012,"Materials":null,"Address":"Cnr Campbell & Warwick Sts","Description":null,"Asset_ID":null,"Number":9437,"Type":null,"URL_1":"http://hccapps.hobartcity.com.au/gis/PublicArt/9437_Small.jpg","URL_2":"http://hccapps.hobartcity.com.au/gis/PublicArt/9437_2Small.jpg","Check_Image":null},"geometry":{"type":"Point","coordinates":[147.32342506903765,-42.87440269923783]}},{"type":"Feature","properties":{"OBJECTID":120,"Artist":"Guilford Young College.","Title":"Sense of Place","Date":2012,"Materials":null,"Address":"Cnr Harrington & Melville Sts","Description":null,"Asset_ID":null,"Number":9466,"Type":null,"URL_1":"http://hccapps.hobartcity.com.au/gis/PublicArt/9466_Small.jpg","URL_2":"http://hccapps.hobartcity.com.au/gis/PublicArt/9466_3_Small.jpg","Check_Image":null},"geometry":{"type":"Point","coordinates":[147.321932443038,-42.88231167785222]}},{"type":"Feature","properties":{"OBJECTID":121,"Artist":"Patrick Hall, Lynda Warner & Chirs Viney","Title":"Beaumaris Zoo gate","Date":2002,"Materials":"steel, tiles, images","Address":"Carriage Drive, Queens Domain","Description":null,"Asset_ID":null,"Number":50,"Type":"Public Art","URL_1":"http://hccapps.hobartcity.com.au/gis/PublicArt/image39.jpeg","URL_2":null,"Check_Image":null},"geometry":{"type":"Point","coordinates":[147.333000778231,-42.87059157293668]}},{"type":"Feature","properties":{"OBJECTID":122,"Artist":"Stephen Walker","Title":"Antipodean Voyage","Date":1972,"Materials":"houn pine, steel","Address":"Royal Tasmania Botanical Gardens","Description":"Huion pine fountain sculpture","Asset_ID":null,"Number":51,"Type":null,"URL_1":"http://hccapps.hobartcity.com.au/gis/PublicArt/Antipodean Voyage.jpg","URL_2":null,"Check_Image":null},"geometry":{"type":"Point","coordinates":[147.33347999648805,-42.865117020037246]}},{"type":"Feature","properties":{"OBJECTID":123,"Artist":"Ronald Sinclair","Title":"Long Beach bathing pavillion","Date":1962,"Materials":"concrete","Address":"Bathing Pavillion, Long Beach Sandy Bay","Description":"Bas-relief","Asset_ID":null,"Number":52,"Type":"Public Art","URL_1":"http://hccapps.hobartcity.com.au/gis/PublicArt/image43.jpeg","URL_2":null,"Check_Image":null},"geometry":{"type":"Point","coordinates":[147.35727827941395,-42.91381700886378]}},{"type":"Feature","properties":{"OBJECTID":124,"Artist":"Audrey Hutchinson","Title":"Tree Sculpture","Date":1986,"Materials":"","Address":"McRobies Gully Recycling centre","Description":"Sculpture","Asset_ID":null,"Number":53,"Type":null,"URL_1":"http://hccapps.hobartcity.com.au/gis/PublicArt/image70.jpeg","URL_2":null,"Check_Image":null},"geometry":{"type":"Point","coordinates":[147.29078159101763,-42.89064777084187]}},{"type":"Feature","properties":{"OBJECTID":125,"Artist":"Aquila Night","Title":"Recycled Gate","Date":1985,"Materials":"steel ","Address":"McRobies Gully Recycling centre","Description":"Sculpture","Asset_ID":null,"Number":54,"Type":null,"URL_1":"http://hccapps.hobartcity.com.au/gis/PublicArt/image71.jpeg","URL_2":null,"Check_Image":null},"geometry":{"type":"Point","coordinates":[147.29074750783664,-42.89066344639913]}},{"type":"Feature","properties":{"OBJECTID":126,"Artist":"Robert Morris-Nunn","Title":"Pipe sculpture","Date":1993,"Materials":"","Address":"Waterworks reserve","Description":"","Asset_ID":null,"Number":55,"Type":null,"URL_1":"http://hccapps.hobartcity.com.au/gis/PublicArt/image72.jpeg","URL_2":null,"Check_Image":null},"geometry":{"type":"Point","coordinates":[147.2926811259526,-42.90769916324634]}},{"type":"Feature","properties":{"OBJECTID":127,"Artist":"Tom Samek, Bevan Reeves","Title":"Play equipment","Date":1997,"Materials":"Timber, paint","Address":"Wellington Court","Description":"Wooden play equipment and sculpted shapes","Asset_ID":null,"Number":null,"Type":"Public Art","URL_1":"http://hccapps.hobartcity.com.au/gis/PublicArt/image15.jpeg","URL_2":null,"Check_Image":null},"geometry":{"type":"Point","coordinates":[147.32851954609694,-42.88134056292964]}},{"type":"Feature","properties":{"OBJECTID":128,"Artist":"Julie Stoneman, Richard Bladel","Title":"Youth Arts Project, Bidencopes Lane","Date":1998,"Materials":"Aluminium bands bearing text on walls","Address":"Bidencopes Lane","Description":null,"Asset_ID":null,"Number":null,"Type":"Public Art","URL_1":"http://hccapps.hobartcity.com.au/gis/PublicArt/image24.jpeg","URL_2":null,"Check_Image":null},"geometry":{"type":"Point","coordinates":[147.3244518406399,-42.88224783810149]}},{"type":"Feature","properties":{"OBJECTID":129,"Artist":"Unknown","Title":"Art pavers","Date":1998,"Materials":"Pavers","Address":"Collins Street","Description":"Art pavers","Asset_ID":null,"Number":null,"Type":"Public Art","URL_1":"http://hccapps.hobartcity.com.au/gis/PublicArt/image25.jpeg","URL_2":null,"Check_Image":null},"geometry":{"type":"Point","coordinates":[147.33278392851773,-42.87919042177005]}},{"type":"Feature","properties":{"OBJECTID":130,"Artist":"Julie Hawkins","Title":"The More Things Change ","Date":2002,"Materials":"metal","Address":"Victoria Walk","Description":"Metal interpretive signs","Asset_ID":null,"Number":null,"Type":"Public Art","URL_1":"http://hccapps.hobartcity.com.au/gis/PublicArt/image26.jpeg","URL_2":null,"Check_Image":null},"geometry":{"type":"Point","coordinates":[147.32541180281186,-42.88394307333212]}},{"type":"Feature","properties":{"OBJECTID":131,"Artist":"Julie Hawkins","Title":"The More Things Change ","Date":2002,"Materials":"metal","Address":"Victoria Walk","Description":"Metal interpretive signs","Asset_ID":null,"Number":null,"Type":"Public Art","URL_1":"http://hccapps.hobartcity.com.au/gis/PublicArt/image26.jpeg","URL_2":null,"Check_Image":null},"geometry":{"type":"Point","coordinates":[147.32544110570072,-42.883970152615554]}},{"type":"Feature","properties":{"OBJECTID":132,"Artist":"Julie Hawkins","Title":"Welcome to Victoria Walk","Date":2002,"Materials":"aluminium","Address":"Victoria walk","Description":"Interpretive sign","Asset_ID":null,"Number":null,"Type":"Public Art","URL_1":"http://hccapps.hobartcity.com.au/gis/PublicArt/image27.jpeg","URL_2":null,"Check_Image":null},"geometry":{"type":"Point","coordinates":[147.32560123277904,-42.88410693753949]}},{"type":"Feature","properties":{"OBJECTID":133,"Artist":"Vlase Nikoleski","Title":"Endeavour plaque","Date":1970,"Materials":"Bronze","Address":"Hobart Town Hall, Maquarie st","Description":"Bronze representation of Cook's ship, Endeavour","Asset_ID":"94474","Number":null,"Type":null,"URL_1":"http://hccapps.hobartcity.com.au/gis/PublicArt/image28.jpeg","URL_2":null,"Check_Image":null},"geometry":{"type":"Point","coordinates":[147.3308171184132,-42.88251089849521]}},{"type":"Feature","properties":{"OBJECTID":134,"Artist":"Leonard Jennings","Title":"Edward VII Peacemaker","Date":1921,"Materials":"Bronze","Address":"Franklin Square","Description":"Statue of a Edward VII","Asset_ID":"94550","Number":null,"Type":"Public Art","URL_1":"http://hccapps.hobartcity.com.au/gis/PublicArt/image29.jpeg","URL_2":null,"Check_Image":null},"geometry":{"type":"Point","coordinates":[147.32997138077985,-42.88313046358676]}},{"type":"Feature","properties":{"OBJECTID":135,"Artist":"M Racci","Title":"Dr William Lodewyk Crowther","Date":1889,"Materials":"Bronze","Address":"Franklin Square","Description":"Bronze statue of William Crowther","Asset_ID":"5619","Number":null,"Type":"Public Art","URL_1":"http://hccapps.hobartcity.com.au/gis/PublicArt/image30.jpeg","URL_2":null,"Check_Image":null},"geometry":{"type":"Point","coordinates":[147.33038808493413,-42.883605988783366]}},{"type":"Feature","properties":{"OBJECTID":136,"Artist":"Unknown","Title":"John Franklin fountain","Date":1864,"Materials":"Bronze","Address":"Franklin Square","Description":"Bronze statue and fountain","Asset_ID":null,"Number":null,"Type":"Public Art","URL_1":"http://hccapps.hobartcity.com.au/gis/PublicArt/image31.jpeg","URL_2":"http://hccapps.hobartcity.com.au/gis/PublicArt/image32.jpeg","Check_Image":null},"geometry":{"type":"Point","coordinates":[147.33023546891465,-42.88335217448925]}},{"type":"Feature","properties":{"OBJECTID":137,"Artist":"Bernard Walker, Elizabeth Conlon","Title":"Hobart Cenotaph","Date":1925,"Materials":"Stone, Bronze","Address":"Regatta Grounds","Description":"Granite obelisk, bluestone base","Asset_ID":null,"Number":null,"Type":"Memorial","URL_1":"http://hccapps.hobartcity.com.au/gis/PublicArt/image37.jpeg","URL_2":null,"Check_Image":null},"geometry":{"type":"Point","coordinates":[147.33654746593527,-42.87782018668676]}},{"type":"Feature","properties":{"OBJECTID":138,"Artist":"Benjamin Sheppard","Title":"Boer War memorial","Date":1905,"Materials":"Bronze, stone","Address":"Queens Domain","Description":"Bronze statue of Boer War soldier","Asset_ID":null,"Number":null,"Type":"Memorial","URL_1":"http://hccapps.hobartcity.com.au/gis/PublicArt/image36.jpeg","URL_2":null,"Check_Image":null},"geometry":{"type":"Point","coordinates":[147.33350055203712,-42.876133179076845]}},{"type":"Feature","properties":{"OBJECTID":139,"Artist":"Lorraine and Bob Jennings","Title":"Monument to the Canadian convicts","Date":1995,"Materials":"Stone, glass","Address":"Princes Park","Description":null,"Asset_ID":null,"Number":null,"Type":"Memorial","URL_1":"http://hccapps.hobartcity.com.au/gis/PublicArt/image42.jpeg","URL_2":null,"Check_Image":null},"geometry":{"type":"Point","coordinates":[147.33763618755196,-42.887761428373544]}},{"type":"Feature","properties":{"OBJECTID":140,"Artist":"Bruce Pringle","Title":"Gate","Date":1990,"Materials":"Wrought iron","Address":"North Hobart Cultural Park","Description":"Curly wrought iron gate","Asset_ID":null,"Number":null,"Type":"Public Art","URL_1":"http://hccapps.hobartcity.com.au/gis/PublicArt/image53.jpeg","URL_2":null,"Check_Image":null},"geometry":{"type":"Point","coordinates":[147.31647126792487,-42.876944471763416]}},{"type":"Feature","properties":{"OBJECTID":141,"Artist":"Linda Warner, Juile Stoneman, Chris Viney","Title":"Migration Wall","Date":2001,"Materials":"Paint","Address":"North Hobart Memorial Park","Description":"Mural","Asset_ID":null,"Number":null,"Type":"Public Art","URL_1":"http://hccapps.hobartcity.com.au/gis/PublicArt/image54.jpeg","URL_2":null,"Check_Image":null},"geometry":{"type":"Point","coordinates":[147.3169390561209,-42.877088956053846]}},{"type":"Feature","properties":{"OBJECTID":142,"Artist":"Unknown","Title":"Poem Monument","Date":1993,"Materials":"Stone","Address":"Stoke Street Reserve","Description":"Granite block with the text","Asset_ID":null,"Number":null,"Type":"Memorial","URL_1":"http://hccapps.hobartcity.com.au/gis/PublicArt/image55.jpeg","URL_2":null,"Check_Image":null},"geometry":{"type":"Point","coordinates":[147.3109924474019,-42.86428880694362]}},{"type":"Feature","properties":{"OBJECTID":143,"Artist":"Greg Duncan","Title":"Penny-farthing sculpture","Date":1997,"Materials":"Steel","Address":"Girrabong Rd and Lennah Valley Road.","Description":"Red-painted welded iron sculpture","Asset_ID":null,"Number":null,"Type":"Urban Art","URL_1":"http://hccapps.hobartcity.com.au/gis/PublicArt/image55.jpeg","URL_2":null,"Check_Image":null},"geometry":{"type":"Point","coordinates":[147.28218188835717,-42.8633890058617]}},{"type":"Feature","properties":{"OBJECTID":144,"Artist":"Julie Stoneman","Title":"Totem Pole","Date":null,"Materials":"Timber, paint","Address":"Risely Court Playground, Lenah Valley","Description":"Totem Pole","Asset_ID":null,"Number":null,"Type":null,"URL_1":"http://hccapps.hobartcity.com.au/gis/PublicArt/image57.jpeg","URL_2":null,"Check_Image":null},"geometry":{"type":"Point","coordinates":[147.27616456145327,-42.85774624765327]}},{"type":"Feature","properties":{"OBJECTID":145,"Artist":"Julie Stoneman","Title":"Totem Pole","Date":null,"Materials":"Timber, paint","Address":"Kalang avenue Playground.","Description":"Celery top pine totem pole","Asset_ID":null,"Number":null,"Type":null,"URL_1":"http://hccapps.hobartcity.com.au/gis/PublicArt/image58.jpeg","URL_2":null,"Check_Image":null},"geometry":{"type":"Point","coordinates":[147.2825943836745,-42.86011290026107]}},{"type":"Feature","properties":{"OBJECTID":147,"Artist":"Juile Stoneman, various","Title":"BBQ pit mural","Date":1995,"Materials":"Concrete, steel, tiles","Address":"Train Park West Hobart","Description":"Mural","Asset_ID":null,"Number":null,"Type":"Public Art","URL_1":"http://hccapps.hobartcity.com.au/gis/PublicArt/image67.jpeg","URL_2":null,"Check_Image":null},"geometry":{"type":"Point","coordinates":[147.3131547330428,-42.882095289999356]}},{"type":"Feature","properties":{"OBJECTID":148,"Artist":"Julie Stoneman","Title":"Interpretive Sculpture","Date":2003,"Materials":"Steel","Address":"Hobart Rivulet linear park near McFarlane Street","Description":"Steel girders with informative plates","Asset_ID":"65320","Number":null,"Type":null,"URL_1":"http://hccapps.hobartcity.com.au/gis/PublicArt/image68.jpeg","URL_2":null,"Check_Image":null},"geometry":{"type":"Point","coordinates":[147.30436321684067,-42.89437273400511]}},{"type":"Feature","properties":{"OBJECTID":149,"Artist":"Unknown","Title":"Mural","Date":1982,"Materials":"Paint","Address":"Anglesea Street","Description":"Painted Mural","Asset_ID":null,"Number":null,"Type":"Public Art","URL_1":"http://hccapps.hobartcity.com.au/gis/PublicArt/image69.jpeg","URL_2":null,"Check_Image":"No"},"geometry":{"type":"Point","coordinates":[147.30956044038155,-42.895396781750144]}},{"type":"Feature","properties":{"OBJECTID":150,"Artist":"Ken Betlehelm","Title":"Dazza","Date":2010,"Materials":"Aluminium","Address":"TMAG, 40 Macquarie Street","Description":"Lazer cut aluminium, human silhouette","Asset_ID":null,"Number":null,"Type":"Bike Rack","URL_1":"http://hccapps.hobartcity.com.au/gis/PublicArt/IMG_0074.jpg","URL_2":null,"Check_Image":null},"geometry":{"type":"Point","coordinates":[147.33178018525314,-42.8817288455364]}},{"type":"Feature","properties":{"OBJECTID":151,"Artist":null,"Title":"Queen Elizabeth 50th Anniversary","Date":1954,"Materials":"Granite, Bronze","Address":"Hunter Street","Description":"Memorial","Asset_ID":null,"Number":null,"Type":"Memorial","URL_1":"http://hccapps.hobartcity.com.au/gis/PublicArt/IMG_0076.JPG","URL_2":null,"Check_Image":null},"geometry":{"type":"Point","coordinates":[147.33554111220332,-42.881742066819385]}},{"type":"Feature","properties":{"OBJECTID":153,"Artist":"Sue Small, Wendy Edwards and Simon Pankhurst ","Title":"People and their imprints","Date":2014,"Materials":"Steel, Ceramic tiles, concrete","Address":"New Town Rivulet Linear Park ","Description":null,"Asset_ID":null,"Number":null,"Type":"Flora, Fauna and Foray","URL_1":"http://hccapps.hobartcity.com.au/gis/PublicArt/Foray_1_-_People_and_their_imprints_-_Image_by_Jonathan_Wherrett_web.jpg","URL_2":null,"Check_Image":null},"geometry":{"type":"Point","coordinates":[147.2806904048244,-42.86490775287734]}},{"type":"Feature","properties":{"OBJECTID":154,"Artist":"Sue Small, Wendy Edwards and Simon Pankhurst ","Title":"Threatened fauna","Date":2014,"Materials":"Steel, Ceramic tiles, concrete","Address":"New Town Rivulet Linear Park ","Description":null,"Asset_ID":null,"Number":null,"Type":"Flora, Fauna and Foray","URL_1":"http://hccapps.hobartcity.com.au/gis/PublicArt/Foray_2_-_Threatened_Fauna_-_Image_by_Jonathan_Wherrett_web.jpg","URL_2":null,"Check_Image":null},"geometry":{"type":"Point","coordinates":[147.2777378312531,-42.8652199328339]}},{"type":"Feature","properties":{"OBJECTID":155,"Artist":"Sue Small, Wendy Edwards and Simon Pankhurst ","Title":"Flora","Date":2014,"Materials":"Steel, Ceramic tiles, concrete","Address":"New Town Rivulet Linear Park ","Description":"Local plant species","Asset_ID":null,"Number":null,"Type":"Flora, Fauna and Foray","URL_1":"http://hccapps.hobartcity.com.au/gis/PublicArt/Flora_-_Image_by_Jonathan_Wherrett_web.jpg","URL_2":"http://hccapps.hobartcity.com.au/gis/PublicArt/Flora_detail_-_Image_by_Jonathan_Wherrett_web.jpg","Check_Image":null},"geometry":{"type":"Point","coordinates":[147.2757443552269,-42.86561550714906]}},{"type":"Feature","properties":{"OBJECTID":156,"Artist":"Sue Small, Wendy Edwards and Simon Pankhurst ","Title":"Fauna","Date":2014,"Materials":"Steel, Ceramic tiles, concrete","Address":"New Town Rivulet Linear Park ","Description":"Rivulet life","Asset_ID":null,"Number":null,"Type":"Flora, Fauna and Foray","URL_1":"http://hccapps.hobartcity.com.au/gis/PublicArt/Fauna_-_Image_by_Jonathan_Wherrett_web.jpg","URL_2":null,"Check_Image":null},"geometry":{"type":"Point","coordinates":[147.27015245995915,-42.866801103842775]}},{"type":"Feature","properties":{"OBJECTID":157,"Artist":"Sue Small, Wendy Edwards and Simon Pankhurst ","Title":"Geology","Date":2014,"Materials":"Steel, Ceramic tiles, concrete","Address":"New Town Rivulet Linear Park ","Description":null,"Asset_ID":null,"Number":null,"Type":"Flora, Fauna and Foray","URL_1":"http://hccapps.hobartcity.com.au/gis/PublicArt/Foray_3_-_Geology_detail_-_Image_by_Jonathan_Wherrett_web.jpg","URL_2":null,"Check_Image":null},"geometry":{"type":"Point","coordinates":[147.26840604510627,-42.86742470153721]}},{"type":"Feature","properties":{"OBJECTID":160,"Artist":"Sue Small, Wendy Edwards and Simon Pankhurst ","Title":"River fauna ","Date":2014,"Materials":"Steel, Ceramic tiles, concrete","Address":"New Town Rivulet Linear Park ","Description":null,"Asset_ID":null,"Number":null,"Type":"Flora, Fauna and Foray","URL_1":"http://hccapps.hobartcity.com.au/gis/PublicArt/Foray_4_-_River_Fauna_-_Image_by_Jonathan_Wherrett_web.jpg","URL_2":null,"Check_Image":null},"geometry":{"type":"Point","coordinates":[147.26533588733184,-42.870576961539975]}},{"type":"Feature","properties":{"OBJECTID":161,"Artist":"Sue Small, Wendy Edwards and Simon Pankhurst ","Title":"Vegetation","Date":2014,"Materials":"Steel, Ceramic tiles, concrete","Address":"New Town Rivulet Linear Park ","Description":null,"Asset_ID":null,"Number":null,"Type":"Flora, Fauna and Foray","URL_1":"http://hccapps.hobartcity.com.au/gis/PublicArt/Foray_5_-_Vegetation_-_Image_by_Jonathan_Wherrett_web.jpg","URL_2":null,"Check_Image":null},"geometry":{"type":"Point","coordinates":[147.25705972811832,-42.87454151591639]}}]}